$GPGSA,A,3,01,02,03,04,05,06,07,08,09,10,11,12,1.2,1.0,0.7*34
$GPGSV,3,1,12,01,45,045,50,02,45,045,50,03,45,045,50,04,45,045,50*7c
$GPGSV,3,2,12,05,45,045,50,06,45,045,50,07,45,045,50,08,45,045,50*77
$GPGSV,3,3,12,09,45,045,50,10,45,045,50,11,45,045,50,12,45,045,50*71
$GPRMC,120226.99,A,5200.1292,N,422.4733,E,0.3,-1.0,131223,0.0,E,A*17
$GPVTG,-1.0,T,0.0,M,0.3,N,0.5,K*64
$GPGGA,120226.99,5200.1292,N,00422.4733,E,12,12,1.0,-0.0,M,0.0,M,0.0,0000*62
$GPGSA,A,3,01,02,03,04,05,06,07,08,09,10,11,12,1.2,1.0,0.7*34
$GPGSV,3,1,12,01,45,045,50,02,45,045,50,03,45,045,50,04,45,045,50*7c
$GPGSV,3,2,12,05,45,045,50,06,45,045,50,07,45,045,50,08,45,045,50*77
$GPGSV,3,3,12,09,45,045,50,10,45,045,50,11,45,045,50,12,45,045,50*71
$GPRMC,120227.99,A,5200.1291,N,422.4733,E,0.0,-1.0,131223,0.0,E,A*16
$GPVTG,-1.0,T,0.0,M,0.0,N,0.0,K*62
$GPGGA,120227.99,5200.1291,N,00422.4733,E,12,12,1.0,0.0,M,0.0,M,0.0,0000*4d
$GPGSA,A,3,01,02,03,04,05,06,07,08,09,10,11,12,1.2,1.0,0.7*34
$GPGSV,3,1,12,01,45,045,50,02,45,045,50,03,45,045,50,04,45,045,50*7c
$GPGSV,3,2,12,05,45,045,50,06,45,045,50,07,45,045,50,08,45,045,50*77
$GPGSV,3,3,12,09,45,045,50,10,45,045,50,11,45,045,50,12,45,045,50*71
$GPRMC,120228.99,A,5200.1290,N,422.4736,E,0.0,-2.0,131223,0.0,E,A*1e
$GPVTG,-2.0,T,0.0,M,0.0,N,0.0,K*61
$GPGGA,120228.99,5200.1290,N,00422.4736,E,12,12,1.0,0.1,M,0.0,M,0.0,0000*47
$GPGSA,A,3,01,02,03,04,05,06,07,08,09,10,11,12,1.2,1.0,0.7*34
$GPGSV,3,1,12,01,45,045,50,02,45,045,50,03,45,045,50,04,45,045,50*7c
$GPGSV,3,2,12,05,45,045,50,06,45,045,50,07,45,045,50,08,45,045,50*77
$GPGSV,3,3,12,09,45,045,50,10,45,045,50,11,45,045,50,12,45,045,50*71
$GPRMC,120229.99,A,5200.1288,N,422.4737,E,0.1,-1.0,131223,0.0,E,A*15
$GPVTG,-1.0,T,0.0,M,0.1,N,0.2,K*61
$GPGGA,120229.99,5200.1288,N,00422.4737,E,12,12,1.0,0.3,M,0.0,M,0.0,0000*4c
$GPGSA,A,3,01,02,03,04,05,06,07,08,09,10,11,12,1.2,1.0,0.7*34
$GPGSV,3,1,12,01,45,045,50,02,45,045,50,03,45,045,50,04,45,045,50*7c
$GPGSV,3,2,12,05,45,045,50,06,45,045,50,07,45,045,50,08,45,045,50*77
$GPGSV,3,3,12,09,45,045,50,10,45,045,50,11,45,045,50,12,45,045,50*71
$GPRMC,120230.99,A,5200.1288,N,422.4737,E,0.0,-2.0,131223,0.0,E,A*1f
$GPVTG,-2.0,T,0.0,M,0.0,N,0.0,K*61
$GPGGA,120230.99,5200.1288,N,00422.4737,E,12,12,1.0,0.3,M,0.0,M,0.0,0000*44
$GPGSA,A,3,01,02,03,04,05,06,07,08,09,10,11,12,1.2,1.0,0.7*34
$GPGSV,3,1,12,01,45,045,50,02,45,045,50,03,45,045,50,04,45,045,50*7c
$GPGSV,3,2,12,05,45,045,50,06,45,045,50,07,45,045,50,08,45,045,50*77
$GPGSV,3,3,12,09,45,045,50,10,45,045,50,11,45,045,50,12,45,045,50*71
$GPRMC,120231.99,A,5200.1288,N,422.4737,E,0.0,-2.0,131223,0.0,E,A*1e
$GPVTG,-2.0,T,0.0,M,0.0,N,0.0,K*61
$GPGGA,120231.99,5200.1288,N,00422.4737,E,12,12,1.0,0.3,M,0.0,M,0.0,0000*45
$GPGSA,A,3,01,02,03,04,05,06,07,08,09,10,11,12,1.2,1.0,0.7*34
$GPGSV,3,1,12,01,45,045,50,02,45,045,50,03,45,045,50,04,45,045,50*7c
$GPGSV,3,2,12,05,45,045,50,06,45,045,50,07,45,045,50,08,45,045,50*77
$GPGSV,3,3,12,09,45,045,50,10,45,045,50,11,45,045,50,12,45,045,50*71
$GPRMC,120232.99,A,5200.1288,N,422.4737,E,0.0,-2.0,131223,0.0,E,A*1d
$GPVTG,-2.0,T,0.0,M,0.0,N,0.0,K*61
$GPGGA,120232.99,5200.1288,N,00422.4737,E,12,12,1.0,0.3,M,0.0,M,0.0,0000*46
$GPGSA,A,3,01,02,03,04,05,06,07,08,09,10,11,12,1.2,1.0,0.7*34
$GPGSV,3,1,12,01,45,045,50,02,45,045,50,03,45,045,50,04,45,045,50*7c
$GPGSV,3,2,12,05,45,045,50,06,45,045,50,07,45,045,50,08,45,045,50*77
$GPGSV,3,3,12,09,45,045,50,10,45,045,50,11,45,045,50,12,45,045,50*71
$GPRMC,120233.99,A,5200.1288,N,422.4737,E,0.0,-2.0,131223,0.0,E,A*1c
$GPVTG,-2.0,T,0.0,M,0.0,N,0.0,K*61
$GPGGA,120233.99,5200.1288,N,00422.4737,E,12,12,1.0,0.3,M,0.0,M,0.0,0000*47
$GPGSA,A,3,01,02,03,04,05,06,07,08,09,10,11,12,1.2,1.0,0.7*34
$GPGSV,3,1,12,01,45,045,50,02,45,045,50,03,45,045,50,04,45,045,50*7c
$GPGSV,3,2,12,05,45,045,50,06,45,045,50,07,45,045,50,08,45,045,50*77
$GPGSV,3,3,12,09,45,045,50,10,45,045,50,11,45,045,50,12,45,045,50*71
$GPRMC,120234.99,A,5200.1288,N,422.4737,E,0.0,-2.0,131223,0.0,E,A*1b
$GPVTG,-2.0,T,0.0,M,0.0,N,0.0,K*61
$GPGGA,120234.99,5200.1288,N,00422.4737,E,12,12,1.0,0.3,M,0.0,M,0.0,0000*40
$GPGSA,A,3,01,02,03,04,05,06,07,08,09,10,11,12,1.2,1.0,0.7*34
$GPGSV,3,1,12,01,45,045,50,02,45,045,50,03,45,045,50,04,45,045,50*7c
$GPGSV,3,2,12,05,45,045,50,06,45,045,50,07,45,045,50,08,45,045,50*77
$GPGSV,3,3,12,09,45,045,50,10,45,045,50,11,45,045,50,12,45,045,50*71
$GPRMC,120235.99,A,5200.1288,N,422.4737,E,0.0,-2.0,131223,0.0,E,A*1a
$GPVTG,-2.0,T,0.0,M,0.0,N,0.0,K*61
$GPGGA,120235.99,5200.1288,N,00422.4737,E,12,12,1.0,0.3,M,0.0,M,0.0,0000*41
$GPGSA,A,3,01,02,03,04,05,06,07,08,09,10,11,12,1.2,1.0,0.7*34
$GPGSV,3,1,12,01,45,045,50,02,45,045,50,03,45,045,50,04,45,045,50*7c
$GPGSV,3,2,12,05,45,045,50,06,45,045,50,07,45,045,50,08,45,045,50*77
$GPGSV,3,3,12,09,45,045,50,10,45,045,50,11,45,045,50,12,45,045,50*71
$GPRMC,120236.99,A,5200.1288,N,422.4737,E,0.0,-2.0,131223,0.0,E,A*19
$GPVTG,-2.0,T,0.0,M,0.0,N,0.0,K*61
$GPGGA,120236.99,5200.1288,N,00422.4737,E,12,12,1.0,0.3,M,0.0,M,0.0,0000*42
$GPGSA,A,3,01,02,03,04,05,06,07,08,09,10,11,12,1.2,1.0,0.7*34
$GPGSV,3,1,12,01,45,045,50,02,45,045,50,03,45,045,50,04,45,045,50*7c
$GPGSV,3,2,12,05,45,045,50,06,45,045,50,07,45,045,50,08,45,045,50*77
$GPGSV,3,3,12,09,45,045,50,10,45,045,50,11,45,045,50,12,45,045,50*71
$GPRMC,120237.99,A,5200.1288,N,422.4737,E,0.0,-2.0,131223,0.0,E,A*18
$GPVTG,-2.0,T,0.0,M,0.0,N,0.0,K*61
$GPGGA,120237.99,5200.1288,N,00422.4737,E,12,12,1.0,0.3,M,0.0,M,0.0,0000*43
$GPGSA,A,3,01,02,03,04,05,06,07,08,09,10,11,12,1.2,1.0,0.7*34
$GPGSV,3,1,12,01,45,045,50,02,45,045,50,03,45,045,50,04,45,045,50*7c
$GPGSV,3,2,12,05,45,045,50,06,45,045,50,07,45,045,50,08,45,045,50*77
$GPGSV,3,3,12,09,45,045,50,10,45,045,50,11,45,045,50,12,45,045,50*71
$GPRMC,120238.99,A,5200.1288,N,422.4737,E,0.0,-2.0,131223,0.0,E,A*17
$GPVTG,-2.0,T,0.0,M,0.0,N,0.0,K*61
$GPGGA,120238.99,5200.1288,N,00422.4737,E,12,12,1.0,0.3,M,0.0,M,0.0,0000*4c
$GPGSA,A,3,01,02,03,04,05,06,07,08,09,10,11,12,1.2,1.0,0.7*34
$GPGSV,3,1,12,01,45,045,50,02,45,045,50,03,45,045,50,04,45,045,50*7c
$GPGSV,3,2,12,05,45,045,50,06,45,045,50,07,45,045,50,08,45,045,50*77
$GPGSV,3,3,12,09,45,045,50,10,45,045,50,11,45,045,50,12,45,045,50*71
$GPRMC,120239.99,A,5200.1288,N,422.4737,E,0.0,-2.0,131223,0.0,E,A*16
$GPVTG,-2.0,T,0.0,M,0.0,N,0.0,K*61
$GPGGA,120239.99,5200.1288,N,00422.4737,E,12,12,1.0,0.3,M,0.0,M,0.0,0000*4d
$GPGSA,A,3,01,02,03,04,05,06,07,08,09,10,11,12,1.2,1.0,0.7*34
$GPGSV,3,1,12,01,45,045,50,02,45,045,50,03,45,045,50,04,45,045,50*7c
$GPGSV,3,2,12,05,45,045,50,06,45,045,50,07,45,045,50,08,45,045,50*77
$GPGSV,3,3,12,09,45,045,50,10,45,045,50,11,45,045,50,12,45,045,50*71
$GPRMC,120240.99,A,5200.1288,N,422.4737,E,0.0,-2.0,131223,0.0,E,A*18
$GPVTG,-2.0,T,0.0,M,0.0,N,0.0,K*61
$GPGGA,120240.99,5200.1288,N,00422.4737,E,12,12,1.0,0.3,M,0.0,M,0.0,0000*43
$GPGSA,A,3,01,02,03,04,05,06,07,08,09,10,11,12,1.2,1.0,0.7*34
$GPGSV,3,1,12,01,45,045,50,02,45,045,50,03,45,045,50,04,45,045,50*7c
$GPGSV,3,2,12,05,45,045,50,06,45,045,50,07,45,045,50,08,45,045,50*77
$GPGSV,3,3,12,09,45,045,50,10,45,045,50,11,45,045,50,12,45,045,50*71
$GPRMC,120241.99,A,5200.1288,N,422.4737,E,0.0,-2.0,131223,0.0,E,A*19
$GPVTG,-2.0,T,0.0,M,0.0,N,0.0,K*61
$GPGGA,120241.99,5200.1288,N,00422.4737,E,12,12,1.0,0.3,M,0.0,M,0.0,0000*42
$GPGSA,A,3,01,02,03,04,05,06,07,08,09,10,11,12,1.2,1.0,0.7*34
$GPGSV,3,1,12,01,45,045,50,02,45,045,50,03,45,045,50,04,45,045,50*7c
$GPGSV,3,2,12,05,45,045,50,06,45,045,50,07,45,045,50,08,45,045,50*77
$GPGSV,3,3,12,09,45,045,50,10,45,045,50,11,45,045,50,12,45,045,50*71
$GPRMC,120242.99,A,5200.1288,N,422.4737,E,0.0,-2.0,131223,0.0,E,A*1a
$GPVTG,-2.0,T,0.0,M,0.0,N,0.0,K*61
$GPGGA,120242.99,5200.1288,N,00422.4737,E,12,12,1.0,0.3,M,0.0,M,0.0,0000*41
$GPGSA,A,3,01,02,03,04,05,06,07,08,09,10,11,12,1.2,1.0,0.7*34
$GPGSV,3,1,12,01,45,045,50,02,45,045,50,03,45,045,50,04,45,045,50*7c
$GPGSV,3,2,12,05,45,045,50,06,45,045,50,07,45,045,50,08,45,045,50*77
$GPGSV,3,3,12,09,45,045,50,10,45,045,50,11,45,045,50,12,45,045,50*71
$GPRMC,120243.99,A,5200.1288,N,422.4737,E,0.0,-2.0,131223,0.0,E,A*1b
$GPVTG,-2.0,T,0.0,M,0.0,N,0.0,K*61
$GPGGA,120243.99,5200.1288,N,00422.4737,E,12,12,1.0,0.3,M,0.0,M,0.0,0000*40
$GPGSA,A,3,01,02,03,04,05,06,07,08,09,10,11,12,1.2,1.0,0.7*34
$GPGSV,3,1,12,01,45,045,50,02,45,045,50,03,45,045,50,04,45,045,50*7c
$GPGSV,3,2,12,05,45,045,50,06,45,045,50,07,45,045,50,08,45,045,50*77
$GPGSV,3,3,12,09,45,045,50,10,45,045,50,11,45,045,50,12,45,045,50*71
$GPRMC,120244.99,A,5200.1288,N,422.4737,E,0.0,-1.0,131223,0.0,E,A*1f
$GPVTG,-1.0,T,0.0,M,0.0,N,0.0,K*62
$GPGGA,120244.99,5200.1288,N,00422.4737,E,12,12,1.0,0.3,M,0.0,M,0.0,0000*47
$GPGSA,A,3,01,02,03,04,05,06,07,08,09,10,11,12,1.2,1.0,0.7*34
$GPGSV,3,1,12,01,45,045,50,02,45,045,50,03,45,045,50,04,45,045,50*7c
$GPGSV,3,2,12,05,45,045,50,06,45,045,50,07,45,045,50,08,45,045,50*77
$GPGSV,3,3,12,09,45,045,50,10,45,045,50,11,45,045,50,12,45,045,50*71
$GPRMC,120245.99,A,5200.1288,N,422.4737,E,0.0,-1.0,131223,0.0,E,A*1e
$GPVTG,-1.0,T,0.0,M,0.0,N,0.0,K*62
$GPGGA,120245.99,5200.1288,N,00422.4737,E,12,12,1.0,0.3,M,0.0,M,0.0,0000*46
