$GPGSA,A,3,01,02,03,04,05,06,07,08,09,10,11,12,1.2,1.0,0.6*35
$GPGSV,3,1,12,01,45,045,50,02,45,045,50,03,45,045,50,04,45,045,50*7c
$GPGSV,3,2,12,05,45,045,50,06,45,045,50,07,45,045,50,08,45,045,50*77
$GPGSV,3,3,12,09,45,045,50,10,45,045,50,11,45,045,50,12,45,045,50*71
$GPRMC,120713.99,A,5200.1423,N,422.5530,E,0.0,112.1,131223,0.0,E,A*34
$GPVTG,112.1,T,0.0,M,0.0,N,0.0,K*4d
$GPGGA,120713.99,5200.1423,N,00422.5530,E,12,12,1.0,1.4,M,0.0,M,0.0,0000*45
$GPGSA,A,3,01,02,03,04,05,06,07,08,09,10,11,12,1.2,1.0,0.6*35
$GPGSV,3,1,12,01,45,045,50,02,45,045,50,03,45,045,50,04,45,045,50*7c
$GPGSV,3,2,12,05,45,045,50,06,45,045,50,07,45,045,50,08,45,045,50*77
$GPGSV,3,3,12,09,45,045,50,10,45,045,50,11,45,045,50,12,45,045,50*71
$GPRMC,120714.99,A,5200.1423,N,422.5530,E,0.0,115.6,131223,0.0,E,A*33
$GPVTG,115.6,T,0.0,M,0.0,N,0.0,K*4d
$GPGGA,120714.99,5200.1423,N,00422.5530,E,12,12,1.0,1.4,M,0.0,M,0.0,0000*42
$GPGSA,A,3,01,02,03,04,05,06,07,08,09,10,11,12,1.2,1.0,0.7*34
$GPGSV,3,1,12,01,45,045,50,02,45,045,50,03,45,045,50,04,45,045,50*7c
$GPGSV,3,2,12,05,45,045,50,06,45,045,50,07,45,045,50,08,45,045,50*77
$GPGSV,3,3,12,09,45,045,50,10,45,045,50,11,45,045,50,12,45,045,50*71
$GPRMC,120715.99,A,5200.1423,N,422.5530,E,0.0,115.6,131223,0.0,E,A*32
$GPVTG,115.6,T,0.0,M,0.0,N,0.0,K*4d
$GPGGA,120715.99,5200.1423,N,00422.5530,E,12,12,1.0,1.4,M,0.0,M,0.0,0000*43
$GPGSA,A,3,01,02,03,04,05,06,07,08,09,10,11,12,1.2,1.0,0.7*34
$GPGSV,3,1,12,01,45,045,50,02,45,045,50,03,45,045,50,04,45,045,50*7c
$GPGSV,3,2,12,05,45,045,50,06,45,045,50,07,45,045,50,08,45,045,50*77
$GPGSV,3,3,12,09,45,045,50,10,45,045,50,11,45,045,50,12,45,045,50*71
$GPRMC,120716.99,A,5200.1423,N,422.5530,E,0.0,115.6,131223,0.0,E,A*31
$GPVTG,115.6,T,0.0,M,0.0,N,0.0,K*4d
$GPGGA,120716.99,5200.1423,N,00422.5530,E,12,12,1.0,1.4,M,0.0,M,0.0,0000*40
$GPGSA,A,3,01,02,03,04,05,06,07,08,09,10,11,12,1.2,1.0,0.7*34
$GPGSV,3,1,12,01,45,045,50,02,45,045,50,03,45,045,50,04,45,045,50*7c
$GPGSV,3,2,12,05,45,045,50,06,45,045,50,07,45,045,50,08,45,045,50*77
$GPGSV,3,3,12,09,45,045,50,10,45,045,50,11,45,045,50,12,45,045,50*71
$GPRMC,120717.99,A,5200.1423,N,422.5530,E,0.0,113.3,131223,0.0,E,A*33
$GPVTG,113.3,T,0.0,M,0.0,N,0.0,K*4e
$GPGGA,120717.99,5200.1423,N,00422.5530,E,12,12,1.0,1.4,M,0.0,M,0.0,0000*41
$GPGSA,A,3,01,02,03,04,05,06,07,08,09,10,11,12,1.2,1.0,0.7*34
$GPGSV,3,1,12,01,45,045,50,02,45,045,50,03,45,045,50,04,45,045,50*7c
$GPGSV,3,2,12,05,45,045,50,06,45,045,50,07,45,045,50,08,45,045,50*77
$GPGSV,3,3,12,09,45,045,50,10,45,045,50,11,45,045,50,12,45,045,50*71
$GPRMC,120718.99,A,5200.1423,N,422.5529,E,0.0,106.8,131223,0.0,E,A*3b
$GPVTG,106.8,T,0.0,M,0.0,N,0.1,K*40
$GPGGA,120718.99,5200.1423,N,00422.5529,E,12,12,1.0,1.8,M,0.0,M,0.0,0000*4a
$GPGSA,A,3,01,02,03,04,05,06,07,08,09,10,11,12,1.2,1.0,0.7*34
$GPGSV,3,1,12,01,45,045,50,02,45,045,50,03,45,045,50,04,45,045,50*7c
$GPGSV,3,2,12,05,45,045,50,06,45,045,50,07,45,045,50,08,45,045,50*77
$GPGSV,3,3,12,09,45,045,50,10,45,045,50,11,45,045,50,12,45,045,50*71
$GPRMC,120719.99,A,5200.1422,N,422.5530,E,0.2,106.8,131223,0.0,E,A*31
$GPVTG,106.8,T,0.0,M,0.2,N,0.3,K*40
$GPGGA,120719.99,5200.1422,N,00422.5530,E,12,12,1.0,1.9,M,0.0,M,0.0,0000*43
$GPGSA,A,3,01,02,03,04,05,06,07,08,09,10,11,12,1.2,1.0,0.7*34
$GPGSV,3,1,12,01,45,045,50,02,45,045,50,03,45,045,50,04,45,045,50*7c
$GPGSV,3,2,12,05,45,045,50,06,45,045,50,07,45,045,50,08,45,045,50*77
$GPGSV,3,3,12,09,45,045,50,10,45,045,50,11,45,045,50,12,45,045,50*71
$GPRMC,120720.99,A,5200.1422,N,422.5530,E,0.0,107.9,131223,0.0,E,A*39
$GPVTG,107.9,T,0.0,M,0.0,N,0.0,K*41
$GPGGA,120720.99,5200.1422,N,00422.5530,E,12,12,1.0,1.9,M,0.0,M,0.0,0000*49
$GPGSA,A,3,01,02,03,04,05,06,07,08,09,10,11,12,1.2,1.0,0.7*34
$GPGSV,3,1,12,01,45,045,50,02,45,045,50,03,45,045,50,04,45,045,50*7c
$GPGSV,3,2,12,05,45,045,50,06,45,045,50,07,45,045,50,08,45,045,50*77
$GPGSV,3,3,12,09,45,045,50,10,45,045,50,11,45,045,50,12,45,045,50*71
$GPRMC,120721.99,A,5200.1422,N,422.5530,E,0.0,108.9,131223,0.0,E,A*37
$GPVTG,108.9,T,0.0,M,0.0,N,0.0,K*4e
$GPGGA,120721.99,5200.1422,N,00422.5530,E,12,12,1.0,1.9,M,0.0,M,0.0,0000*48
$GPGSA,A,3,01,02,03,04,05,06,07,08,09,10,11,12,1.2,1.0,0.7*34
$GPGSV,3,1,12,01,45,045,50,02,45,045,50,03,45,045,50,04,45,045,50*7c
$GPGSV,3,2,12,05,45,045,50,06,45,045,50,07,45,045,50,08,45,045,50*77
$GPGSV,3,3,12,09,45,045,50,10,45,045,50,11,45,045,50,12,45,045,50*71
$GPRMC,120722.99,A,5200.1422,N,422.5530,E,0.0,108.9,131223,0.0,E,A*34
$GPVTG,108.9,T,0.0,M,0.0,N,0.0,K*4e
$GPGGA,120722.99,5200.1422,N,00422.5530,E,12,12,1.0,1.9,M,0.0,M,0.0,0000*4b
$GPGSA,A,3,01,02,03,04,05,06,07,08,09,10,11,12,1.2,1.0,0.7*34
$GPGSV,3,1,12,01,45,045,50,02,45,045,50,03,45,045,50,04,45,045,50*7c
$GPGSV,3,2,12,05,45,045,50,06,45,045,50,07,45,045,50,08,45,045,50*77
$GPGSV,3,3,12,09,45,045,50,10,45,045,50,11,45,045,50,12,45,045,50*71
$GPRMC,120723.99,A,5200.1422,N,422.5530,E,0.0,110.0,131223,0.0,E,A*35
$GPVTG,110.0,T,0.0,M,0.0,N,0.0,K*4e
$GPGGA,120723.99,5200.1422,N,00422.5530,E,12,12,1.0,1.9,M,0.0,M,0.0,0000*4a
$GPGSA,A,3,01,02,03,04,05,06,07,08,09,10,11,12,1.2,1.0,0.7*34
$GPGSV,3,1,12,01,45,045,50,02,45,045,50,03,45,045,50,04,45,045,50*7c
$GPGSV,3,2,12,05,45,045,50,06,45,045,50,07,45,045,50,08,45,045,50*77
$GPGSV,3,3,12,09,45,045,50,10,45,045,50,11,45,045,50,12,45,045,50*71
$GPRMC,120724.99,A,5200.1422,N,422.5530,E,0.0,111.0,131223,0.0,E,A*33
$GPVTG,111.0,T,0.0,M,0.0,N,0.0,K*4f
$GPGGA,120724.99,5200.1422,N,00422.5530,E,12,12,1.0,1.9,M,0.0,M,0.0,0000*4d
$GPGSA,A,3,01,02,03,04,05,06,07,08,09,10,11,12,1.2,1.0,0.7*34
$GPGSV,3,1,12,01,45,045,50,02,45,045,50,03,45,045,50,04,45,045,50*7c
$GPGSV,3,2,12,05,45,045,50,06,45,045,50,07,45,045,50,08,45,045,50*77
$GPGSV,3,3,12,09,45,045,50,10,45,045,50,11,45,045,50,12,45,045,50*71
$GPRMC,120725.99,A,5200.1422,N,422.5530,E,0.0,111.0,131223,0.0,E,A*32
$GPVTG,111.0,T,0.0,M,0.0,N,0.0,K*4f
$GPGGA,120725.99,5200.1422,N,00422.5530,E,12,12,1.0,1.9,M,0.0,M,0.0,0000*4c
$GPGSA,A,3,01,02,03,04,05,06,07,08,09,10,11,12,1.2,1.0,0.7*34
$GPGSV,3,1,12,01,45,045,50,02,45,045,50,03,45,045,50,04,45,045,50*7c
$GPGSV,3,2,12,05,45,045,50,06,45,045,50,07,45,045,50,08,45,045,50*77
$GPGSV,3,3,12,09,45,045,50,10,45,045,50,11,45,045,50,12,45,045,50*71
$GPRMC,120726.99,A,5200.1422,N,422.5530,E,0.0,112.1,131223,0.0,E,A*33
$GPVTG,112.1,T,0.0,M,0.0,N,0.0,K*4d
$GPGGA,120726.99,5200.1422,N,00422.5530,E,12,12,1.0,1.9,M,0.0,M,0.0,0000*4f
$GPGSA,A,3,01,02,03,04,05,06,07,08,09,10,11,12,1.2,1.0,0.7*34
$GPGSV,3,1,12,01,45,045,50,02,45,045,50,03,45,045,50,04,45,045,50*7c
$GPGSV,3,2,12,05,45,045,50,06,45,045,50,07,45,045,50,08,45,045,50*77
$GPGSV,3,3,12,09,45,045,50,10,45,045,50,11,45,045,50,12,45,045,50*71
$GPRMC,120727.99,A,5200.1422,N,422.5530,E,0.0,115.2,131223,0.0,E,A*36
$GPVTG,115.2,T,0.0,M,0.0,N,0.0,K*49
$GPGGA,120727.99,5200.1422,N,00422.5530,E,12,12,1.0,1.9,M,0.0,M,0.0,0000*4e
$GPGSA,A,3,01,02,03,04,05,06,07,08,09,10,11,12,1.2,1.0,0.7*34
$GPGSV,3,1,12,01,45,045,50,02,45,045,50,03,45,045,50,04,45,045,50*7c
$GPGSV,3,2,12,05,45,045,50,06,45,045,50,07,45,045,50,08,45,045,50*77
$GPGSV,3,3,12,09,45,045,50,10,45,045,50,11,45,045,50,12,45,045,50*71
$GPRMC,120728.99,A,5200.1422,N,422.5530,E,0.0,114.1,131223,0.0,E,A*3b
$GPVTG,114.1,T,0.0,M,0.0,N,0.0,K*4b
$GPGGA,120728.99,5200.1422,N,00422.5530,E,12,12,1.0,1.9,M,0.0,M,0.0,0000*41
$GPGSA,A,3,01,02,03,04,05,06,07,08,09,10,11,12,1.2,1.0,0.7*34
$GPGSV,3,1,12,01,45,045,50,02,45,045,50,03,45,045,50,04,45,045,50*7c
$GPGSV,3,2,12,05,45,045,50,06,45,045,50,07,45,045,50,08,45,045,50*77
$GPGSV,3,3,12,09,45,045,50,10,45,045,50,11,45,045,50,12,45,045,50*71
$GPRMC,120729.99,A,5200.1422,N,422.5530,E,0.0,113.1,131223,0.0,E,A*3d
$GPVTG,113.1,T,0.0,M,0.0,N,0.0,K*4c
$GPGGA,120729.99,5200.1422,N,00422.5530,E,12,12,1.0,1.9,M,0.0,M,0.0,0000*40
$GPGSA,A,3,01,02,03,04,05,06,07,08,09,10,11,12,1.2,1.0,0.7*34
$GPGSV,3,1,12,01,45,045,50,02,45,045,50,03,45,045,50,04,45,045,50*7c
$GPGSV,3,2,12,05,45,045,50,06,45,045,50,07,45,045,50,08,45,045,50*77
$GPGSV,3,3,12,09,45,045,50,10,45,045,50,11,45,045,50,12,45,045,50*71
$GPRMC,120730.99,A,5200.1422,N,422.5530,E,0.0,113.1,131223,0.0,E,A*35
$GPVTG,113.1,T,0.0,M,0.0,N,0.0,K*4c
$GPGGA,120730.99,5200.1422,N,00422.5530,E,12,12,1.0,1.9,M,0.0,M,0.0,0000*48
$GPGSA,A,3,01,02,03,04,05,06,07,08,09,10,11,12,1.2,1.0,0.6*35
$GPGSV,3,1,12,01,45,045,50,02,45,045,50,03,45,045,50,04,45,045,50*7c
$GPGSV,3,2,12,05,45,045,50,06,45,045,50,07,45,045,50,08,45,045,50*77
$GPGSV,3,3,12,09,45,045,50,10,45,045,50,11,45,045,50,12,45,045,50*71
$GPRMC,120731.99,A,5200.1422,N,422.5530,E,0.0,113.1,131223,0.0,E,A*34
$GPVTG,113.1,T,0.0,M,0.0,N,0.0,K*4c
$GPGGA,120731.99,5200.1422,N,00422.5530,E,12,12,1.0,1.9,M,0.0,M,0.0,0000*49
$GPGSA,A,3,01,02,03,04,05,06,07,08,09,10,11,12,1.2,1.0,0.6*35
$GPGSV,3,1,12,01,45,045,50,02,45,045,50,03,45,045,50,04,45,045,50*7c
$GPGSV,3,2,12,05,45,045,50,06,45,045,50,07,45,045,50,08,45,045,50*77
$GPGSV,3,3,12,09,45,045,50,10,45,045,50,11,45,045,50,12,45,045,50*71
$GPRMC,120732.99,A,5200.1422,N,422.5530,E,0.0,112.1,131223,0.0,E,A*36
$GPVTG,112.1,T,0.0,M,0.0,N,0.0,K*4d
$GPGGA,120732.99,5200.1422,N,00422.5530,E,12,12,1.0,1.9,M,0.0,M,0.0,0000*4a
