$GPGSA,A,3,01,02,03,04,05,06,07,08,09,10,11,12,1.2,1.0,0.7*34
$GPGSV,3,1,12,01,45,045,50,02,45,045,50,03,45,045,50,04,45,045,50*7c
$GPGSV,3,2,12,05,45,045,50,06,45,045,50,07,45,045,50,08,45,045,50*77
$GPGSV,3,3,12,09,45,045,50,10,45,045,50,11,45,045,50,12,45,045,50*71
$GPRMC,120752.99,A,5200.1417,N,422.5590,E,0.0,96.2,131223,0.0,E,A*02
$GPVTG,96.2,T,0.0,M,0.0,N,0.1,K*72
$GPGGA,120752.99,5200.1417,N,00422.5590,E,12,12,1.0,1.4,M,0.0,M,0.0,0000*4d
$GPGSA,A,3,01,02,03,04,05,06,07,08,09,10,11,12,1.2,1.0,0.7*34
$GPGSV,3,1,12,01,45,045,50,02,45,045,50,03,45,045,50,04,45,045,50*7c
$GPGSV,3,2,12,05,45,045,50,06,45,045,50,07,45,045,50,08,45,045,50*77
$GPGSV,3,3,12,09,45,045,50,10,45,045,50,11,45,045,50,12,45,045,50*71
$GPRMC,120753.99,A,5200.1417,N,422.5590,E,0.0,96.2,131223,0.0,E,A*03
$GPVTG,96.2,T,0.0,M,0.0,N,0.0,K*73
$GPGGA,120753.99,5200.1417,N,00422.5590,E,12,12,1.0,1.4,M,0.0,M,0.0,0000*4c
$GPGSA,A,3,01,02,03,04,05,06,07,08,09,10,11,12,1.2,1.0,0.7*34
$GPGSV,3,1,12,01,45,045,50,02,45,045,50,03,45,045,50,04,45,045,50*7c
$GPGSV,3,2,12,05,45,045,50,06,45,045,50,07,45,045,50,08,45,045,50*77
$GPGSV,3,3,12,09,45,045,50,10,45,045,50,11,45,045,50,12,45,045,50*71
$GPRMC,120754.99,A,5200.1417,N,422.5590,E,0.0,94.1,131223,0.0,E,A*05
$GPVTG,94.1,T,0.0,M,0.0,N,0.0,K*72
$GPGGA,120754.99,5200.1417,N,00422.5590,E,12,12,1.0,1.4,M,0.0,M,0.0,0000*4b
$GPGSA,A,3,01,02,03,04,05,06,07,08,09,10,11,12,1.2,1.0,0.7*34
$GPGSV,3,1,12,01,45,045,50,02,45,045,50,03,45,045,50,04,45,045,50*7c
$GPGSV,3,2,12,05,45,045,50,06,45,045,50,07,45,045,50,08,45,045,50*77
$GPGSV,3,3,12,09,45,045,50,10,45,045,50,11,45,045,50,12,45,045,50*71
$GPRMC,120755.99,A,5200.1417,N,422.5590,E,0.0,66.5,131223,0.0,E,A*0d
$GPVTG,66.5,T,0.0,M,0.0,N,0.0,K*7b
$GPGGA,120755.99,5200.1417,N,00422.5590,E,12,12,1.0,1.4,M,0.0,M,0.0,0000*4a
$GPGSA,A,3,01,02,03,04,05,06,07,08,09,10,11,12,1.2,1.0,0.7*34
$GPGSV,3,1,12,01,45,045,50,02,45,045,50,03,45,045,50,04,45,045,50*7c
$GPGSV,3,2,12,05,45,045,50,06,45,045,50,07,45,045,50,08,45,045,50*77
$GPGSV,3,3,12,09,45,045,50,10,45,045,50,11,45,045,50,12,45,045,50*71
$GPRMC,120756.99,A,5200.1416,N,422.5598,E,0.1,96.2,131223,0.0,E,A*0e
$GPVTG,96.2,T,0.0,M,0.1,N,0.1,K*73
$GPGGA,120756.99,5200.1416,N,00422.5598,E,12,12,1.0,1.3,M,0.0,M,0.0,0000*47
$GPGSA,A,3,01,02,03,04,05,06,07,08,09,10,11,12,1.2,1.0,0.7*34
$GPGSV,3,1,12,01,45,045,50,02,45,045,50,03,45,045,50,04,45,045,50*7c
$GPGSV,3,2,12,05,45,045,50,06,45,045,50,07,45,045,50,08,45,045,50*77
$GPGSV,3,3,12,09,45,045,50,10,45,045,50,11,45,045,50,12,45,045,50*71
$GPRMC,120757.99,A,5200.1415,N,422.5599,E,0.2,96.2,131223,0.0,E,A*0e
$GPVTG,96.2,T,0.0,M,0.2,N,0.3,K*72
$GPGGA,120757.99,5200.1415,N,00422.5599,E,12,12,1.0,1.3,M,0.0,M,0.0,0000*44
$GPGSA,A,3,01,02,03,04,05,06,07,08,09,10,11,12,1.2,1.0,0.7*34
$GPGSV,3,1,12,01,45,045,50,02,45,045,50,03,45,045,50,04,45,045,50*7c
$GPGSV,3,2,12,05,45,045,50,06,45,045,50,07,45,045,50,08,45,045,50*77
$GPGSV,3,3,12,09,45,045,50,10,45,045,50,11,45,045,50,12,45,045,50*71
$GPRMC,120758.99,A,5200.1414,N,422.5601,E,0.2,96.2,131223,0.0,E,A*02
$GPVTG,96.2,T,0.0,M,0.2,N,0.4,K*75
$GPGGA,120758.99,5200.1414,N,00422.5601,E,12,12,1.0,1.4,M,0.0,M,0.0,0000*4f
$GPGSA,A,3,01,02,03,04,05,06,07,08,09,10,11,12,1.2,1.0,0.6*35
$GPGSV,3,1,12,01,45,045,50,02,45,045,50,03,45,045,50,04,45,045,50*7c
$GPGSV,3,2,12,05,45,045,50,06,45,045,50,07,45,045,50,08,45,045,50*77
$GPGSV,3,3,12,09,45,045,50,10,45,045,50,11,45,045,50,12,45,045,50*71
$GPRMC,120759.99,A,5200.1412,N,422.5603,E,0.2,96.2,131223,0.0,E,A*07
$GPVTG,96.2,T,0.0,M,0.2,N,0.5,K*74
$GPGGA,120759.99,5200.1412,N,00422.5603,E,12,12,1.0,1.4,M,0.0,M,0.0,0000*4a
$GPGSA,A,3,01,02,03,04,05,06,07,08,09,10,11,12,1.2,1.0,0.6*35
$GPGSV,3,1,12,01,45,045,50,02,45,045,50,03,45,045,50,04,45,045,50*7c
$GPGSV,3,2,12,05,45,045,50,06,45,045,50,07,45,045,50,08,45,045,50*77
$GPGSV,3,3,12,09,45,045,50,10,45,045,50,11,45,045,50,12,45,045,50*71
$GPRMC,120800.99,A,5200.1412,N,422.5602,E,0.0,96.2,131223,0.0,E,A*07
$GPVTG,96.2,T,0.0,M,0.0,N,0.0,K*73
$GPGGA,120800.99,5200.1412,N,00422.5602,E,12,12,1.0,1.4,M,0.0,M,0.0,0000*48
$GPGSA,A,3,01,02,03,04,05,06,07,08,09,10,11,12,1.2,1.0,0.7*34
$GPGSV,3,1,12,01,45,045,50,02,45,045,50,03,45,045,50,04,45,045,50*7c
$GPGSV,3,2,12,05,45,045,50,06,45,045,50,07,45,045,50,08,45,045,50*77
$GPGSV,3,3,12,09,45,045,50,10,45,045,50,11,45,045,50,12,45,045,50*71
$GPRMC,120801.99,A,5200.1412,N,422.5602,E,0.0,95.2,131223,0.0,E,A*05
$GPVTG,95.2,T,0.0,M,0.0,N,0.0,K*70
$GPGGA,120801.99,5200.1412,N,00422.5602,E,12,12,1.0,1.4,M,0.0,M,0.0,0000*49
$GPGSA,A,3,01,02,03,04,05,06,07,08,09,10,11,12,1.2,1.0,0.7*34
$GPGSV,3,1,12,01,45,045,50,02,45,045,50,03,45,045,50,04,45,045,50*7c
$GPGSV,3,2,12,05,45,045,50,06,45,045,50,07,45,045,50,08,45,045,50*77
$GPGSV,3,3,12,09,45,045,50,10,45,045,50,11,45,045,50,12,45,045,50*71
$GPRMC,120802.99,A,5200.1412,N,422.5602,E,0.0,95.2,131223,0.0,E,A*06
$GPVTG,95.2,T,0.0,M,0.0,N,0.0,K*70
$GPGGA,120802.99,5200.1412,N,00422.5602,E,12,12,1.0,1.4,M,0.0,M,0.0,0000*4a
$GPGSA,A,3,01,02,03,04,05,06,07,08,09,10,11,12,1.2,1.0,0.7*34
$GPGSV,3,1,12,01,45,045,50,02,45,045,50,03,45,045,50,04,45,045,50*7c
$GPGSV,3,2,12,05,45,045,50,06,45,045,50,07,45,045,50,08,45,045,50*77
$GPGSV,3,3,12,09,45,045,50,10,45,045,50,11,45,045,50,12,45,045,50*71
$GPRMC,120803.99,A,5200.1412,N,422.5602,E,0.0,95.2,131223,0.0,E,A*07
$GPVTG,95.2,T,0.0,M,0.0,N,0.0,K*70
$GPGGA,120803.99,5200.1412,N,00422.5602,E,12,12,1.0,1.4,M,0.0,M,0.0,0000*4b
$GPGSA,A,3,01,02,03,04,05,06,07,08,09,10,11,12,1.2,1.0,0.7*34
$GPGSV,3,1,12,01,45,045,50,02,45,045,50,03,45,045,50,04,45,045,50*7c
$GPGSV,3,2,12,05,45,045,50,06,45,045,50,07,45,045,50,08,45,045,50*77
$GPGSV,3,3,12,09,45,045,50,10,45,045,50,11,45,045,50,12,45,045,50*71
$GPRMC,120804.99,A,5200.1415,N,422.5600,E,0.0,95.2,131223,0.0,E,A*05
$GPVTG,95.2,T,0.0,M,0.0,N,0.0,K*70
$GPGGA,120804.99,5200.1415,N,00422.5600,E,12,12,1.0,1.2,M,0.0,M,0.0,0000*4f
$GPGSA,A,3,01,02,03,04,05,06,07,08,09,10,11,12,1.2,1.0,0.7*34
$GPGSV,3,1,12,01,45,045,50,02,45,045,50,03,45,045,50,04,45,045,50*7c
$GPGSV,3,2,12,05,45,045,50,06,45,045,50,07,45,045,50,08,45,045,50*77
$GPGSV,3,3,12,09,45,045,50,10,45,045,50,11,45,045,50,12,45,045,50*71
$GPRMC,120805.99,A,5200.1415,N,422.5600,E,0.0,95.2,131223,0.0,E,A*04
$GPVTG,95.2,T,0.0,M,0.0,N,0.0,K*70
$GPGGA,120805.99,5200.1415,N,00422.5600,E,12,12,1.0,1.2,M,0.0,M,0.0,0000*4e
$GPGSA,A,3,01,02,03,04,05,06,07,08,09,10,11,12,1.2,1.0,0.7*34
$GPGSV,3,1,12,01,45,045,50,02,45,045,50,03,45,045,50,04,45,045,50*7c
$GPGSV,3,2,12,05,45,045,50,06,45,045,50,07,45,045,50,08,45,045,50*77
$GPGSV,3,3,12,09,45,045,50,10,45,045,50,11,45,045,50,12,45,045,50*71
$GPRMC,120806.99,A,5200.1415,N,422.5602,E,0.0,95.2,131223,0.0,E,A*05
$GPVTG,95.2,T,0.0,M,0.0,N,0.0,K*70
$GPGGA,120806.99,5200.1415,N,00422.5602,E,12,12,1.0,1.2,M,0.0,M,0.0,0000*4f
$GPGSA,A,3,01,02,03,04,05,06,07,08,09,10,11,12,1.2,1.0,0.7*34
$GPGSV,3,1,12,01,45,045,50,02,45,045,50,03,45,045,50,04,45,045,50*7c
$GPGSV,3,2,12,05,45,045,50,06,45,045,50,07,45,045,50,08,45,045,50*77
$GPGSV,3,3,12,09,45,045,50,10,45,045,50,11,45,045,50,12,45,045,50*71
$GPRMC,120807.99,A,5200.1415,N,422.5602,E,0.0,95.2,131223,0.0,E,A*04
$GPVTG,95.2,T,0.0,M,0.0,N,0.0,K*70
$GPGGA,120807.99,5200.1415,N,00422.5602,E,12,12,1.0,1.2,M,0.0,M,0.0,0000*4e
$GPGSA,A,3,01,02,03,04,05,06,07,08,09,10,11,12,1.2,1.0,0.7*34
$GPGSV,3,1,12,01,45,045,50,02,45,045,50,03,45,045,50,04,45,045,50*7c
$GPGSV,3,2,12,05,45,045,50,06,45,045,50,07,45,045,50,08,45,045,50*77
$GPGSV,3,3,12,09,45,045,50,10,45,045,50,11,45,045,50,12,45,045,50*71
$GPRMC,120808.99,A,5200.1415,N,422.5602,E,0.0,94.1,131223,0.0,E,A*09
$GPVTG,94.1,T,0.0,M,0.0,N,0.0,K*72
$GPGGA,120808.99,5200.1415,N,00422.5602,E,12,12,1.0,1.2,M,0.0,M,0.0,0000*41
$GPGSA,A,3,01,02,03,04,05,06,07,08,09,10,11,12,1.2,1.0,0.7*34
$GPGSV,3,1,12,01,45,045,50,02,45,045,50,03,45,045,50,04,45,045,50*7c
$GPGSV,3,2,12,05,45,045,50,06,45,045,50,07,45,045,50,08,45,045,50*77
$GPGSV,3,3,12,09,45,045,50,10,45,045,50,11,45,045,50,12,45,045,50*71
$GPRMC,120809.99,A,5200.1415,N,422.5602,E,0.0,94.1,131223,0.0,E,A*08
$GPVTG,94.1,T,0.0,M,0.0,N,0.0,K*72
$GPGGA,120809.99,5200.1415,N,00422.5602,E,12,12,1.0,1.2,M,0.0,M,0.0,0000*40
$GPGSA,A,3,01,02,03,04,05,06,07,08,09,10,11,12,1.2,1.0,0.7*34
$GPGSV,3,1,12,01,45,045,50,02,45,045,50,03,45,045,50,04,45,045,50*7c
$GPGSV,3,2,12,05,45,045,50,06,45,045,50,07,45,045,50,08,45,045,50*77
$GPGSV,3,3,12,09,45,045,50,10,45,045,50,11,45,045,50,12,45,045,50*71
$GPRMC,120810.99,A,5200.1415,N,422.5602,E,0.0,94.1,131223,0.0,E,A*00
$GPVTG,94.1,T,0.0,M,0.0,N,0.0,K*72
$GPGGA,120810.99,5200.1415,N,00422.5602,E,12,12,1.0,1.2,M,0.0,M,0.0,0000*48
$GPGSA,A,3,01,02,03,04,05,06,07,08,09,10,11,12,1.2,1.0,0.7*34
$GPGSV,3,1,12,01,45,045,50,02,45,045,50,03,45,045,50,04,45,045,50*7c
$GPGSV,3,2,12,05,45,045,50,06,45,045,50,07,45,045,50,08,45,045,50*77
$GPGSV,3,3,12,09,45,045,50,10,45,045,50,11,45,045,50,12,45,045,50*71
$GPRMC,120811.99,A,5200.1415,N,422.5602,E,0.0,94.3,131223,0.0,E,A*03
$GPVTG,94.3,T,0.0,M,0.0,N,0.0,K*70
$GPGGA,120811.99,5200.1415,N,00422.5602,E,12,12,1.0,1.2,M,0.0,M,0.0,0000*49
