$GPGSA,A,3,01,02,03,04,05,06,07,08,09,10,11,12,1.2,1.0,0.7*34
$GPGSV,3,1,12,01,45,045,50,02,45,045,50,03,45,045,50,04,45,045,50*7c
$GPGSV,3,2,12,05,45,045,50,06,45,045,50,07,45,045,50,08,45,045,50*77
$GPGSV,3,3,12,09,45,045,50,10,45,045,50,11,45,045,50,12,45,045,50*71
$GPRMC,120846.99,A,5200.1420,N,422.5675,E,0.3,93.4,131223,0.0,E,A*04
$GPVTG,93.4,T,0.0,M,0.3,N,0.5,K*76
$GPGGA,120846.99,5200.1420,N,00422.5675,E,12,12,1.0,1.3,M,0.0,M,0.0,0000*4c
$GPGSA,A,3,01,02,03,04,05,06,07,08,09,10,11,12,1.2,1.0,0.6*35
$GPGSV,3,1,12,01,45,045,50,02,45,045,50,03,45,045,50,04,45,045,50*7c
$GPGSV,3,2,12,05,45,045,50,06,45,045,50,07,45,045,50,08,45,045,50*77
$GPGSV,3,3,12,09,45,045,50,10,45,045,50,11,45,045,50,12,45,045,50*71
$GPRMC,120847.99,A,5200.1422,N,422.5676,E,0.4,93.4,131223,0.0,E,A*03
$GPVTG,93.4,T,0.0,M,0.4,N,0.7,K*73
$GPGGA,120847.99,5200.1422,N,00422.5676,E,12,12,1.0,1.2,M,0.0,M,0.0,0000*4d
$GPGSA,A,3,01,02,03,04,05,06,07,08,09,10,11,12,1.2,1.0,0.6*35
$GPGSV,3,1,12,01,45,045,50,02,45,045,50,03,45,045,50,04,45,045,50*7c
$GPGSV,3,2,12,05,45,045,50,06,45,045,50,07,45,045,50,08,45,045,50*77
$GPGSV,3,3,12,09,45,045,50,10,45,045,50,11,45,045,50,12,45,045,50*71
$GPRMC,120848.99,A,5200.1422,N,422.5674,E,0.1,93.4,131223,0.0,E,A*0b
$GPVTG,93.4,T,0.0,M,0.1,N,0.1,K*70
$GPGGA,120848.99,5200.1422,N,00422.5674,E,12,12,1.0,0.9,M,0.0,M,0.0,0000*4a
$GPGSA,A,3,01,02,03,04,05,06,07,08,09,10,11,12,1.2,1.0,0.6*35
$GPGSV,3,1,12,01,45,045,50,02,45,045,50,03,45,045,50,04,45,045,50*7c
$GPGSV,3,2,12,05,45,045,50,06,45,045,50,07,45,045,50,08,45,045,50*77
$GPGSV,3,3,12,09,45,045,50,10,45,045,50,11,45,045,50,12,45,045,50*71
$GPRMC,120849.99,A,5200.1423,N,422.5673,E,0.0,92.2,131223,0.0,E,A*0a
$GPVTG,92.2,T,0.0,M,0.0,N,0.0,K*77
$GPGGA,120849.99,5200.1423,N,00422.5673,E,12,12,1.0,0.9,M,0.0,M,0.0,0000*4d
$GPGSA,A,3,01,02,03,04,05,06,07,08,09,10,11,12,1.2,1.0,0.6*35
$GPGSV,3,1,12,01,45,045,50,02,45,045,50,03,45,045,50,04,45,045,50*7c
$GPGSV,3,2,12,05,45,045,50,06,45,045,50,07,45,045,50,08,45,045,50*77
$GPGSV,3,3,12,09,45,045,50,10,45,045,50,11,45,045,50,12,45,045,50*71
$GPRMC,120850.99,A,5200.1421,N,422.5671,E,0.0,93.4,131223,0.0,E,A*05
$GPVTG,93.4,T,0.0,M,0.0,N,0.0,K*70
$GPGGA,120850.99,5200.1421,N,00422.5671,E,12,12,1.0,1.0,M,0.0,M,0.0,0000*4d
$GPGSA,A,3,01,02,03,04,05,06,07,08,09,10,11,12,1.2,1.0,0.6*35
$GPGSV,3,1,12,01,45,045,50,02,45,045,50,03,45,045,50,04,45,045,50*7c
$GPGSV,3,2,12,05,45,045,50,06,45,045,50,07,45,045,50,08,45,045,50*77
$GPGSV,3,3,12,09,45,045,50,10,45,045,50,11,45,045,50,12,45,045,50*71
$GPRMC,120851.99,A,5200.1421,N,422.5670,E,0.0,91.3,131223,0.0,E,A*00
$GPVTG,91.3,T,0.0,M,0.0,N,0.0,K*75
$GPGGA,120851.99,5200.1421,N,00422.5670,E,12,12,1.0,0.9,M,0.0,M,0.0,0000*45
$GPGSA,A,3,01,02,03,04,05,06,07,08,09,10,11,12,1.2,1.0,0.6*35
$GPGSV,3,1,12,01,45,045,50,02,45,045,50,03,45,045,50,04,45,045,50*7c
$GPGSV,3,2,12,05,45,045,50,06,45,045,50,07,45,045,50,08,45,045,50*77
$GPGSV,3,3,12,09,45,045,50,10,45,045,50,11,45,045,50,12,45,045,50*71
$GPRMC,120852.99,A,5200.1419,N,422.5668,E,0.0,90.2,131223,0.0,E,A*01
$GPVTG,90.2,T,0.0,M,0.0,N,0.0,K*75
$GPGGA,120852.99,5200.1419,N,00422.5668,E,12,12,1.0,1.1,M,0.0,M,0.0,0000*4d
$GPGSA,A,3,01,02,03,04,05,06,07,08,09,10,11,12,1.2,1.0,0.6*35
$GPGSV,3,1,12,01,45,045,50,02,45,045,50,03,45,045,50,04,45,045,50*7c
$GPGSV,3,2,12,05,45,045,50,06,45,045,50,07,45,045,50,08,45,045,50*77
$GPGSV,3,3,12,09,45,045,50,10,45,045,50,11,45,045,50,12,45,045,50*71
$GPRMC,120853.99,A,5200.1419,N,422.5668,E,0.0,95.7,131223,0.0,E,A*00
$GPVTG,95.7,T,0.0,M,0.0,N,0.0,K*75
$GPGGA,120853.99,5200.1419,N,00422.5668,E,12,12,1.0,1.1,M,0.0,M,0.0,0000*4c
$GPGSA,A,3,01,02,03,04,05,06,07,08,09,10,11,12,1.2,1.0,0.6*35
$GPGSV,3,1,12,01,45,045,50,02,45,045,50,03,45,045,50,04,45,045,50*7c
$GPGSV,3,2,12,05,45,045,50,06,45,045,50,07,45,045,50,08,45,045,50*77
$GPGSV,3,3,12,09,45,045,50,10,45,045,50,11,45,045,50,12,45,045,50*71
$GPRMC,120854.99,A,5200.1418,N,422.5670,E,0.4,93.4,131223,0.0,E,A*0e
$GPVTG,93.4,T,0.0,M,0.4,N,0.7,K*73
$GPGGA,120854.99,5200.1418,N,00422.5670,E,12,12,1.0,1.1,M,0.0,M,0.0,0000*43
$GPGSA,A,3,01,02,03,04,05,06,07,08,09,10,11,12,1.2,1.0,0.6*35
$GPGSV,3,1,12,01,45,045,50,02,45,045,50,03,45,045,50,04,45,045,50*7c
$GPGSV,3,2,12,05,45,045,50,06,45,045,50,07,45,045,50,08,45,045,50*77
$GPGSV,3,3,12,09,45,045,50,10,45,045,50,11,45,045,50,12,45,045,50*71
$GPRMC,120855.99,A,5200.1418,N,422.5667,E,0.2,93.4,131223,0.0,E,A*0f
$GPVTG,93.4,T,0.0,M,0.2,N,0.3,K*71
$GPGGA,120855.99,5200.1418,N,00422.5667,E,12,12,1.0,1.1,M,0.0,M,0.0,0000*44
$GPGSA,A,3,01,02,03,04,05,06,07,08,09,10,11,12,1.2,1.0,0.6*35
$GPGSV,3,1,12,01,45,045,50,02,45,045,50,03,45,045,50,04,45,045,50*7c
$GPGSV,3,2,12,05,45,045,50,06,45,045,50,07,45,045,50,08,45,045,50*77
$GPGSV,3,3,12,09,45,045,50,10,45,045,50,11,45,045,50,12,45,045,50*71
$GPRMC,120856.99,A,5200.1421,N,422.5667,E,0.2,93.4,131223,0.0,E,A*06
$GPVTG,93.4,T,0.0,M,0.2,N,0.4,K*76
$GPGGA,120856.99,5200.1421,N,00422.5667,E,12,12,1.0,1.1,M,0.0,M,0.0,0000*4d
$GPGSA,A,3,01,02,03,04,05,06,07,08,09,10,11,12,1.2,1.0,0.7*34
$GPGSV,3,1,12,01,45,045,50,02,45,045,50,03,45,045,50,04,45,045,50*7c
$GPGSV,3,2,12,05,45,045,50,06,45,045,50,07,45,045,50,08,45,045,50*77
$GPGSV,3,3,12,09,45,045,50,10,45,045,50,11,45,045,50,12,45,045,50*71
$GPRMC,120857.99,A,5200.1423,N,422.5663,E,0.0,93.4,131223,0.0,E,A*03
$GPVTG,93.4,T,0.0,M,0.0,N,0.1,K*71
$GPGGA,120857.99,5200.1423,N,00422.5663,E,12,12,1.0,1.1,M,0.0,M,0.0,0000*4a
$GPGSA,A,3,01,02,03,04,05,06,07,08,09,10,11,12,1.2,1.0,0.7*34
$GPGSV,3,1,12,01,45,045,50,02,45,045,50,03,45,045,50,04,45,045,50*7c
$GPGSV,3,2,12,05,45,045,50,06,45,045,50,07,45,045,50,08,45,045,50*77
$GPGSV,3,3,12,09,45,045,50,10,45,045,50,11,45,045,50,12,45,045,50*71
$GPRMC,120858.99,A,5200.1423,N,422.5663,E,0.0,93.4,131223,0.0,E,A*0c
$GPVTG,93.4,T,0.0,M,0.0,N,0.0,K*70
$GPGGA,120858.99,5200.1423,N,00422.5663,E,12,12,1.0,1.0,M,0.0,M,0.0,0000*44
$GPGSA,A,3,01,02,03,04,05,06,07,08,09,10,11,12,1.2,1.0,0.7*34
$GPGSV,3,1,12,01,45,045,50,02,45,045,50,03,45,045,50,04,45,045,50*7c
$GPGSV,3,2,12,05,45,045,50,06,45,045,50,07,45,045,50,08,45,045,50*77
$GPGSV,3,3,12,09,45,045,50,10,45,045,50,11,45,045,50,12,45,045,50*71
$GPRMC,120859.99,A,5200.1424,N,422.5661,E,0.1,93.4,131223,0.0,E,A*09
$GPVTG,93.4,T,0.0,M,0.1,N,0.1,K*70
$GPGGA,120859.99,5200.1424,N,00422.5661,E,12,12,1.0,1.1,M,0.0,M,0.0,0000*41
$GPGSA,A,3,01,02,03,04,05,06,07,08,09,10,11,12,1.2,1.0,0.7*34
$GPGSV,3,1,12,01,45,045,50,02,45,045,50,03,45,045,50,04,45,045,50*7c
$GPGSV,3,2,12,05,45,045,50,06,45,045,50,07,45,045,50,08,45,045,50*77
$GPGSV,3,3,12,09,45,045,50,10,45,045,50,11,45,045,50,12,45,045,50*71
$GPRMC,120900.99,A,5200.1424,N,422.5663,E,0.1,93.4,131223,0.0,E,A*06
$GPVTG,93.4,T,0.0,M,0.1,N,0.1,K*70
$GPGGA,120900.99,5200.1424,N,00422.5663,E,12,12,1.0,1.2,M,0.0,M,0.0,0000*4d
$GPGSA,A,3,01,02,03,04,05,06,07,08,09,10,11,12,1.2,1.0,0.7*34
$GPGSV,3,1,12,01,45,045,50,02,45,045,50,03,45,045,50,04,45,045,50*7c
$GPGSV,3,2,12,05,45,045,50,06,45,045,50,07,45,045,50,08,45,045,50*77
$GPGSV,3,3,12,09,45,045,50,10,45,045,50,11,45,045,50,12,45,045,50*71
$GPRMC,120901.99,A,5200.1423,N,422.5660,E,0.1,93.4,131223,0.0,E,A*03
$GPVTG,93.4,T,0.0,M,0.1,N,0.1,K*70
$GPGGA,120901.99,5200.1423,N,00422.5660,E,12,12,1.0,1.2,M,0.0,M,0.0,0000*48
$GPGSA,A,3,01,02,03,04,05,06,07,08,09,10,11,12,1.2,1.0,0.7*34
$GPGSV,3,1,12,01,45,045,50,02,45,045,50,03,45,045,50,04,45,045,50*7c
$GPGSV,3,2,12,05,45,045,50,06,45,045,50,07,45,045,50,08,45,045,50*77
$GPGSV,3,3,12,09,45,045,50,10,45,045,50,11,45,045,50,12,45,045,50*71
$GPRMC,120902.99,A,5200.1423,N,422.5660,E,0.0,90.1,131223,0.0,E,A*07
$GPVTG,90.1,T,0.0,M,0.0,N,0.0,K*76
$GPGGA,120902.99,5200.1423,N,00422.5660,E,12,12,1.0,1.2,M,0.0,M,0.0,0000*4b
$GPGSA,A,3,01,02,03,04,05,06,07,08,09,10,11,12,1.2,1.0,0.6*35
$GPGSV,3,1,12,01,45,045,50,02,45,045,50,03,45,045,50,04,45,045,50*7c
$GPGSV,3,2,12,05,45,045,50,06,45,045,50,07,45,045,50,08,45,045,50*77
$GPGSV,3,3,12,09,45,045,50,10,45,045,50,11,45,045,50,12,45,045,50*71
$GPRMC,120903.99,A,5200.1422,N,422.5656,E,0.1,93.4,131223,0.0,E,A*05
$GPVTG,93.4,T,0.0,M,0.1,N,0.2,K*73
$GPGGA,120903.99,5200.1422,N,00422.5656,E,12,12,1.0,1.2,M,0.0,M,0.0,0000*4e
$GPGSA,A,3,01,02,03,04,05,06,07,08,09,10,11,12,1.2,1.0,0.6*35
$GPGSV,3,1,12,01,45,045,50,02,45,045,50,03,45,045,50,04,45,045,50*7c
$GPGSV,3,2,12,05,45,045,50,06,45,045,50,07,45,045,50,08,45,045,50*77
$GPGSV,3,3,12,09,45,045,50,10,45,045,50,11,45,045,50,12,45,045,50*71
$GPRMC,120904.99,A,5200.1422,N,422.5656,E,0.0,93.4,131223,0.0,E,A*03
$GPVTG,93.4,T,0.0,M,0.0,N,0.0,K*70
$GPGGA,120904.99,5200.1422,N,00422.5656,E,12,12,1.0,1.2,M,0.0,M,0.0,0000*49
$GPGSA,A,3,01,02,03,04,05,06,07,08,09,10,11,12,1.2,1.0,0.6*35
$GPGSV,3,1,12,01,45,045,50,02,45,045,50,03,45,045,50,04,45,045,50*7c
$GPGSV,3,2,12,05,45,045,50,06,45,045,50,07,45,045,50,08,45,045,50*77
$GPGSV,3,3,12,09,45,045,50,10,45,045,50,11,45,045,50,12,45,045,50*71
$GPRMC,120905.99,A,5200.1422,N,422.5656,E,0.0,93.4,131223,0.0,E,A*02
$GPVTG,93.4,T,0.0,M,0.0,N,0.0,K*70
$GPGGA,120905.99,5200.1422,N,00422.5656,E,12,12,1.0,1.2,M,0.0,M,0.0,0000*48
$GPGSA,A,3,01,02,03,04,05,06,07,08,09,10,11,12,1.2,1.0,0.6*35
$GPGSV,3,1,12,01,45,045,50,02,45,045,50,03,45,045,50,04,45,045,50*7c
$GPGSV,3,2,12,05,45,045,50,06,45,045,50,07,45,045,50,08,45,045,50*77
$GPGSV,3,3,12,09,45,045,50,10,45,045,50,11,45,045,50,12,45,045,50*71
$GPRMC,120906.99,A,5200.1422,N,422.5656,E,0.0,93.4,131223,0.0,E,A*01
$GPVTG,93.4,T,0.0,M,0.0,N,0.0,K*70
$GPGGA,120906.99,5200.1422,N,00422.5656,E,12,12,1.0,1.2,M,0.0,M,0.0,0000*4b
$GPGSA,A,3,01,02,03,04,05,06,07,08,09,10,11,12,1.2,1.0,0.6*35
$GPGSV,3,1,12,01,45,045,50,02,45,045,50,03,45,045,50,04,45,045,50*7c
$GPGSV,3,2,12,05,45,045,50,06,45,045,50,07,45,045,50,08,45,045,50*77
$GPGSV,3,3,12,09,45,045,50,10,45,045,50,11,45,045,50,12,45,045,50*71
$GPRMC,120907.99,A,5200.1422,N,422.5656,E,0.0,94.4,131223,0.0,E,A*07
$GPVTG,94.4,T,0.0,M,0.0,N,0.0,K*77
$GPGGA,120907.99,5200.1422,N,00422.5656,E,12,12,1.0,1.2,M,0.0,M,0.0,0000*4a
$GPGSA,A,3,01,02,03,04,05,06,07,08,09,10,11,12,1.2,1.0,0.6*35
$GPGSV,3,1,12,01,45,045,50,02,45,045,50,03,45,045,50,04,45,045,50*7c
$GPGSV,3,2,12,05,45,045,50,06,45,045,50,07,45,045,50,08,45,045,50*77
$GPGSV,3,3,12,09,45,045,50,10,45,045,50,11,45,045,50,12,45,045,50*71
$GPRMC,120908.99,A,5200.1422,N,422.5656,E,0.0,93.4,131223,0.0,E,A*0f
$GPVTG,93.4,T,0.0,M,0.0,N,0.0,K*70
$GPGGA,120908.99,5200.1422,N,00422.5656,E,12,12,1.0,1.2,M,0.0,M,0.0,0000*45
$GPGSA,A,3,01,02,03,04,05,06,07,08,09,10,11,12,1.2,1.0,0.6*35
$GPGSV,3,1,12,01,45,045,50,02,45,045,50,03,45,045,50,04,45,045,50*7c
$GPGSV,3,2,12,05,45,045,50,06,45,045,50,07,45,045,50,08,45,045,50*77
$GPGSV,3,3,12,09,45,045,50,10,45,045,50,11,45,045,50,12,45,045,50*71
$GPRMC,120909.99,A,5200.1422,N,422.5656,E,0.0,93.4,131223,0.0,E,A*0e
$GPVTG,93.4,T,0.0,M,0.0,N,0.0,K*70
$GPGGA,120909.99,5200.1422,N,00422.5656,E,12,12,1.0,1.2,M,0.0,M,0.0,0000*44
$GPGSA,A,3,01,02,03,04,05,06,07,08,09,10,11,12,1.2,1.0,0.6*35
$GPGSV,3,1,12,01,45,045,50,02,45,045,50,03,45,045,50,04,45,045,50*7c
$GPGSV,3,2,12,05,45,045,50,06,45,045,50,07,45,045,50,08,45,045,50*77
$GPGSV,3,3,12,09,45,045,50,10,45,045,50,11,45,045,50,12,45,045,50*71
$GPRMC,120910.99,A,5200.1422,N,422.5656,E,0.0,92.4,131223,0.0,E,A*07
$GPVTG,92.4,T,0.0,M,0.0,N,0.0,K*71
$GPGGA,120910.99,5200.1422,N,00422.5656,E,12,12,1.0,1.2,M,0.0,M,0.0,0000*4c
$GPGSA,A,3,01,02,03,04,05,06,07,08,09,10,11,12,1.2,1.0,0.6*35
$GPGSV,3,1,12,01,45,045,50,02,45,045,50,03,45,045,50,04,45,045,50*7c
$GPGSV,3,2,12,05,45,045,50,06,45,045,50,07,45,045,50,08,45,045,50*77
$GPGSV,3,3,12,09,45,045,50,10,45,045,50,11,45,045,50,12,45,045,50*71
$GPRMC,120911.99,A,5200.1422,N,422.5656,E,0.0,92.4,131223,0.0,E,A*06
$GPVTG,92.4,T,0.0,M,0.0,N,0.0,K*71
$GPGGA,120911.99,5200.1422,N,00422.5656,E,12,12,1.0,1.2,M,0.0,M,0.0,0000*4d
$GPGSA,A,3,01,02,03,04,05,06,07,08,09,10,11,12,1.2,1.0,0.6*35
$GPGSV,3,1,12,01,45,045,50,02,45,045,50,03,45,045,50,04,45,045,50*7c
$GPGSV,3,2,12,05,45,045,50,06,45,045,50,07,45,045,50,08,45,045,50*77
$GPGSV,3,3,12,09,45,045,50,10,45,045,50,11,45,045,50,12,45,045,50*71
$GPRMC,120912.99,A,5200.1422,N,422.5656,E,0.0,93.5,131223,0.0,E,A*05
$GPVTG,93.5,T,0.0,M,0.0,N,0.0,K*71
$GPGGA,120912.99,5200.1422,N,00422.5656,E,12,12,1.0,1.2,M,0.0,M,0.0,0000*4e
$GPGSA,A,3,01,02,03,04,05,06,07,08,09,10,11,12,1.2,1.0,0.6*35
$GPGSV,3,1,12,01,45,045,50,02,45,045,50,03,45,045,50,04,45,045,50*7c
$GPGSV,3,2,12,05,45,045,50,06,45,045,50,07,45,045,50,08,45,045,50*77
$GPGSV,3,3,12,09,45,045,50,10,45,045,50,11,45,045,50,12,45,045,50*71
$GPRMC,120913.99,A,5200.1419,N,422.5647,E,0.0,92.4,131223,0.0,E,A*0c
$GPVTG,92.4,T,0.0,M,0.0,N,0.0,K*71
$GPGGA,120913.99,5200.1419,N,00422.5647,E,12,12,1.0,0.9,M,0.0,M,0.0,0000*4d
$GPGSA,A,3,01,02,03,04,05,06,07,08,09,10,11,12,1.2,1.0,0.6*35
$GPGSV,3,1,12,01,45,045,50,02,45,045,50,03,45,045,50,04,45,045,50*7c
$GPGSV,3,2,12,05,45,045,50,06,45,045,50,07,45,045,50,08,45,045,50*77
$GPGSV,3,3,12,09,45,045,50,10,45,045,50,11,45,045,50,12,45,045,50*71
$GPRMC,120914.99,A,5200.1419,N,422.5647,E,0.0,91.4,131223,0.0,E,A*08
$GPVTG,91.4,T,0.0,M,0.0,N,0.0,K*72
$GPGGA,120914.99,5200.1419,N,00422.5647,E,12,12,1.0,0.9,M,0.0,M,0.0,0000*4a
$GPGSA,A,3,01,02,03,04,05,06,07,08,09,10,11,12,1.2,1.0,0.6*35
$GPGSV,3,1,12,01,45,045,50,02,45,045,50,03,45,045,50,04,45,045,50*7c
$GPGSV,3,2,12,05,45,045,50,06,45,045,50,07,45,045,50,08,45,045,50*77
$GPGSV,3,3,12,09,45,045,50,10,45,045,50,11,45,045,50,12,45,045,50*71
$GPRMC,120915.99,A,5200.1419,N,422.5647,E,0.0,89.4,131223,0.0,E,A*00
$GPVTG,89.4,T,0.0,M,0.0,N,0.0,K*7b
$GPGGA,120915.99,5200.1419,N,00422.5647,E,12,12,1.0,0.9,M,0.0,M,0.0,0000*4b
