$GPGSA,A,3,01,02,03,04,05,06,07,08,09,10,11,12,1.2,1.0,0.6*35
$GPGSV,3,1,12,01,45,045,50,02,45,045,50,03,45,045,50,04,45,045,50*7c
$GPGSV,3,2,12,05,45,045,50,06,45,045,50,07,45,045,50,08,45,045,50*77
$GPGSV,3,3,12,09,45,045,50,10,45,045,50,11,45,045,50,12,45,045,50*71
$GPRMC,121057.99,A,5200.1892,N,422.5602,E,1.0,359.7,131223,0.0,E,A*3c
$GPVTG,359.7,T,0.0,M,1.0,N,1.9,K*4f
$GPGGA,121057.99,5200.1892,N,00422.5602,E,12,12,1.0,2.1,M,0.0,M,0.0,0000*41
$GPGSA,A,3,01,02,03,04,05,06,07,08,09,10,11,12,1.2,1.0,0.6*35
$GPGSV,3,1,12,01,45,045,50,02,45,045,50,03,45,045,50,04,45,045,50*7c
$GPGSV,3,2,12,05,45,045,50,06,45,045,50,07,45,045,50,08,45,045,50*77
$GPGSV,3,3,12,09,45,045,50,10,45,045,50,11,45,045,50,12,45,045,50*71
$GPRMC,121058.99,A,5200.1889,N,422.5600,E,0.1,359.9,131223,0.0,E,A*35
$GPVTG,359.9,T,0.0,M,0.1,N,0.2,K*4b
$GPGGA,121058.99,5200.1889,N,00422.5600,E,12,12,1.0,2.3,M,0.0,M,0.0,0000*44
$GPGSA,A,3,01,02,03,04,05,06,07,08,09,10,11,12,1.2,1.0,0.6*35
$GPGSV,3,1,12,01,45,045,50,02,45,045,50,03,45,045,50,04,45,045,50*7c
$GPGSV,3,2,12,05,45,045,50,06,45,045,50,07,45,045,50,08,45,045,50*77
$GPGSV,3,3,12,09,45,045,50,10,45,045,50,11,45,045,50,12,45,045,50*71
$GPRMC,121059.99,A,5200.1892,N,422.5602,E,0.0,357.7,131223,0.0,E,A*3d
$GPVTG,357.7,T,0.0,M,0.0,N,0.0,K*48
$GPGGA,121059.99,5200.1892,N,00422.5602,E,12,12,1.0,2.3,M,0.0,M,0.0,0000*4d
$GPGSA,A,3,01,02,03,04,05,06,07,08,09,10,11,12,1.2,1.0,0.6*35
$GPGSV,3,1,12,01,45,045,50,02,45,045,50,03,45,045,50,04,45,045,50*7c
$GPGSV,3,2,12,05,45,045,50,06,45,045,50,07,45,045,50,08,45,045,50*77
$GPGSV,3,3,12,09,45,045,50,10,45,045,50,11,45,045,50,12,45,045,50*71
$GPRMC,121100.99,A,5200.1891,N,422.5601,E,0.0,359.9,131223,0.0,E,A*30
$GPVTG,359.9,T,0.0,M,0.0,N,0.0,K*48
$GPGGA,121100.99,5200.1891,N,00422.5601,E,12,12,1.0,2.3,M,0.0,M,0.0,0000*40
$GPGSA,A,3,01,02,03,04,05,06,07,08,09,10,11,12,1.2,1.0,0.6*35
$GPGSV,3,1,12,01,45,045,50,02,45,045,50,03,45,045,50,04,45,045,50*7c
$GPGSV,3,2,12,05,45,045,50,06,45,045,50,07,45,045,50,08,45,045,50*77
$GPGSV,3,3,12,09,45,045,50,10,45,045,50,11,45,045,50,12,45,045,50*71
$GPRMC,121101.99,A,5200.1890,N,422.5601,E,0.0,407.2,131223,0.0,E,A*37
$GPVTG,407.2,T,0.0,M,0.0,N,0.0,K*4f
$GPGGA,121101.99,5200.1890,N,00422.5601,E,12,12,1.0,2.3,M,0.0,M,0.0,0000*40
$GPGSA,A,3,01,02,03,04,05,06,07,08,09,10,11,12,1.2,1.0,0.6*35
$GPGSV,3,1,12,01,45,045,50,02,45,045,50,03,45,045,50,04,45,045,50*7c
$GPGSV,3,2,12,05,45,045,50,06,45,045,50,07,45,045,50,08,45,045,50*77
$GPGSV,3,3,12,09,45,045,50,10,45,045,50,11,45,045,50,12,45,045,50*71
$GPRMC,121102.99,A,5200.1894,N,422.5602,E,0.4,359.9,131223,0.0,E,A*30
$GPVTG,359.9,T,0.0,M,0.4,N,0.8,K*44
$GPGGA,121102.99,5200.1894,N,00422.5602,E,12,12,1.0,2.4,M,0.0,M,0.0,0000*43
$GPGSA,A,3,01,02,03,04,05,06,07,08,09,10,11,12,1.2,1.0,0.6*35
$GPGSV,3,1,12,01,45,045,50,02,45,045,50,03,45,045,50,04,45,045,50*7c
$GPGSV,3,2,12,05,45,045,50,06,45,045,50,07,45,045,50,08,45,045,50*77
$GPGSV,3,3,12,09,45,045,50,10,45,045,50,11,45,045,50,12,45,045,50*71
$GPRMC,121103.99,A,5200.1895,N,422.5598,E,0.5,359.9,131223,0.0,E,A*31
$GPVTG,359.9,T,0.0,M,0.5,N,1.0,K*4c
$GPGGA,121103.99,5200.1895,N,00422.5598,E,12,12,1.0,2.5,M,0.0,M,0.0,0000*42
$GPGSA,A,3,01,02,03,04,05,06,07,08,09,10,11,12,1.2,1.0,0.6*35
$GPGSV,3,1,12,01,45,045,50,02,45,045,50,03,45,045,50,04,45,045,50*7c
$GPGSV,3,2,12,05,45,045,50,06,45,045,50,07,45,045,50,08,45,045,50*77
$GPGSV,3,3,12,09,45,045,50,10,45,045,50,11,45,045,50,12,45,045,50*71
$GPRMC,121104.99,A,5200.1895,N,422.5600,E,0.3,359.9,131223,0.0,E,A*32
$GPVTG,359.9,T,0.0,M,0.3,N,0.5,K*4e
$GPGGA,121104.99,5200.1895,N,00422.5600,E,12,12,1.0,2.4,M,0.0,M,0.0,0000*46
$GPGSA,A,3,01,02,03,04,05,06,07,08,09,10,11,12,1.2,1.0,0.6*35
$GPGSV,3,1,12,01,45,045,50,02,45,045,50,03,45,045,50,04,45,045,50*7c
$GPGSV,3,2,12,05,45,045,50,06,45,045,50,07,45,045,50,08,45,045,50*77
$GPGSV,3,3,12,09,45,045,50,10,45,045,50,11,45,045,50,12,45,045,50*71
$GPRMC,121105.99,A,5200.1896,N,422.5599,E,0.2,359.9,131223,0.0,E,A*32
$GPVTG,359.9,T,0.0,M,0.2,N,0.4,K*4e
$GPGGA,121105.99,5200.1896,N,00422.5599,E,12,12,1.0,2.4,M,0.0,M,0.0,0000*47
$GPGSA,A,3,01,02,03,04,05,06,07,08,09,10,11,12,1.2,1.0,0.6*35
$GPGSV,3,1,12,01,45,045,50,02,45,045,50,03,45,045,50,04,45,045,50*7c
$GPGSV,3,2,12,05,45,045,50,06,45,045,50,07,45,045,50,08,45,045,50*77
$GPGSV,3,3,12,09,45,045,50,10,45,045,50,11,45,045,50,12,45,045,50*71
$GPRMC,121106.99,A,5200.1900,N,422.5600,E,0.2,359.9,131223,0.0,E,A*3c
$GPVTG,359.9,T,0.0,M,0.2,N,0.4,K*4e
$GPGGA,121106.99,5200.1900,N,00422.5600,E,12,12,1.0,2.5,M,0.0,M,0.0,0000*48
$GPGSA,A,3,01,02,03,04,05,06,07,08,09,10,11,12,1.2,1.0,0.6*35
$GPGSV,3,1,12,01,45,045,50,02,45,045,50,03,45,045,50,04,45,045,50*7c
$GPGSV,3,2,12,05,45,045,50,06,45,045,50,07,45,045,50,08,45,045,50*77
$GPGSV,3,3,12,09,45,045,50,10,45,045,50,11,45,045,50,12,45,045,50*71
$GPRMC,121107.99,A,5200.1901,N,422.5597,E,0.3,359.9,131223,0.0,E,A*30
$GPVTG,359.9,T,0.0,M,0.3,N,0.6,K*4d
$GPGGA,121107.99,5200.1901,N,00422.5597,E,12,12,1.0,2.6,M,0.0,M,0.0,0000*46
$GPGSA,A,3,01,02,03,04,05,06,07,08,09,10,11,12,1.2,1.0,0.6*35
$GPGSV,3,1,12,01,45,045,50,02,45,045,50,03,45,045,50,04,45,045,50*7c
$GPGSV,3,2,12,05,45,045,50,06,45,045,50,07,45,045,50,08,45,045,50*77
$GPGSV,3,3,12,09,45,045,50,10,45,045,50,11,45,045,50,12,45,045,50*71
$GPRMC,121108.99,A,5200.1900,N,422.5593,E,0.2,359.9,131223,0.0,E,A*3b
$GPVTG,359.9,T,0.0,M,0.2,N,0.4,K*4e
$GPGGA,121108.99,5200.1900,N,00422.5593,E,12,12,1.0,2.5,M,0.0,M,0.0,0000*4f
$GPGSA,A,3,01,02,03,04,05,06,07,08,09,10,11,12,1.2,1.0,0.6*35
$GPGSV,3,1,12,01,45,045,50,02,45,045,50,03,45,045,50,04,45,045,50*7c
$GPGSV,3,2,12,05,45,045,50,06,45,045,50,07,45,045,50,08,45,045,50*77
$GPGSV,3,3,12,09,45,045,50,10,45,045,50,11,45,045,50,12,45,045,50*71
$GPRMC,121109.99,A,5200.1900,N,422.5593,E,0.0,351.9,131223,0.0,E,A*30
$GPVTG,351.9,T,0.0,M,0.0,N,0.0,K*40
$GPGGA,121109.99,5200.1900,N,00422.5593,E,12,12,1.0,2.5,M,0.0,M,0.0,0000*4e
$GPGSA,A,3,01,02,03,04,05,06,07,08,09,10,11,12,1.2,1.0,0.6*35
$GPGSV,3,1,12,01,45,045,50,02,45,045,50,03,45,045,50,04,45,045,50*7c
$GPGSV,3,2,12,05,45,045,50,06,45,045,50,07,45,045,50,08,45,045,50*77
$GPGSV,3,3,12,09,45,045,50,10,45,045,50,11,45,045,50,12,45,045,50*71
$GPRMC,121110.99,A,5200.1900,N,422.5593,E,0.0,355.3,131223,0.0,E,A*36
$GPVTG,355.3,T,0.0,M,0.0,N,0.0,K*4e
$GPGGA,121110.99,5200.1900,N,00422.5593,E,12,12,1.0,2.5,M,0.0,M,0.0,0000*46
$GPGSA,A,3,01,02,03,04,05,06,07,08,09,10,11,12,1.2,1.0,0.6*35
$GPGSV,3,1,12,01,45,045,50,02,45,045,50,03,45,045,50,04,45,045,50*7c
$GPGSV,3,2,12,05,45,045,50,06,45,045,50,07,45,045,50,08,45,045,50*77
$GPGSV,3,3,12,09,45,045,50,10,45,045,50,11,45,045,50,12,45,045,50*71
$GPRMC,121111.99,A,5200.1900,N,422.5593,E,0.0,362.0,131223,0.0,E,A*30
$GPVTG,362.0,T,0.0,M,0.0,N,0.0,K*49
$GPGGA,121111.99,5200.1900,N,00422.5593,E,12,12,1.0,2.5,M,0.0,M,0.0,0000*47
$GPGSA,A,3,01,02,03,04,05,06,07,08,09,10,11,12,1.2,1.0,0.6*35
$GPGSV,3,1,12,01,45,045,50,02,45,045,50,03,45,045,50,04,45,045,50*7c
$GPGSV,3,2,12,05,45,045,50,06,45,045,50,07,45,045,50,08,45,045,50*77
$GPGSV,3,3,12,09,45,045,50,10,45,045,50,11,45,045,50,12,45,045,50*71
$GPRMC,121112.99,A,5200.1899,N,422.5585,E,0.3,359.9,131223,0.0,E,A*37
$GPVTG,359.9,T,0.0,M,0.3,N,0.6,K*4d
$GPGGA,121112.99,5200.1899,N,00422.5585,E,12,12,1.0,2.6,M,0.0,M,0.0,0000*41
$GPGSA,A,3,01,02,03,04,05,06,07,08,09,10,11,12,1.2,1.0,0.6*35
$GPGSV,3,1,12,01,45,045,50,02,45,045,50,03,45,045,50,04,45,045,50*7c
$GPGSV,3,2,12,05,45,045,50,06,45,045,50,07,45,045,50,08,45,045,50*77
$GPGSV,3,3,12,09,45,045,50,10,45,045,50,11,45,045,50,12,45,045,50*71
$GPRMC,121113.99,A,5200.1900,N,422.5584,E,0.5,359.9,131223,0.0,E,A*30
$GPVTG,359.9,T,0.0,M,0.5,N,0.9,K*44
$GPGGA,121113.99,5200.1900,N,00422.5584,E,12,12,1.0,2.6,M,0.0,M,0.0,0000*40
$GPGSA,A,3,01,02,03,04,05,06,07,08,09,10,11,12,1.2,1.0,0.6*35
$GPGSV,3,1,12,01,45,045,50,02,45,045,50,03,45,045,50,04,45,045,50*7c
$GPGSV,3,2,12,05,45,045,50,06,45,045,50,07,45,045,50,08,45,045,50*77
$GPGSV,3,3,12,09,45,045,50,10,45,045,50,11,45,045,50,12,45,045,50*71
$GPRMC,121114.99,A,5200.1899,N,422.5581,E,0.2,359.9,131223,0.0,E,A*34
$GPVTG,359.9,T,0.0,M,0.2,N,0.4,K*4e
$GPGGA,121114.99,5200.1899,N,00422.5581,E,12,12,1.0,2.7,M,0.0,M,0.0,0000*42
$GPGSA,A,3,01,02,03,04,05,06,07,08,09,10,11,12,1.2,1.0,0.7*34
$GPGSV,3,1,12,01,45,045,50,02,45,045,50,03,45,045,50,04,45,045,50*7c
$GPGSV,3,2,12,05,45,045,50,06,45,045,50,07,45,045,50,08,45,045,50*77
$GPGSV,3,3,12,09,45,045,50,10,45,045,50,11,45,045,50,12,45,045,50*71
$GPRMC,121115.99,A,5200.1901,N,422.5586,E,0.5,359.9,131223,0.0,E,A*35
$GPVTG,359.9,T,0.0,M,0.5,N,1.0,K*4c
$GPGGA,121115.99,5200.1901,N,00422.5586,E,12,12,1.0,2.7,M,0.0,M,0.0,0000*44
$GPGSA,A,3,01,02,03,04,05,06,07,08,09,10,11,12,1.2,1.0,0.6*35
$GPGSV,3,1,12,01,45,045,50,02,45,045,50,03,45,045,50,04,45,045,50*7c
$GPGSV,3,2,12,05,45,045,50,06,45,045,50,07,45,045,50,08,45,045,50*77
$GPGSV,3,3,12,09,45,045,50,10,45,045,50,11,45,045,50,12,45,045,50*71
$GPRMC,121116.99,A,5200.1902,N,422.5584,E,0.0,359.9,131223,0.0,E,A*32
$GPVTG,359.9,T,0.0,M,0.0,N,0.0,K*48
$GPGGA,121116.99,5200.1902,N,00422.5584,E,12,12,1.0,2.7,M,0.0,M,0.0,0000*46
$GPGSA,A,3,01,02,03,04,05,06,07,08,09,10,11,12,1.2,1.0,0.7*34
$GPGSV,3,1,12,01,45,045,50,02,45,045,50,03,45,045,50,04,45,045,50*7c
$GPGSV,3,2,12,05,45,045,50,06,45,045,50,07,45,045,50,08,45,045,50*77
$GPGSV,3,3,12,09,45,045,50,10,45,045,50,11,45,045,50,12,45,045,50*71
$GPRMC,121117.99,A,5200.1902,N,422.5584,E,0.0,359.9,131223,0.0,E,A*33
$GPVTG,359.9,T,0.0,M,0.0,N,0.0,K*48
$GPGGA,121117.99,5200.1902,N,00422.5584,E,12,12,1.0,2.7,M,0.0,M,0.0,0000*47
$GPGSA,A,3,01,02,03,04,05,06,07,08,09,10,11,12,1.2,1.0,0.7*34
$GPGSV,3,1,12,01,45,045,50,02,45,045,50,03,45,045,50,04,45,045,50*7c
$GPGSV,3,2,12,05,45,045,50,06,45,045,50,07,45,045,50,08,45,045,50*77
$GPGSV,3,3,12,09,45,045,50,10,45,045,50,11,45,045,50,12,45,045,50*71
$GPRMC,121118.99,A,5200.1902,N,422.5584,E,0.0,360.9,131223,0.0,E,A*36
$GPVTG,360.9,T,0.0,M,0.0,N,0.0,K*42
$GPGGA,121118.99,5200.1902,N,00422.5584,E,12,12,1.0,2.7,M,0.0,M,0.0,0000*48
