$GPGSA,A,3,01,02,03,04,05,06,07,08,09,10,11,12,1.7,1.3,1.1*35
$GPGSV,3,1,12,01,45,045,50,02,45,045,50,03,45,045,50,04,45,045,50*7c
$GPGSV,3,2,12,05,45,045,50,06,45,045,50,07,45,045,50,08,45,045,50*77
$GPGSV,3,3,12,09,45,045,50,10,45,045,50,11,45,045,50,12,45,045,50*71
$GPRMC,121152.76,A,5200.1842,N,422.5498,E,0.3,259.1,131223,0.0,E,A*30
$GPVTG,259.1,T,0.0,M,0.3,N,0.6,K*44
$GPGGA,121152.76,5200.1842,N,00422.5498,E,12,12,1.3,2.4,M,0.0,M,0.0,0000*4e
$GPGSA,A,3,01,02,03,04,05,06,07,08,09,10,11,12,2.5,1.8,1.7*39
$GPGSV,3,1,12,01,45,045,50,02,45,045,50,03,45,045,50,04,45,045,50*7c
$GPGSV,3,2,12,05,45,045,50,06,45,045,50,07,45,045,50,08,45,045,50*77
$GPGSV,3,3,12,09,45,045,50,10,45,045,50,11,45,045,50,12,45,045,50*71
$GPRMC,121153.71,A,5200.1842,N,422.5502,E,0.4,235.3,131223,0.0,E,A*3b
$GPVTG,235.3,T,0.0,M,0.4,N,0.7,K*4a
$GPGGA,121153.71,5200.1842,N,00422.5502,E,12,12,1.8,2.4,M,0.0,M,0.0,0000*41
$GPGSA,A,3,01,02,03,04,05,06,07,08,09,10,11,12,2.2,1.6,1.6*31
$GPGSV,3,1,12,01,45,045,50,02,45,045,50,03,45,045,50,04,45,045,50*7c
$GPGSV,3,2,12,05,45,045,50,06,45,045,50,07,45,045,50,08,45,045,50*77
$GPGSV,3,3,12,09,45,045,50,10,45,045,50,11,45,045,50,12,45,045,50*71
$GPRMC,121154.66,A,5200.1840,N,422.5499,E,0.2,224.9,131223,0.0,E,A*37
$GPVTG,224.9,T,0.0,M,0.2,N,0.3,K*42
$GPGGA,121154.66,5200.1840,N,00422.5499,E,12,12,1.6,2.4,M,0.0,M,0.0,0000*4f
$GPGSA,A,3,01,02,03,04,05,06,07,08,09,10,11,12,2.9,2.0,2.1*3b
$GPGSV,3,1,12,01,45,045,50,02,45,045,50,03,45,045,50,04,45,045,50*7c
$GPGSV,3,2,12,05,45,045,50,06,45,045,50,07,45,045,50,08,45,045,50*77
$GPGSV,3,3,12,09,45,045,50,10,45,045,50,11,45,045,50,12,45,045,50*71
$GPRMC,121155.61,A,5200.1838,N,422.5497,E,0.1,210.7,131223,0.0,E,A*3a
$GPVTG,210.7,T,0.0,M,0.1,N,0.2,K*49
$GPGGA,121155.61,5200.1838,N,00422.5497,E,12,12,2.0,2.4,M,0.0,M,0.0,0000*4d
$GPGSA,A,3,01,02,03,04,05,06,07,08,09,10,11,12,2.8,1.9,2.1*30
$GPGSV,3,1,12,01,45,045,50,02,45,045,50,03,45,045,50,04,45,045,50*7c
$GPGSV,3,2,12,05,45,045,50,06,45,045,50,07,45,045,50,08,45,045,50*77
$GPGSV,3,3,12,09,45,045,50,10,45,045,50,11,45,045,50,12,45,045,50*71
$GPRMC,121156.56,A,5200.1834,N,422.5501,E,0.2,60.8,131223,0.0,E,A*06
$GPVTG,60.8,T,0.0,M,0.2,N,0.3,K*71
$GPGGA,121156.56,5200.1834,N,00422.5501,E,12,12,1.9,2.4,M,0.0,M,0.0,0000*42
$GPGSA,A,3,01,02,03,04,05,06,07,08,09,10,11,12,3.0,2.0,2.2*30
$GPGSV,3,1,12,01,45,045,50,02,45,045,50,03,45,045,50,04,45,045,50*7c
$GPGSV,3,2,12,05,45,045,50,06,45,045,50,07,45,045,50,08,45,045,50*77
$GPGSV,3,3,12,09,45,045,50,10,45,045,50,11,45,045,50,12,45,045,50*71
$GPRMC,121157.51,A,5200.1836,N,422.5507,E,0.1,175.2,131223,0.0,E,A*38
$GPVTG,175.2,T,0.0,M,0.1,N,0.1,K*4f
$GPGGA,121157.51,5200.1836,N,00422.5507,E,12,12,2.0,2.5,M,0.0,M,0.0,0000*4b
$GPGSA,A,3,01,02,03,04,05,06,07,08,09,10,11,12,3.9,2.6,3.0*3c
$GPGSV,3,1,12,01,45,045,50,02,45,045,50,03,45,045,50,04,45,045,50*7c
$GPGSV,3,2,12,05,45,045,50,06,45,045,50,07,45,045,50,08,45,045,50*77
$GPGSV,3,3,12,09,45,045,50,10,45,045,50,11,45,045,50,12,45,045,50*71
$GPRMC,121158.46,A,5200.1838,N,422.5508,E,0.0,340.4,131223,0.0,E,A*33
$GPVTG,340.4,T,0.0,M,0.0,N,0.0,K*4d
$GPGGA,121158.46,5200.1838,N,00422.5508,E,12,12,2.6,2.5,M,0.0,M,0.0,0000*45
$GPGSA,A,3,01,02,03,04,05,06,07,08,09,10,11,12,3.5,2.2,2.7*32
$GPGSV,3,1,12,01,45,045,50,02,45,045,50,03,45,045,50,04,45,045,50*7c
$GPGSV,3,2,12,05,45,045,50,06,45,045,50,07,45,045,50,08,45,045,50*77
$GPGSV,3,3,12,09,45,045,50,10,45,045,50,11,45,045,50,12,45,045,50*71
$GPRMC,121159.41,A,5200.1838,N,422.5511,E,0.0,333.3,131223,0.0,E,A*3e
$GPVTG,333.3,T,0.0,M,0.0,N,0.1,K*4f
$GPGGA,121159.41,5200.1838,N,00422.5511,E,12,12,2.2,2.5,M,0.0,M,0.0,0000*4f
$GPGSA,A,3,01,02,03,04,05,06,07,08,09,10,11,12,3.5,2.2,2.7*32
$GPGSV,3,1,12,01,45,045,50,02,45,045,50,03,45,045,50,04,45,045,50*7c
$GPGSV,3,2,12,05,45,045,50,06,45,045,50,07,45,045,50,08,45,045,50*77
$GPGSV,3,3,12,09,45,045,50,10,45,045,50,11,45,045,50,12,45,045,50*71
$GPRMC,121200.36,A,5200.1838,N,422.5511,E,0.0,-1.0,131223,0.0,E,A*1d
$GPVTG,-1.0,T,0.0,M,0.0,N,0.1,K*63
$GPGGA,121200.36,5200.1838,N,00422.5511,E,12,12,2.2,2.5,M,0.0,M,0.0,0000*40
$GPGSA,A,3,01,02,03,04,05,06,07,08,09,10,11,12,4.3,2.6,3.3*32
$GPGSV,3,1,12,01,45,045,50,02,45,045,50,03,45,045,50,04,45,045,50*7c
$GPGSV,3,2,12,05,45,045,50,06,45,045,50,07,45,045,50,08,45,045,50*77
$GPGSV,3,3,12,09,45,045,50,10,45,045,50,11,45,045,50,12,45,045,50*71
$GPRMC,121201.31,A,5200.1837,N,422.5517,E,0.1,359.9,131223,0.0,E,A*39
$GPVTG,359.9,T,0.0,M,0.1,N,0.2,K*4b
$GPGGA,121201.31,5200.1837,N,00422.5517,E,12,12,2.6,2.6,M,0.0,M,0.0,0000*48
$GPGSA,A,3,01,02,03,04,05,06,07,08,09,10,11,12,2.2,1.4,1.7*32
$GPGSV,3,1,12,01,45,045,50,02,45,045,50,03,45,045,50,04,45,045,50*7c
$GPGSV,3,2,12,05,45,045,50,06,45,045,50,07,45,045,50,08,45,045,50*77
$GPGSV,3,3,12,09,45,045,50,10,45,045,50,11,45,045,50,12,45,045,50*71
$GPRMC,121202.26,A,5200.1836,N,422.5519,E,0.1,345.1,131223,0.0,E,A*36
$GPVTG,345.1,T,0.0,M,0.1,N,0.3,K*4f
$GPGGA,121202.26,5200.1836,N,00422.5519,E,12,12,1.4,2.5,M,0.0,M,0.0,0000*40
$GPGSA,A,3,01,02,03,04,05,06,07,08,09,10,11,12,3.2,2.0,2.5*35
$GPGSV,3,1,12,01,45,045,50,02,45,045,50,03,45,045,50,04,45,045,50*7c
$GPGSV,3,2,12,05,45,045,50,06,45,045,50,07,45,045,50,08,45,045,50*77
$GPGSV,3,3,12,09,45,045,50,10,45,045,50,11,45,045,50,12,45,045,50*71
$GPRMC,121203.21,A,5200.1835,N,422.5516,E,0.0,-1.0,131223,0.0,E,A*12
$GPVTG,-1.0,T,0.0,M,0.0,N,0.1,K*63
$GPGGA,121203.21,5200.1835,N,00422.5516,E,12,12,2.0,2.5,M,0.0,M,0.0,0000*4d
$GPGSA,A,3,01,02,03,04,05,06,07,08,09,10,11,12,2.9,1.8,2.3*32
$GPGSV,3,1,12,01,45,045,50,02,45,045,50,03,45,045,50,04,45,045,50*7c
$GPGSV,3,2,12,05,45,045,50,06,45,045,50,07,45,045,50,08,45,045,50*77
$GPGSV,3,3,12,09,45,045,50,10,45,045,50,11,45,045,50,12,45,045,50*71
$GPRMC,121204.16,A,5200.1834,N,422.5516,E,0.0,-1.0,131223,0.0,E,A*10
$GPVTG,-1.0,T,0.0,M,0.0,N,0.0,K*62
$GPGGA,121204.16,5200.1834,N,00422.5516,E,12,12,1.8,2.5,M,0.0,M,0.0,0000*44
$GPGSA,A,3,01,02,03,04,05,06,07,08,09,10,11,12,2.9,1.8,2.4*35
$GPGSV,3,1,12,01,45,045,50,02,45,045,50,03,45,045,50,04,45,045,50*7c
$GPGSV,3,2,12,05,45,045,50,06,45,045,50,07,45,045,50,08,45,045,50*77
$GPGSV,3,3,12,09,45,045,50,10,45,045,50,11,45,045,50,12,45,045,50*71
$GPRMC,121205.11,A,5200.1832,N,422.5519,E,0.0,296.5,131223,0.0,E,A*3b
$GPVTG,296.5,T,0.0,M,0.0,N,0.1,K*47
$GPGGA,121205.11,5200.1832,N,00422.5519,E,12,12,1.8,2.5,M,0.0,M,0.0,0000*4b
$GPGSA,A,3,01,02,03,04,05,06,07,08,09,10,11,12,3.5,2.1,2.8*3e
$GPGSV,3,1,12,01,45,045,50,02,45,045,50,03,45,045,50,04,45,045,50*7c
$GPGSV,3,2,12,05,45,045,50,06,45,045,50,07,45,045,50,08,45,045,50*77
$GPGSV,3,3,12,09,45,045,50,10,45,045,50,11,45,045,50,12,45,045,50*71
$GPRMC,121206.06,A,5200.1834,N,422.5515,E,0.0,321.6,131223,0.0,E,A*3a
$GPVTG,321.6,T,0.0,M,0.0,N,0.1,K*49
$GPGGA,121206.06,5200.1834,N,00422.5515,E,12,12,2.1,2.5,M,0.0,M,0.0,0000*4e
$GPGSA,A,3,01,02,03,04,05,06,07,08,09,10,11,12,3.1,1.9,2.5*3c
$GPGSV,3,1,12,01,45,045,50,02,45,045,50,03,45,045,50,04,45,045,50*7c
$GPGSV,3,2,12,05,45,045,50,06,45,045,50,07,45,045,50,08,45,045,50*77
$GPGSV,3,3,12,09,45,045,50,10,45,045,50,11,45,045,50,12,45,045,50*71
$GPRMC,121207.01,A,5200.1837,N,422.5510,E,0.0,-1.0,131223,0.0,E,A*10
$GPVTG,-1.0,T,0.0,M,0.0,N,0.1,K*63
$GPGGA,121207.01,5200.1837,N,00422.5510,E,12,12,1.9,2.5,M,0.0,M,0.0,0000*45
$GPGSA,A,3,01,02,03,04,05,06,07,08,09,10,11,12,3.7,2.3,2.9*3f
$GPGSV,3,1,12,01,45,045,50,02,45,045,50,03,45,045,50,04,45,045,50*7c
$GPGSV,3,2,12,05,45,045,50,06,45,045,50,07,45,045,50,08,45,045,50*77
$GPGSV,3,3,12,09,45,045,50,10,45,045,50,11,45,045,50,12,45,045,50*71
$GPRMC,121207.99,A,5200.1842,N,422.5504,E,0.0,-1.0,131223,0.0,E,A*16
$GPVTG,-1.0,T,0.0,M,0.0,N,0.0,K*62
$GPGGA,121207.99,5200.1842,N,00422.5504,E,12,12,2.3,2.5,M,0.0,M,0.0,0000*4a
$GPGSA,A,3,01,02,03,04,05,06,07,08,09,10,11,12,3.1,1.9,2.4*3d
$GPGSV,3,1,12,01,45,045,50,02,45,045,50,03,45,045,50,04,45,045,50*7c
$GPGSV,3,2,12,05,45,045,50,06,45,045,50,07,45,045,50,08,45,045,50*77
$GPGSV,3,3,12,09,45,045,50,10,45,045,50,11,45,045,50,12,45,045,50*71
$GPRMC,121208.99,A,5200.1843,N,422.5501,E,0.2,111.4,131223,0.0,E,A*36
$GPVTG,111.4,T,0.0,M,0.2,N,0.4,K*4d
$GPGGA,121208.99,5200.1843,N,00422.5501,E,12,12,1.9,2.5,M,0.0,M,0.0,0000*48
$GPGSA,A,3,01,02,03,04,05,06,07,08,09,10,11,12,2.1,1.3,1.7*36
$GPGSV,3,1,12,01,45,045,50,02,45,045,50,03,45,045,50,04,45,045,50*7c
$GPGSV,3,2,12,05,45,045,50,06,45,045,50,07,45,045,50,08,45,045,50*77
$GPGSV,3,3,12,09,45,045,50,10,45,045,50,11,45,045,50,12,45,045,50*71
$GPRMC,121209.99,A,5200.1844,N,422.5496,E,0.4,286.7,131223,0.0,E,A*37
$GPVTG,286.7,T,0.0,M,0.4,N,0.7,K*46
$GPGGA,121209.99,5200.1844,N,00422.5496,E,12,12,1.3,2.5,M,0.0,M,0.0,0000*4b
$GPGSA,A,3,01,02,03,04,05,06,07,08,09,10,11,12,1.9,1.2,1.5*3e
$GPGSV,3,1,12,01,45,045,50,02,45,045,50,03,45,045,50,04,45,045,50*7c
$GPGSV,3,2,12,05,45,045,50,06,45,045,50,07,45,045,50,08,45,045,50*77
$GPGSV,3,3,12,09,45,045,50,10,45,045,50,11,45,045,50,12,45,045,50*71
$GPRMC,121210.99,A,5200.1844,N,422.5496,E,0.3,106.7,131223,0.0,E,A*33
$GPVTG,106.7,T,0.0,M,0.3,N,0.5,K*48
$GPGGA,121210.99,5200.1844,N,00422.5496,E,12,12,1.2,2.6,M,0.0,M,0.0,0000*41
$GPGSA,A,3,01,02,03,04,05,06,07,08,09,10,11,12,2.2,1.4,1.7*32
$GPGSV,3,1,12,01,45,045,50,02,45,045,50,03,45,045,50,04,45,045,50*7c
$GPGSV,3,2,12,05,45,045,50,06,45,045,50,07,45,045,50,08,45,045,50*77
$GPGSV,3,3,12,09,45,045,50,10,45,045,50,11,45,045,50,12,45,045,50*71
$GPRMC,121211.99,A,5200.1844,N,422.5495,E,0.1,169.1,131223,0.0,E,A*3c
$GPVTG,169.1,T,0.0,M,0.1,N,0.2,K*42
$GPGGA,121211.99,5200.1844,N,00422.5495,E,12,12,1.4,2.6,M,0.0,M,0.0,0000*45
$GPGSA,A,3,01,02,03,04,05,06,07,08,09,10,11,12,2.5,1.5,1.9*3a
$GPGSV,3,1,12,01,45,045,50,02,45,045,50,03,45,045,50,04,45,045,50*7c
$GPGSV,3,2,12,05,45,045,50,06,45,045,50,07,45,045,50,08,45,045,50*77
$GPGSV,3,3,12,09,45,045,50,10,45,045,50,11,45,045,50,12,45,045,50*71
$GPRMC,121212.99,A,5200.1847,N,422.5495,E,0.1,-1.0,131223,0.0,E,A*1f
$GPVTG,-1.0,T,0.0,M,0.1,N,0.1,K*62
$GPGGA,121212.99,5200.1847,N,00422.5495,E,12,12,1.5,2.4,M,0.0,M,0.0,0000*46
$GPGSA,A,3,01,02,03,04,05,06,07,08,09,10,11,12,2.9,1.8,2.3*32
$GPGSV,3,1,12,01,45,045,50,02,45,045,50,03,45,045,50,04,45,045,50*7c
$GPGSV,3,2,12,05,45,045,50,06,45,045,50,07,45,045,50,08,45,045,50*77
$GPGSV,3,3,12,09,45,045,50,10,45,045,50,11,45,045,50,12,45,045,50*71
$GPRMC,121213.99,A,5200.1848,N,422.5496,E,0.0,328.9,131223,0.0,E,A*3f
$GPVTG,328.9,T,0.0,M,0.0,N,0.1,K*4f
$GPGGA,121213.99,5200.1848,N,00422.5496,E,12,12,1.8,2.4,M,0.0,M,0.0,0000*46
$GPGSA,A,3,01,02,03,04,05,06,07,08,09,10,11,12,3.3,2.0,2.6*37
$GPGSV,3,1,12,01,45,045,50,02,45,045,50,03,45,045,50,04,45,045,50*7c
$GPGSV,3,2,12,05,45,045,50,06,45,045,50,07,45,045,50,08,45,045,50*77
$GPGSV,3,3,12,09,45,045,50,10,45,045,50,11,45,045,50,12,45,045,50*71
$GPRMC,121214.99,A,5200.1847,N,422.5494,E,0.0,-1.0,131223,0.0,E,A*19
$GPVTG,-1.0,T,0.0,M,0.0,N,0.0,K*62
$GPGGA,121214.99,5200.1847,N,00422.5494,E,12,12,2.0,2.4,M,0.0,M,0.0,0000*47
$GPGSA,A,3,01,02,03,04,05,06,07,08,09,10,11,12,3.1,1.9,2.4*3d
$GPGSV,3,1,12,01,45,045,50,02,45,045,50,03,45,045,50,04,45,045,50*7c
$GPGSV,3,2,12,05,45,045,50,06,45,045,50,07,45,045,50,08,45,045,50*77
$GPGSV,3,3,12,09,45,045,50,10,45,045,50,11,45,045,50,12,45,045,50*71
$GPRMC,121215.99,A,5200.1845,N,422.5492,E,0.0,-1.0,131223,0.0,E,A*1c
$GPVTG,-1.0,T,0.0,M,0.0,N,0.0,K*62
$GPGGA,121215.99,5200.1845,N,00422.5492,E,12,12,1.9,2.4,M,0.0,M,0.0,0000*48
$GPGSA,A,3,01,02,03,04,05,06,07,08,09,10,11,12,3.8,2.3,3.0*38
$GPGSV,3,1,12,01,45,045,50,02,45,045,50,03,45,045,50,04,45,045,50*7c
$GPGSV,3,2,12,05,45,045,50,06,45,045,50,07,45,045,50,08,45,045,50*77
$GPGSV,3,3,12,09,45,045,50,10,45,045,50,11,45,045,50,12,45,045,50*71
$GPRMC,121216.99,A,5200.1842,N,422.5491,E,0.0,-1.0,131223,0.0,E,A*1b
$GPVTG,-1.0,T,0.0,M,0.0,N,0.0,K*62
$GPGGA,121216.99,5200.1842,N,00422.5491,E,12,12,2.3,2.4,M,0.0,M,0.0,0000*46
$GPGSA,A,3,01,02,03,04,05,06,07,08,09,10,11,12,1.4,0.9,1.1*3d
$GPGSV,3,1,12,01,45,045,50,02,45,045,50,03,45,045,50,04,45,045,50*7c
$GPGSV,3,2,12,05,45,045,50,06,45,045,50,07,45,045,50,08,45,045,50*77
$GPGSV,3,3,12,09,45,045,50,10,45,045,50,11,45,045,50,12,45,045,50*71
$GPRMC,121217.99,A,5200.1841,N,422.5489,E,0.0,-1.0,131223,0.0,E,A*10
$GPVTG,-1.0,T,0.0,M,0.0,N,0.0,K*62
$GPGGA,121217.99,5200.1841,N,00422.5489,E,12,12,0.9,2.4,M,0.0,M,0.0,0000*45
$GPGSA,A,3,01,02,03,04,05,06,07,08,09,10,11,12,1.4,0.9,1.1*3d
$GPGSV,3,1,12,01,45,045,50,02,45,045,50,03,45,045,50,04,45,045,50*7c
$GPGSV,3,2,12,05,45,045,50,06,45,045,50,07,45,045,50,08,45,045,50*77
$GPGSV,3,3,12,09,45,045,50,10,45,045,50,11,45,045,50,12,45,045,50*71
$GPRMC,121218.99,A,5200.1840,N,422.5487,E,0.0,-1.0,131223,0.0,E,A*10
$GPVTG,-1.0,T,0.0,M,0.0,N,0.0,K*62
$GPGGA,121218.99,5200.1840,N,00422.5487,E,12,12,0.9,2.4,M,0.0,M,0.0,0000*45
$GPGSA,A,3,01,02,03,04,05,06,07,08,09,10,11,12,1.2,1.0,0.7*34
$GPGSV,3,1,12,01,45,045,50,02,45,045,50,03,45,045,50,04,45,045,50*7c
$GPGSV,3,2,12,05,45,045,50,06,45,045,50,07,45,045,50,08,45,045,50*77
$GPGSV,3,3,12,09,45,045,50,10,45,045,50,11,45,045,50,12,45,045,50*71
$GPRMC,121219.99,A,5200.1843,N,422.5490,E,0.0,-1.0,131223,0.0,E,A*14
$GPVTG,-1.0,T,0.0,M,0.0,N,0.0,K*62
$GPGGA,121219.99,5200.1843,N,00422.5490,E,12,12,1.0,2.5,M,0.0,M,0.0,0000*48
$GPGSA,A,3,01,02,03,04,05,06,07,08,09,10,11,12,1.2,1.0,0.7*34
$GPGSV,3,1,12,01,45,045,50,02,45,045,50,03,45,045,50,04,45,045,50*7c
$GPGSV,3,2,12,05,45,045,50,06,45,045,50,07,45,045,50,08,45,045,50*77
$GPGSV,3,3,12,09,45,045,50,10,45,045,50,11,45,045,50,12,45,045,50*71
$GPRMC,121220.99,A,5200.1843,N,422.5490,E,0.0,-1.0,131223,0.0,E,A*1e
$GPVTG,-1.0,T,0.0,M,0.0,N,0.0,K*62
$GPGGA,121220.99,5200.1843,N,00422.5490,E,12,12,1.0,2.5,M,0.0,M,0.0,0000*42
