$GPGSA,A,3,01,02,03,04,05,06,07,08,09,10,11,12,1.2,1.0,0.6*35
$GPGSV,3,1,12,01,45,045,50,02,45,045,50,03,45,045,50,04,45,045,50*7c
$GPGSV,3,2,12,05,45,045,50,06,45,045,50,07,45,045,50,08,45,045,50*77
$GPGSV,3,3,12,09,45,045,50,10,45,045,50,11,45,045,50,12,45,045,50*71
$GPRMC,121352.99,A,5200.1582,N,422.4825,E,0.8,247.3,131223,0.0,E,A*3f
$GPVTG,247.3,T,0.0,M,0.8,N,1.4,K*41
$GPGGA,121352.99,5200.1582,N,00422.4825,E,12,12,1.0,-0.2,M,0.0,M,0.0,0000*6d
$GPGSA,A,3,01,02,03,04,05,06,07,08,09,10,11,12,1.2,1.0,0.6*35
$GPGSV,3,1,12,01,45,045,50,02,45,045,50,03,45,045,50,04,45,045,50*7c
$GPGSV,3,2,12,05,45,045,50,06,45,045,50,07,45,045,50,08,45,045,50*77
$GPGSV,3,3,12,09,45,045,50,10,45,045,50,11,45,045,50,12,45,045,50*71
$GPRMC,121353.99,A,5200.1580,N,422.4823,E,0.1,247.3,131223,0.0,E,A*33
$GPVTG,247.3,T,0.0,M,0.1,N,0.3,K*4e
$GPGGA,121353.99,5200.1580,N,00422.4823,E,12,12,1.0,-0.1,M,0.0,M,0.0,0000*6b
$GPGSA,A,3,01,02,03,04,05,06,07,08,09,10,11,12,1.2,1.0,0.6*35
$GPGSV,3,1,12,01,45,045,50,02,45,045,50,03,45,045,50,04,45,045,50*7c
$GPGSV,3,2,12,05,45,045,50,06,45,045,50,07,45,045,50,08,45,045,50*77
$GPGSV,3,3,12,09,45,045,50,10,45,045,50,11,45,045,50,12,45,045,50*71
$GPRMC,121354.99,A,5200.1580,N,422.4824,E,0.0,247.3,131223,0.0,E,A*32
$GPVTG,247.3,T,0.0,M,0.0,N,0.0,K*4c
$GPGGA,121354.99,5200.1580,N,00422.4824,E,12,12,1.0,-0.1,M,0.0,M,0.0,0000*6b
$GPGSA,A,3,01,02,03,04,05,06,07,08,09,10,11,12,1.2,1.0,0.6*35
$GPGSV,3,1,12,01,45,045,50,02,45,045,50,03,45,045,50,04,45,045,50*7c
$GPGSV,3,2,12,05,45,045,50,06,45,045,50,07,45,045,50,08,45,045,50*77
$GPGSV,3,3,12,09,45,045,50,10,45,045,50,11,45,045,50,12,45,045,50*71
$GPRMC,121355.99,A,5200.1580,N,422.4824,E,0.0,248.4,131223,0.0,E,A*3b
$GPVTG,248.4,T,0.0,M,0.0,N,0.0,K*44
$GPGGA,121355.99,5200.1580,N,00422.4824,E,12,12,1.0,-0.1,M,0.0,M,0.0,0000*6a
$GPGSA,A,3,01,02,03,04,05,06,07,08,09,10,11,12,1.2,1.0,0.6*35
$GPGSV,3,1,12,01,45,045,50,02,45,045,50,03,45,045,50,04,45,045,50*7c
$GPGSV,3,2,12,05,45,045,50,06,45,045,50,07,45,045,50,08,45,045,50*77
$GPGSV,3,3,12,09,45,045,50,10,45,045,50,11,45,045,50,12,45,045,50*71
$GPRMC,121356.99,A,5200.1580,N,422.4824,E,0.0,251.5,131223,0.0,E,A*31
$GPVTG,251.5,T,0.0,M,0.0,N,0.0,K*4d
$GPGGA,121356.99,5200.1580,N,00422.4824,E,12,12,1.0,-0.1,M,0.0,M,0.0,0000*69
$GPGSA,A,3,01,02,03,04,05,06,07,08,09,10,11,12,1.2,1.0,0.6*35
$GPGSV,3,1,12,01,45,045,50,02,45,045,50,03,45,045,50,04,45,045,50*7c
$GPGSV,3,2,12,05,45,045,50,06,45,045,50,07,45,045,50,08,45,045,50*77
$GPGSV,3,3,12,09,45,045,50,10,45,045,50,11,45,045,50,12,45,045,50*71
$GPRMC,121357.99,A,5200.1579,N,422.4827,E,0.0,251.5,131223,0.0,E,A*35
$GPVTG,251.5,T,0.0,M,0.0,N,0.0,K*4d
$GPGGA,121357.99,5200.1579,N,00422.4827,E,12,12,1.0,0.1,M,0.0,M,0.0,0000*40
$GPGSA,A,3,01,02,03,04,05,06,07,08,09,10,11,12,1.2,1.0,0.6*35
$GPGSV,3,1,12,01,45,045,50,02,45,045,50,03,45,045,50,04,45,045,50*7c
$GPGSV,3,2,12,05,45,045,50,06,45,045,50,07,45,045,50,08,45,045,50*77
$GPGSV,3,3,12,09,45,045,50,10,45,045,50,11,45,045,50,12,45,045,50*71
$GPRMC,121358.99,A,5200.1580,N,422.4827,E,0.2,247.3,131223,0.0,E,A*3f
$GPVTG,247.3,T,0.0,M,0.2,N,0.4,K*4a
$GPGGA,121358.99,5200.1580,N,00422.4827,E,12,12,1.0,-0.0,M,0.0,M,0.0,0000*65
$GPGSA,A,3,01,02,03,04,05,06,07,08,09,10,11,12,1.2,1.0,0.6*35
$GPGSV,3,1,12,01,45,045,50,02,45,045,50,03,45,045,50,04,45,045,50*7c
$GPGSV,3,2,12,05,45,045,50,06,45,045,50,07,45,045,50,08,45,045,50*77
$GPGSV,3,3,12,09,45,045,50,10,45,045,50,11,45,045,50,12,45,045,50*71
$GPRMC,121359.99,A,5200.1580,N,422.4830,E,0.2,247.3,131223,0.0,E,A*38
$GPVTG,247.3,T,0.0,M,0.2,N,0.4,K*4a
$GPGGA,121359.99,5200.1580,N,00422.4830,E,12,12,1.0,-0.1,M,0.0,M,0.0,0000*63
$GPGSA,A,3,01,02,03,04,05,06,07,08,09,10,11,12,1.2,1.0,0.6*35
$GPGSV,3,1,12,01,45,045,50,02,45,045,50,03,45,045,50,04,45,045,50*7c
$GPGSV,3,2,12,05,45,045,50,06,45,045,50,07,45,045,50,08,45,045,50*77
$GPGSV,3,3,12,09,45,045,50,10,45,045,50,11,45,045,50,12,45,045,50*71
$GPRMC,121400.99,A,5200.1579,N,422.4833,E,0.1,247.3,131223,0.0,E,A*35
$GPVTG,247.3,T,0.0,M,0.1,N,0.3,K*4e
$GPGGA,121400.99,5200.1579,N,00422.4833,E,12,12,1.0,0.0,M,0.0,M,0.0,0000*41
$GPGSA,A,3,01,02,03,04,05,06,07,08,09,10,11,12,1.2,1.0,0.6*35
$GPGSV,3,1,12,01,45,045,50,02,45,045,50,03,45,045,50,04,45,045,50*7c
$GPGSV,3,2,12,05,45,045,50,06,45,045,50,07,45,045,50,08,45,045,50*77
$GPGSV,3,3,12,09,45,045,50,10,45,045,50,11,45,045,50,12,45,045,50*71
$GPRMC,121401.99,A,5200.1579,N,422.4833,E,0.0,241.9,131223,0.0,E,A*39
$GPVTG,241.9,T,0.0,M,0.0,N,0.0,K*40
$GPGGA,121401.99,5200.1579,N,00422.4833,E,12,12,1.0,0.0,M,0.0,M,0.0,0000*40
$GPGSA,A,3,01,02,03,04,05,06,07,08,09,10,11,12,1.2,1.0,0.6*35
$GPGSV,3,1,12,01,45,045,50,02,45,045,50,03,45,045,50,04,45,045,50*7c
$GPGSV,3,2,12,05,45,045,50,06,45,045,50,07,45,045,50,08,45,045,50*77
$GPGSV,3,3,12,09,45,045,50,10,45,045,50,11,45,045,50,12,45,045,50*71
$GPRMC,121402.99,A,5200.1579,N,422.4833,E,0.0,245.1,131223,0.0,E,A*36
$GPVTG,245.1,T,0.0,M,0.0,N,0.0,K*4c
$GPGGA,121402.99,5200.1579,N,00422.4833,E,12,12,1.0,0.0,M,0.0,M,0.0,0000*43
$GPGSA,A,3,01,02,03,04,05,06,07,08,09,10,11,12,1.2,1.0,0.6*35
$GPGSV,3,1,12,01,45,045,50,02,45,045,50,03,45,045,50,04,45,045,50*7c
$GPGSV,3,2,12,05,45,045,50,06,45,045,50,07,45,045,50,08,45,045,50*77
$GPGSV,3,3,12,09,45,045,50,10,45,045,50,11,45,045,50,12,45,045,50*71
$GPRMC,121403.99,A,5200.1579,N,422.4833,E,0.0,248.4,131223,0.0,E,A*3f
$GPVTG,248.4,T,0.0,M,0.0,N,0.0,K*44
$GPGGA,121403.99,5200.1579,N,00422.4833,E,12,12,1.0,0.0,M,0.0,M,0.0,0000*42
$GPGSA,A,3,01,02,03,04,05,06,07,08,09,10,11,12,1.2,1.0,0.6*35
$GPGSV,3,1,12,01,45,045,50,02,45,045,50,03,45,045,50,04,45,045,50*7c
$GPGSV,3,2,12,05,45,045,50,06,45,045,50,07,45,045,50,08,45,045,50*77
$GPGSV,3,3,12,09,45,045,50,10,45,045,50,11,45,045,50,12,45,045,50*71
$GPRMC,121404.99,A,5200.1579,N,422.4833,E,0.0,247.4,131223,0.0,E,A*37
$GPVTG,247.4,T,0.0,M,0.0,N,0.0,K*4b
$GPGGA,121404.99,5200.1579,N,00422.4833,E,12,12,1.0,0.0,M,0.0,M,0.0,0000*45
$GPGSA,A,3,01,02,03,04,05,06,07,08,09,10,11,12,1.2,1.0,0.6*35
$GPGSV,3,1,12,01,45,045,50,02,45,045,50,03,45,045,50,04,45,045,50*7c
$GPGSV,3,2,12,05,45,045,50,06,45,045,50,07,45,045,50,08,45,045,50*77
$GPGSV,3,3,12,09,45,045,50,10,45,045,50,11,45,045,50,12,45,045,50*71
$GPRMC,121405.99,A,5200.1577,N,422.4842,E,0.1,247.3,131223,0.0,E,A*38
$GPVTG,247.3,T,0.0,M,0.1,N,0.1,K*4c
$GPGGA,121405.99,5200.1577,N,00422.4842,E,12,12,1.0,0.3,M,0.0,M,0.0,0000*4f
$GPGSA,A,3,01,02,03,04,05,06,07,08,09,10,11,12,1.2,1.0,0.6*35
$GPGSV,3,1,12,01,45,045,50,02,45,045,50,03,45,045,50,04,45,045,50*7c
$GPGSV,3,2,12,05,45,045,50,06,45,045,50,07,45,045,50,08,45,045,50*77
$GPGSV,3,3,12,09,45,045,50,10,45,045,50,11,45,045,50,12,45,045,50*71
$GPRMC,121406.99,A,5200.1577,N,422.4842,E,0.0,250.9,131223,0.0,E,A*36
$GPVTG,250.9,T,0.0,M,0.0,N,0.0,K*40
$GPGGA,121406.99,5200.1577,N,00422.4842,E,12,12,1.0,0.3,M,0.0,M,0.0,0000*4c
$GPGSA,A,3,01,02,03,04,05,06,07,08,09,10,11,12,1.2,1.0,0.6*35
$GPGSV,3,1,12,01,45,045,50,02,45,045,50,03,45,045,50,04,45,045,50*7c
$GPGSV,3,2,12,05,45,045,50,06,45,045,50,07,45,045,50,08,45,045,50*77
$GPGSV,3,3,12,09,45,045,50,10,45,045,50,11,45,045,50,12,45,045,50*71
$GPRMC,121407.99,A,5200.1577,N,422.4842,E,0.0,249.9,131223,0.0,E,A*3f
$GPVTG,249.9,T,0.0,M,0.0,N,0.0,K*48
$GPGGA,121407.99,5200.1577,N,00422.4842,E,12,12,1.0,0.3,M,0.0,M,0.0,0000*4d
$GPGSA,A,3,01,02,03,04,05,06,07,08,09,10,11,12,1.2,1.0,0.6*35
$GPGSV,3,1,12,01,45,045,50,02,45,045,50,03,45,045,50,04,45,045,50*7c
$GPGSV,3,2,12,05,45,045,50,06,45,045,50,07,45,045,50,08,45,045,50*77
$GPGSV,3,3,12,09,45,045,50,10,45,045,50,11,45,045,50,12,45,045,50*71
$GPRMC,121408.99,A,5200.1581,N,422.4843,E,0.0,250.9,131223,0.0,E,A*30
$GPVTG,250.9,T,0.0,M,0.0,N,0.0,K*40
$GPGGA,121408.99,5200.1581,N,00422.4843,E,12,12,1.0,0.3,M,0.0,M,0.0,0000*4a
$GPGSA,A,3,01,02,03,04,05,06,07,08,09,10,11,12,1.2,1.0,0.6*35
$GPGSV,3,1,12,01,45,045,50,02,45,045,50,03,45,045,50,04,45,045,50*7c
$GPGSV,3,2,12,05,45,045,50,06,45,045,50,07,45,045,50,08,45,045,50*77
$GPGSV,3,3,12,09,45,045,50,10,45,045,50,11,45,045,50,12,45,045,50*71
$GPRMC,121409.99,A,5200.1581,N,422.4843,E,0.0,250.9,131223,0.0,E,A*31
$GPVTG,250.9,T,0.0,M,0.0,N,0.0,K*40
$GPGGA,121409.99,5200.1581,N,00422.4843,E,12,12,1.0,0.3,M,0.0,M,0.0,0000*4b
$GPGSA,A,3,01,02,03,04,05,06,07,08,09,10,11,12,1.2,1.0,0.6*35
$GPGSV,3,1,12,01,45,045,50,02,45,045,50,03,45,045,50,04,45,045,50*7c
$GPGSV,3,2,12,05,45,045,50,06,45,045,50,07,45,045,50,08,45,045,50*77
$GPGSV,3,3,12,09,45,045,50,10,45,045,50,11,45,045,50,12,45,045,50*71
$GPRMC,121410.99,A,5200.1581,N,422.4843,E,0.0,250.9,131223,0.0,E,A*39
$GPVTG,250.9,T,0.0,M,0.0,N,0.0,K*40
$GPGGA,121410.99,5200.1581,N,00422.4843,E,12,12,1.0,0.3,M,0.0,M,0.0,0000*43
$GPGSA,A,3,01,02,03,04,05,06,07,08,09,10,11,12,1.2,1.0,0.6*35
$GPGSV,3,1,12,01,45,045,50,02,45,045,50,03,45,045,50,04,45,045,50*7c
$GPGSV,3,2,12,05,45,045,50,06,45,045,50,07,45,045,50,08,45,045,50*77
$GPGSV,3,3,12,09,45,045,50,10,45,045,50,11,45,045,50,12,45,045,50*71
$GPRMC,121411.99,A,5200.1581,N,422.4843,E,0.0,248.8,131223,0.0,E,A*30
$GPVTG,248.8,T,0.0,M,0.0,N,0.0,K*48
$GPGGA,121411.99,5200.1581,N,00422.4843,E,12,12,1.0,0.3,M,0.0,M,0.0,0000*42
