$GPGSA,A,3,01,02,03,04,05,06,07,08,09,10,11,12,10.7,10.0,3.8*3d
$GPGSV,3,1,12,01,45,045,50,02,45,045,50,03,45,045,50,04,45,045,50*7c
$GPGSV,3,2,12,05,45,045,50,06,45,045,50,07,45,045,50,08,45,045,50*77
$GPGSV,3,3,12,09,45,045,50,10,45,045,50,11,45,045,50,12,45,045,50*71
$GPRMC,122320.34,A,5200.3682,N,422.2422,E,-1.9,112.8,121223,0.0,E,A*16
$GPVTG,112.8,T,0.0,M,-1.9,N,-3.6,K*49
$GPGGA,122320.34,5200.3682,N,00422.2422,E,12,12,10.0,1.5,M,0.0,M,0.0,0000*7b
$GPGSA,A,3,01,02,03,04,05,06,07,08,09,10,11,12,6.6,6.4,1.5*37
$GPGSV,3,1,12,01,45,045,50,02,45,045,50,03,45,045,50,04,45,045,50*7c
$GPGSV,3,2,12,05,45,045,50,06,45,045,50,07,45,045,50,08,45,045,50*77
$GPGSV,3,3,12,09,45,045,50,10,45,045,50,11,45,045,50,12,45,045,50*71
$GPRMC,122320.47,A,5200.3667,N,422.2346,E,0.4,155.8,121223,0.0,E,A*3e
$GPVTG,155.8,T,0.0,M,0.4,N,0.8,K*4b
$GPGGA,122320.47,5200.3667,N,00422.2346,E,12,12,6.4,0.3,M,0.0,M,0.0,0000*45
$GPGSA,A,3,01,02,03,04,05,06,07,08,09,10,11,12,6.9,6.8,1.5*34
$GPGSV,3,1,12,01,45,045,50,02,45,045,50,03,45,045,50,04,45,045,50*7c
$GPGSV,3,2,12,05,45,045,50,06,45,045,50,07,45,045,50,08,45,045,50*77
$GPGSV,3,3,12,09,45,045,50,10,45,045,50,11,45,045,50,12,45,045,50*71
$GPRMC,122321.47,A,5200.3666,N,422.2347,E,0.4,155.7,121223,0.0,E,A*30
$GPVTG,155.7,T,0.0,M,0.4,N,0.8,K*44
$GPGGA,122321.47,5200.3666,N,00422.2347,E,12,12,6.8,0.3,M,0.0,M,0.0,0000*48
$GPGSA,A,3,01,02,03,04,05,06,07,08,09,10,11,12,7.5,7.4,1.5*34
$GPGSV,3,1,12,01,45,045,50,02,45,045,50,03,45,045,50,04,45,045,50*7c
$GPGSV,3,2,12,05,45,045,50,06,45,045,50,07,45,045,50,08,45,045,50*77
$GPGSV,3,3,12,09,45,045,50,10,45,045,50,11,45,045,50,12,45,045,50*71
$GPRMC,122322.47,A,5200.3665,N,422.2348,E,0.4,155.2,121223,0.0,E,A*3a
$GPVTG,155.2,T,0.0,M,0.4,N,0.8,K*41
$GPGGA,122322.47,5200.3665,N,00422.2348,E,12,12,7.4,0.3,M,0.0,M,0.0,0000*4a
$GPGSA,A,3,01,02,03,04,05,06,07,08,09,10,11,12,8.4,8.2,1.5*33
$GPGSV,3,1,12,01,45,045,50,02,45,045,50,03,45,045,50,04,45,045,50*7c
$GPGSV,3,2,12,05,45,045,50,06,45,045,50,07,45,045,50,08,45,045,50*77
$GPGSV,3,3,12,09,45,045,50,10,45,045,50,11,45,045,50,12,45,045,50*71
$GPRMC,122323.47,A,5200.3664,N,422.2349,E,0.4,154.5,121223,0.0,E,A*3d
$GPVTG,154.5,T,0.0,M,0.4,N,0.8,K*47
$GPGGA,122323.47,5200.3664,N,00422.2349,E,12,12,8.2,0.3,M,0.0,M,0.0,0000*42
$GPGSA,A,3,01,02,03,04,05,06,07,08,09,10,11,12,9.5,9.3,1.5*33
$GPGSV,3,1,12,01,45,045,50,02,45,045,50,03,45,045,50,04,45,045,50*7c
$GPGSV,3,2,12,05,45,045,50,06,45,045,50,07,45,045,50,08,45,045,50*77
$GPGSV,3,3,12,09,45,045,50,10,45,045,50,11,45,045,50,12,45,045,50*71
$GPRMC,122324.47,A,5200.3663,N,422.2351,E,0.4,153.5,121223,0.0,E,A*33
$GPVTG,153.5,T,0.0,M,0.4,N,0.8,K*40
$GPGGA,122324.47,5200.3663,N,00422.2351,E,12,12,9.3,0.3,M,0.0,M,0.0,0000*4b
$GPGSA,A,3,01,02,03,04,05,06,07,08,09,10,11,12,10.0,9.6,2.8*05
$GPGSV,3,1,12,01,45,045,50,02,45,045,50,03,45,045,50,04,45,045,50*7c
$GPGSV,3,2,12,05,45,045,50,06,45,045,50,07,45,045,50,08,45,045,50*77
$GPGSV,3,3,12,09,45,045,50,10,45,045,50,11,45,045,50,12,45,045,50*71
$GPRMC,122343.61,A,5200.3666,N,422.2371,E,-1.9,153.5,121223,0.0,E,A*10
$GPVTG,153.5,T,0.0,M,-1.9,N,-3.6,K*41
$GPGGA,122343.61,5200.3666,N,00422.2371,E,12,12,9.6,4.5,M,0.0,M,0.0,0000*4e
$GPGSA,A,3,01,02,03,04,05,06,07,08,09,10,11,12,7.4,7.0,2.5*32
$GPGSV,3,1,12,01,45,045,50,02,45,045,50,03,45,045,50,04,45,045,50*7c
$GPGSV,3,2,12,05,45,045,50,06,45,045,50,07,45,045,50,08,45,045,50*77
$GPGSV,3,3,12,09,45,045,50,10,45,045,50,11,45,045,50,12,45,045,50*71
$GPRMC,122344.05,A,5200.3710,N,422.2420,E,-1.9,153.5,121223,0.0,E,A*16
$GPVTG,153.5,T,0.0,M,-1.9,N,-3.6,K*41
$GPGGA,122344.05,5200.3710,N,00422.2420,E,12,12,7.0,4.0,M,0.0,M,0.0,0000*45
$GPGSA,A,3,01,02,03,04,05,06,07,08,09,10,11,12,7.4,7.0,2.3*34
$GPGSV,3,1,12,01,45,045,50,02,45,045,50,03,45,045,50,04,45,045,50*7c
$GPGSV,3,2,12,05,45,045,50,06,45,045,50,07,45,045,50,08,45,045,50*77
$GPGSV,3,3,12,09,45,045,50,10,45,045,50,11,45,045,50,12,45,045,50*71
$GPRMC,122354.62,A,5200.3704,N,422.2419,E,-1.9,153.5,121223,0.0,E,A*19
$GPVTG,153.5,T,0.0,M,-1.9,N,-3.6,K*41
$GPGGA,122354.62,5200.3704,N,00422.2419,E,12,12,7.0,3.6,M,0.0,M,0.0,0000*4b
$GPGSA,A,3,01,02,03,04,05,06,07,08,09,10,11,12,7.3,7.0,2.2*32
$GPGSV,3,1,12,01,45,045,50,02,45,045,50,03,45,045,50,04,45,045,50*7c
$GPGSV,3,2,12,05,45,045,50,06,45,045,50,07,45,045,50,08,45,045,50*77
$GPGSV,3,3,12,09,45,045,50,10,45,045,50,11,45,045,50,12,45,045,50*71
$GPRMC,122354.62,A,5200.3699,N,422.2419,E,-1.9,153.5,121223,0.0,E,A*1c
$GPVTG,153.5,T,0.0,M,-1.9,N,-3.6,K*41
$GPGGA,122354.62,5200.3699,N,00422.2419,E,12,12,7.0,3.3,M,0.0,M,0.0,0000*4b
$GPGSA,A,3,01,02,03,04,05,06,07,08,09,10,11,12,7.3,7.0,2.0*30
$GPGSV,3,1,12,01,45,045,50,02,45,045,50,03,45,045,50,04,45,045,50*7c
$GPGSV,3,2,12,05,45,045,50,06,45,045,50,07,45,045,50,08,45,045,50*77
$GPGSV,3,3,12,09,45,045,50,10,45,045,50,11,45,045,50,12,45,045,50*71
$GPRMC,122355.07,A,5200.3687,N,422.2423,E,-1.9,153.5,121223,0.0,E,A*18
$GPVTG,153.5,T,0.0,M,-1.9,N,-3.6,K*41
$GPGGA,122355.07,5200.3687,N,00422.2423,E,12,12,7.0,3.1,M,0.0,M,0.0,0000*4d
$GPGSA,A,3,01,02,03,04,05,06,07,08,09,10,11,12,7.3,7.0,1.9*3a
$GPGSV,3,1,12,01,45,045,50,02,45,045,50,03,45,045,50,04,45,045,50*7c
$GPGSV,3,2,12,05,45,045,50,06,45,045,50,07,45,045,50,08,45,045,50*77
$GPGSV,3,3,12,09,45,045,50,10,45,045,50,11,45,045,50,12,45,045,50*71
$GPRMC,122406.61,A,5200.3685,N,422.2422,E,-1.9,153.5,121223,0.0,E,A*1a
$GPVTG,153.5,T,0.0,M,-1.9,N,-3.6,K*41
$GPGGA,122406.61,5200.3685,N,00422.2422,E,12,12,7.0,2.9,M,0.0,M,0.0,0000*46
$GPGSA,A,3,01,02,03,04,05,06,07,08,09,10,11,12,7.2,7.0,1.8*3a
$GPGSV,3,1,12,01,45,045,50,02,45,045,50,03,45,045,50,04,45,045,50*7c
$GPGSV,3,2,12,05,45,045,50,06,45,045,50,07,45,045,50,08,45,045,50*77
$GPGSV,3,3,12,09,45,045,50,10,45,045,50,11,45,045,50,12,45,045,50*71
$GPRMC,122407.05,A,5200.3670,N,422.2415,E,-1.9,153.5,121223,0.0,E,A*17
$GPVTG,153.5,T,0.0,M,-1.9,N,-3.6,K*41
$GPGGA,122407.05,5200.3670,N,00422.2415,E,12,12,7.0,2.8,M,0.0,M,0.0,0000*4a
$GPGSA,A,3,01,02,03,04,05,06,07,08,09,10,11,12,7.2,7.0,1.8*3a
$GPGSV,3,1,12,01,45,045,50,02,45,045,50,03,45,045,50,04,45,045,50*7c
$GPGSV,3,2,12,05,45,045,50,06,45,045,50,07,45,045,50,08,45,045,50*77
$GPGSV,3,3,12,09,45,045,50,10,45,045,50,11,45,045,50,12,45,045,50*71
$GPRMC,122418.61,A,5200.3671,N,422.2415,E,-1.9,153.5,121223,0.0,E,A*1a
$GPVTG,153.5,T,0.0,M,-1.9,N,-3.6,K*41
$GPGGA,122418.61,5200.3671,N,00422.2415,E,12,12,7.0,2.7,M,0.0,M,0.0,0000*48
$GPGSA,A,3,01,02,03,04,05,06,07,08,09,10,11,12,7.2,7.0,1.7*35
$GPGSV,3,1,12,01,45,045,50,02,45,045,50,03,45,045,50,04,45,045,50*7c
$GPGSV,3,2,12,05,45,045,50,06,45,045,50,07,45,045,50,08,45,045,50*77
$GPGSV,3,3,12,09,45,045,50,10,45,045,50,11,45,045,50,12,45,045,50*71
$GPRMC,122419.06,A,5200.3677,N,422.2417,E,-1.9,153.5,121223,0.0,E,A*1e
$GPVTG,153.5,T,0.0,M,-1.9,N,-3.6,K*41
$GPGGA,122419.06,5200.3677,N,00422.2417,E,12,12,7.0,2.6,M,0.0,M,0.0,0000*4d
$GPGSA,A,3,01,02,03,04,05,06,07,08,09,10,11,12,7.2,7.0,1.6*34
$GPGSV,3,1,12,01,45,045,50,02,45,045,50,03,45,045,50,04,45,045,50*7c
$GPGSV,3,2,12,05,45,045,50,06,45,045,50,07,45,045,50,08,45,045,50*77
$GPGSV,3,3,12,09,45,045,50,10,45,045,50,11,45,045,50,12,45,045,50*71
$GPRMC,122430.61,A,5200.3677,N,422.2417,E,-1.9,153.5,121223,0.0,E,A*14
$GPVTG,153.5,T,0.0,M,-1.9,N,-3.6,K*41
$GPGGA,122430.61,5200.3677,N,00422.2417,E,12,12,7.0,2.5,M,0.0,M,0.0,0000*44
$GPGSA,A,3,01,02,03,04,05,06,07,08,09,10,11,12,7.2,7.0,1.6*34
$GPGSV,3,1,12,01,45,045,50,02,45,045,50,03,45,045,50,04,45,045,50*7c
$GPGSV,3,2,12,05,45,045,50,06,45,045,50,07,45,045,50,08,45,045,50*77
$GPGSV,3,3,12,09,45,045,50,10,45,045,50,11,45,045,50,12,45,045,50*71
$GPRMC,122431.06,A,5200.3686,N,422.2424,E,-1.9,153.5,121223,0.0,E,A*1a
$GPVTG,153.5,T,0.0,M,-1.9,N,-3.6,K*41
$GPGGA,122431.06,5200.3686,N,00422.2424,E,12,12,7.0,2.4,M,0.0,M,0.0,0000*4b
$GPGSA,A,3,01,02,03,04,05,06,07,08,09,10,11,12,7.2,7.0,1.5*37
$GPGSV,3,1,12,01,45,045,50,02,45,045,50,03,45,045,50,04,45,045,50*7c
$GPGSV,3,2,12,05,45,045,50,06,45,045,50,07,45,045,50,08,45,045,50*77
$GPGSV,3,3,12,09,45,045,50,10,45,045,50,11,45,045,50,12,45,045,50*71
$GPRMC,122442.61,A,5200.3684,N,422.2423,E,-1.9,153.5,121223,0.0,E,A*1a
$GPVTG,153.5,T,0.0,M,-1.9,N,-3.6,K*41
$GPGGA,122442.61,5200.3684,N,00422.2423,E,12,12,7.0,2.4,M,0.0,M,0.0,0000*4b
$GPGSA,A,3,01,02,03,04,05,06,07,08,09,10,11,12,7.2,7.0,1.5*37
$GPGSV,3,1,12,01,45,045,50,02,45,045,50,03,45,045,50,04,45,045,50*7c
$GPGSV,3,2,12,05,45,045,50,06,45,045,50,07,45,045,50,08,45,045,50*77
$GPGSV,3,3,12,09,45,045,50,10,45,045,50,11,45,045,50,12,45,045,50*71
$GPRMC,122443.06,A,5200.3689,N,422.2429,E,-1.9,153.5,121223,0.0,E,A*1d
$GPVTG,153.5,T,0.0,M,-1.9,N,-3.6,K*41
$GPGGA,122443.06,5200.3689,N,00422.2429,E,12,12,7.0,2.3,M,0.0,M,0.0,0000*4b
$GPGSA,A,3,01,02,03,04,05,06,07,08,09,10,11,12,7.1,7.0,1.4*35
$GPGSV,3,1,12,01,45,045,50,02,45,045,50,03,45,045,50,04,45,045,50*7c
$GPGSV,3,2,12,05,45,045,50,06,45,045,50,07,45,045,50,08,45,045,50*77
$GPGSV,3,3,12,09,45,045,50,10,45,045,50,11,45,045,50,12,45,045,50*71
$GPRMC,122454.61,A,5200.3687,N,422.2427,E,-1.9,153.5,121223,0.0,E,A*1a
$GPVTG,153.5,T,0.0,M,-1.9,N,-3.6,K*41
$GPGGA,122454.61,5200.3687,N,00422.2427,E,12,12,7.0,2.3,M,0.0,M,0.0,0000*4c
$GPGSA,A,3,01,02,03,04,05,06,07,08,09,10,11,12,7.1,7.0,1.4*35
$GPGSV,3,1,12,01,45,045,50,02,45,045,50,03,45,045,50,04,45,045,50*7c
$GPGSV,3,2,12,05,45,045,50,06,45,045,50,07,45,045,50,08,45,045,50*77
$GPGSV,3,3,12,09,45,045,50,10,45,045,50,11,45,045,50,12,45,045,50*71
$GPRMC,122455.06,A,5200.3676,N,422.2436,E,-1.9,153.5,121223,0.0,E,A*14
$GPVTG,153.5,T,0.0,M,-1.9,N,-3.6,K*41
$GPGGA,122455.06,5200.3676,N,00422.2436,E,12,12,7.0,2.2,M,0.0,M,0.0,0000*43
$GPGSA,A,3,01,02,03,04,05,06,07,08,09,10,11,12,7.1,7.0,1.4*35
$GPGSV,3,1,12,01,45,045,50,02,45,045,50,03,45,045,50,04,45,045,50*7c
$GPGSV,3,2,12,05,45,045,50,06,45,045,50,07,45,045,50,08,45,045,50*77
$GPGSV,3,3,12,09,45,045,50,10,45,045,50,11,45,045,50,12,45,045,50*71
$GPRMC,122506.61,A,5200.3676,N,422.2433,E,-1.9,153.5,121223,0.0,E,A*17
$GPVTG,153.5,T,0.0,M,-1.9,N,-3.6,K*41
$GPGGA,122506.61,5200.3676,N,00422.2433,E,12,12,7.0,2.2,M,0.0,M,0.0,0000*40
$GPGSA,A,3,01,02,03,04,05,06,07,08,09,10,11,12,7.1,7.0,1.3*32
$GPGSV,3,1,12,01,45,045,50,02,45,045,50,03,45,045,50,04,45,045,50*7c
$GPGSV,3,2,12,05,45,045,50,06,45,045,50,07,45,045,50,08,45,045,50*77
$GPGSV,3,3,12,09,45,045,50,10,45,045,50,11,45,045,50,12,45,045,50*71
$GPRMC,122507.07,A,5200.3648,N,422.2437,E,-1.9,153.5,121223,0.0,E,A*1f
$GPVTG,153.5,T,0.0,M,-1.9,N,-3.6,K*41
$GPGGA,122507.07,5200.3648,N,00422.2437,E,12,12,7.0,2.2,M,0.0,M,0.0,0000*48
$GPGSA,A,3,01,02,03,04,05,06,07,08,09,10,11,12,7.1,7.0,1.3*32
$GPGSV,3,1,12,01,45,045,50,02,45,045,50,03,45,045,50,04,45,045,50*7c
$GPGSV,3,2,12,05,45,045,50,06,45,045,50,07,45,045,50,08,45,045,50*77
$GPGSV,3,3,12,09,45,045,50,10,45,045,50,11,45,045,50,12,45,045,50*71
$GPRMC,122518.61,A,5200.3653,N,422.2434,E,-1.9,153.5,121223,0.0,E,A*18
$GPVTG,153.5,T,0.0,M,-1.9,N,-3.6,K*41
$GPGGA,122518.61,5200.3653,N,00422.2434,E,12,12,7.0,2.1,M,0.0,M,0.0,0000*4c
$GPGSA,A,3,01,02,03,04,05,06,07,08,09,10,11,12,7.1,7.0,1.3*32
$GPGSV,3,1,12,01,45,045,50,02,45,045,50,03,45,045,50,04,45,045,50*7c
$GPGSV,3,2,12,05,45,045,50,06,45,045,50,07,45,045,50,08,45,045,50*77
$GPGSV,3,3,12,09,45,045,50,10,45,045,50,11,45,045,50,12,45,045,50*71
$GPRMC,122519.06,A,5200.3657,N,422.2424,E,-1.9,153.5,121223,0.0,E,A*1d
$GPVTG,153.5,T,0.0,M,-1.9,N,-3.6,K*41
$GPGGA,122519.06,5200.3657,N,00422.2424,E,12,12,7.0,2.1,M,0.0,M,0.0,0000*49
$GPGSA,A,3,01,02,03,04,05,06,07,08,09,10,11,12,7.1,7.0,1.2*33
$GPGSV,3,1,12,01,45,045,50,02,45,045,50,03,45,045,50,04,45,045,50*7c
$GPGSV,3,2,12,05,45,045,50,06,45,045,50,07,45,045,50,08,45,045,50*77
$GPGSV,3,3,12,09,45,045,50,10,45,045,50,11,45,045,50,12,45,045,50*71
$GPRMC,122530.62,A,5200.3660,N,422.2423,E,-1.9,153.5,121223,0.0,E,A*17
$GPVTG,153.5,T,0.0,M,-1.9,N,-3.6,K*41
$GPGGA,122530.62,5200.3660,N,00422.2423,E,12,12,7.0,2.1,M,0.0,M,0.0,0000*43
$GPGSA,A,3,01,02,03,04,05,06,07,08,09,10,11,12,7.1,7.0,1.2*33
$GPGSV,3,1,12,01,45,045,50,02,45,045,50,03,45,045,50,04,45,045,50*7c
$GPGSV,3,2,12,05,45,045,50,06,45,045,50,07,45,045,50,08,45,045,50*77
$GPGSV,3,3,12,09,45,045,50,10,45,045,50,11,45,045,50,12,45,045,50*71
$GPRMC,122531.05,A,5200.3672,N,422.2422,E,-1.9,153.5,121223,0.0,E,A*15
$GPVTG,153.5,T,0.0,M,-1.9,N,-3.6,K*41
$GPGGA,122531.05,5200.3672,N,00422.2422,E,12,12,7.0,2.0,M,0.0,M,0.0,0000*40
$GPGSA,A,3,01,02,03,04,05,06,07,08,09,10,11,12,7.1,7.0,1.2*33
$GPGSV,3,1,12,01,45,045,50,02,45,045,50,03,45,045,50,04,45,045,50*7c
$GPGSV,3,2,12,05,45,045,50,06,45,045,50,07,45,045,50,08,45,045,50*77
$GPGSV,3,3,12,09,45,045,50,10,45,045,50,11,45,045,50,12,45,045,50*71
$GPRMC,122542.61,A,5200.3673,N,422.2421,E,-1.9,153.5,121223,0.0,E,A*11
$GPVTG,153.5,T,0.0,M,-1.9,N,-3.6,K*41
$GPGGA,122542.61,5200.3673,N,00422.2421,E,12,12,7.0,2.0,M,0.0,M,0.0,0000*44
$GPGSA,A,3,01,02,03,04,05,06,07,08,09,10,11,12,7.1,7.0,1.2*33
$GPGSV,3,1,12,01,45,045,50,02,45,045,50,03,45,045,50,04,45,045,50*7c
$GPGSV,3,2,12,05,45,045,50,06,45,045,50,07,45,045,50,08,45,045,50*77
$GPGSV,3,3,12,09,45,045,50,10,45,045,50,11,45,045,50,12,45,045,50*71
$GPRMC,122543.06,A,5200.3682,N,422.2438,E,-1.9,153.5,121223,0.0,E,A*17
$GPVTG,153.5,T,0.0,M,-1.9,N,-3.6,K*41
$GPGGA,122543.06,5200.3682,N,00422.2438,E,12,12,7.0,2.0,M,0.0,M,0.0,0000*42
$GPGSA,A,3,01,02,03,04,05,06,07,08,09,10,11,12,7.1,7.0,1.1*30
$GPGSV,3,1,12,01,45,045,50,02,45,045,50,03,45,045,50,04,45,045,50*7c
$GPGSV,3,2,12,05,45,045,50,06,45,045,50,07,45,045,50,08,45,045,50*77
$GPGSV,3,3,12,09,45,045,50,10,45,045,50,11,45,045,50,12,45,045,50*71
$GPRMC,122554.61,A,5200.3681,N,422.2435,E,-1.9,153.5,121223,0.0,E,A*1e
$GPVTG,153.5,T,0.0,M,-1.9,N,-3.6,K*41
$GPGGA,122554.61,5200.3681,N,00422.2435,E,12,12,7.0,2.0,M,0.0,M,0.0,0000*4b
$GPGSA,A,3,01,02,03,04,05,06,07,08,09,10,11,12,7.1,7.0,1.1*30
$GPGSV,3,1,12,01,45,045,50,02,45,045,50,03,45,045,50,04,45,045,50*7c
$GPGSV,3,2,12,05,45,045,50,06,45,045,50,07,45,045,50,08,45,045,50*77
$GPGSV,3,3,12,09,45,045,50,10,45,045,50,11,45,045,50,12,45,045,50*71
$GPRMC,122555.05,A,5200.3654,N,422.2438,E,-1.9,153.5,121223,0.0,E,A*18
$GPVTG,153.5,T,0.0,M,-1.9,N,-3.6,K*41
$GPGGA,122555.05,5200.3654,N,00422.2438,E,12,12,7.0,2.0,M,0.0,M,0.0,0000*4d
$GPGSA,A,3,01,02,03,04,05,06,07,08,09,10,11,12,7.1,7.0,1.1*30
$GPGSV,3,1,12,01,45,045,50,02,45,045,50,03,45,045,50,04,45,045,50*7c
$GPGSV,3,2,12,05,45,045,50,06,45,045,50,07,45,045,50,08,45,045,50*77
$GPGSV,3,3,12,09,45,045,50,10,45,045,50,11,45,045,50,12,45,045,50*71
$GPRMC,122606.61,A,5200.3658,N,422.2434,E,-1.9,153.5,121223,0.0,E,A*1f
$GPVTG,153.5,T,0.0,M,-1.9,N,-3.6,K*41
$GPGGA,122606.61,5200.3658,N,00422.2434,E,12,12,7.0,1.9,M,0.0,M,0.0,0000*40
$GPGSA,A,3,01,02,03,04,05,06,07,08,09,10,11,12,7.1,7.0,1.1*30
$GPGSV,3,1,12,01,45,045,50,02,45,045,50,03,45,045,50,04,45,045,50*7c
$GPGSV,3,2,12,05,45,045,50,06,45,045,50,07,45,045,50,08,45,045,50*77
$GPGSV,3,3,12,09,45,045,50,10,45,045,50,11,45,045,50,12,45,045,50*71
$GPRMC,122607.04,A,5200.3669,N,422.2425,E,-1.9,153.5,121223,0.0,E,A*1f
$GPVTG,153.5,T,0.0,M,-1.9,N,-3.6,K*41
$GPGGA,122607.04,5200.3669,N,00422.2425,E,12,12,7.0,1.9,M,0.0,M,0.0,0000*40
$GPGSA,A,3,01,02,03,04,05,06,07,08,09,10,11,12,7.1,7.0,1.1*30
$GPGSV,3,1,12,01,45,045,50,02,45,045,50,03,45,045,50,04,45,045,50*7c
$GPGSV,3,2,12,05,45,045,50,06,45,045,50,07,45,045,50,08,45,045,50*77
$GPGSV,3,3,12,09,45,045,50,10,45,045,50,11,45,045,50,12,45,045,50*71
$GPRMC,122618.62,A,5200.3670,N,422.2424,E,-1.9,153.5,121223,0.0,E,A*18
$GPVTG,153.5,T,0.0,M,-1.9,N,-3.6,K*41
$GPGGA,122618.62,5200.3670,N,00422.2424,E,12,12,7.0,1.9,M,0.0,M,0.0,0000*47
$GPGSA,A,3,01,02,03,04,05,06,07,08,09,10,11,12,7.1,7.0,1.1*30
$GPGSV,3,1,12,01,45,045,50,02,45,045,50,03,45,045,50,04,45,045,50*7c
$GPGSV,3,2,12,05,45,045,50,06,45,045,50,07,45,045,50,08,45,045,50*77
$GPGSV,3,3,12,09,45,045,50,10,45,045,50,11,45,045,50,12,45,045,50*71
$GPRMC,122619.06,A,5200.3663,N,422.2423,E,-1.9,153.5,121223,0.0,E,A*1e
$GPVTG,153.5,T,0.0,M,-1.9,N,-3.6,K*41
$GPGGA,122619.06,5200.3663,N,00422.2423,E,12,12,7.0,1.9,M,0.0,M,0.0,0000*41
$GPGSA,A,3,01,02,03,04,05,06,07,08,09,10,11,12,7.1,7.0,1.0*31
$GPGSV,3,1,12,01,45,045,50,02,45,045,50,03,45,045,50,04,45,045,50*7c
$GPGSV,3,2,12,05,45,045,50,06,45,045,50,07,45,045,50,08,45,045,50*77
$GPGSV,3,3,12,09,45,045,50,10,45,045,50,11,45,045,50,12,45,045,50*71
$GPRMC,122630.85,A,5200.3665,N,422.2422,E,-1.9,153.5,121223,0.0,E,A*19
$GPVTG,153.5,T,0.0,M,-1.9,N,-3.6,K*41
$GPGGA,122630.85,5200.3665,N,00422.2422,E,12,12,7.0,1.9,M,0.0,M,0.0,0000*46
$GPGSA,A,3,01,02,03,04,05,06,07,08,09,10,11,12,7.1,7.0,1.0*31
$GPGSV,3,1,12,01,45,045,50,02,45,045,50,03,45,045,50,04,45,045,50*7c
$GPGSV,3,2,12,05,45,045,50,06,45,045,50,07,45,045,50,08,45,045,50*77
$GPGSV,3,3,12,09,45,045,50,10,45,045,50,11,45,045,50,12,45,045,50*71
$GPRMC,122631.29,A,5200.3658,N,422.2417,E,-1.9,153.5,121223,0.0,E,A*16
$GPVTG,153.5,T,0.0,M,-1.9,N,-3.6,K*41
$GPGGA,122631.29,5200.3658,N,00422.2417,E,12,12,7.0,1.9,M,0.0,M,0.0,0000*49
$GPGSA,A,3,01,02,03,04,05,06,07,08,09,10,11,12,7.1,7.0,1.0*31
$GPGSV,3,1,12,01,45,045,50,02,45,045,50,03,45,045,50,04,45,045,50*7c
$GPGSV,3,2,12,05,45,045,50,06,45,045,50,07,45,045,50,08,45,045,50*77
$GPGSV,3,3,12,09,45,045,50,10,45,045,50,11,45,045,50,12,45,045,50*71
$GPRMC,122642.84,A,5200.3661,N,422.2418,E,-1.9,153.5,121223,0.0,E,A*10
$GPVTG,153.5,T,0.0,M,-1.9,N,-3.6,K*41
$GPGGA,122642.84,5200.3661,N,00422.2418,E,12,12,7.0,1.9,M,0.0,M,0.0,0000*4f
$GPGSA,A,3,01,02,03,04,05,06,07,08,09,10,11,12,7.1,7.0,1.0*31
$GPGSV,3,1,12,01,45,045,50,02,45,045,50,03,45,045,50,04,45,045,50*7c
$GPGSV,3,2,12,05,45,045,50,06,45,045,50,07,45,045,50,08,45,045,50*77
$GPGSV,3,3,12,09,45,045,50,10,45,045,50,11,45,045,50,12,45,045,50*71
$GPRMC,122643.30,A,5200.3694,N,422.2447,E,-1.9,153.5,121223,0.0,E,A*1e
$GPVTG,153.5,T,0.0,M,-1.9,N,-3.6,K*41
$GPGGA,122643.30,5200.3694,N,00422.2447,E,12,12,7.0,1.9,M,0.0,M,0.0,0000*41
$GPGSA,A,3,01,02,03,04,05,06,07,08,09,10,11,12,7.1,7.0,1.0*31
$GPGSV,3,1,12,01,45,045,50,02,45,045,50,03,45,045,50,04,45,045,50*7c
$GPGSV,3,2,12,05,45,045,50,06,45,045,50,07,45,045,50,08,45,045,50*77
$GPGSV,3,3,12,09,45,045,50,10,45,045,50,11,45,045,50,12,45,045,50*71
$GPRMC,122654.85,A,5200.3690,N,422.2441,E,-1.9,153.5,121223,0.0,E,A*14
$GPVTG,153.5,T,0.0,M,-1.9,N,-3.6,K*41
$GPGGA,122654.85,5200.3690,N,00422.2441,E,12,12,7.0,1.8,M,0.0,M,0.0,0000*4a
$GPGSA,A,3,01,02,03,04,05,06,07,08,09,10,11,12,7.1,7.0,1.0*31
$GPGSV,3,1,12,01,45,045,50,02,45,045,50,03,45,045,50,04,45,045,50*7c
$GPGSV,3,2,12,05,45,045,50,06,45,045,50,07,45,045,50,08,45,045,50*77
$GPGSV,3,3,12,09,45,045,50,10,45,045,50,11,45,045,50,12,45,045,50*71
$GPRMC,122655.30,A,5200.3679,N,422.2432,E,-1.9,153.5,121223,0.0,E,A*18
$GPVTG,153.5,T,0.0,M,-1.9,N,-3.6,K*41
$GPGGA,122655.30,5200.3679,N,00422.2432,E,12,12,7.0,1.8,M,0.0,M,0.0,0000*46
$GPGSA,A,3,01,02,03,04,05,06,07,08,09,10,11,12,7.1,7.0,1.0*31
$GPGSV,3,1,12,01,45,045,50,02,45,045,50,03,45,045,50,04,45,045,50*7c
$GPGSV,3,2,12,05,45,045,50,06,45,045,50,07,45,045,50,08,45,045,50*77
$GPGSV,3,3,12,09,45,045,50,10,45,045,50,11,45,045,50,12,45,045,50*71
$GPRMC,122706.84,A,5200.3678,N,422.2430,E,-1.9,153.5,121223,0.0,E,A*13
$GPVTG,153.5,T,0.0,M,-1.9,N,-3.6,K*41
$GPGGA,122706.84,5200.3678,N,00422.2430,E,12,12,7.0,1.8,M,0.0,M,0.0,0000*4d
$GPGSA,A,3,01,02,03,04,05,06,07,08,09,10,11,12,7.1,7.0,0.9*39
$GPGSV,3,1,12,01,45,045,50,02,45,045,50,03,45,045,50,04,45,045,50*7c
$GPGSV,3,2,12,05,45,045,50,06,45,045,50,07,45,045,50,08,45,045,50*77
$GPGSV,3,3,12,09,45,045,50,10,45,045,50,11,45,045,50,12,45,045,50*71
$GPRMC,122707.30,A,5200.3651,N,422.2423,E,-1.9,153.5,121223,0.0,E,A*14
$GPVTG,153.5,T,0.0,M,-1.9,N,-3.6,K*41
$GPGGA,122707.30,5200.3651,N,00422.2423,E,12,12,7.0,1.8,M,0.0,M,0.0,0000*4a
$GPGSA,A,3,01,02,03,04,05,06,07,08,09,10,11,12,7.1,7.0,0.9*39
$GPGSV,3,1,12,01,45,045,50,02,45,045,50,03,45,045,50,04,45,045,50*7c
$GPGSV,3,2,12,05,45,045,50,06,45,045,50,07,45,045,50,08,45,045,50*77
$GPGSV,3,3,12,09,45,045,50,10,45,045,50,11,45,045,50,12,45,045,50*71
$GPRMC,122718.85,A,5200.3656,N,422.2422,E,-1.9,153.5,121223,0.0,E,A*12
$GPVTG,153.5,T,0.0,M,-1.9,N,-3.6,K*41
$GPGGA,122718.85,5200.3656,N,00422.2422,E,12,12,7.0,1.8,M,0.0,M,0.0,0000*4c
$GPGSA,A,3,01,02,03,04,05,06,07,08,09,10,11,12,7.1,7.0,0.9*39
$GPGSV,3,1,12,01,45,045,50,02,45,045,50,03,45,045,50,04,45,045,50*7c
$GPGSV,3,2,12,05,45,045,50,06,45,045,50,07,45,045,50,08,45,045,50*77
$GPGSV,3,3,12,09,45,045,50,10,45,045,50,11,45,045,50,12,45,045,50*71
$GPRMC,122719.33,A,5200.3675,N,422.2427,E,-1.9,153.5,121223,0.0,E,A*1a
$GPVTG,153.5,T,0.0,M,-1.9,N,-3.6,K*41
$GPGGA,122719.33,5200.3675,N,00422.2427,E,12,12,7.0,1.8,M,0.0,M,0.0,0000*44
$GPGSA,A,3,01,02,03,04,05,06,07,08,09,10,11,12,7.1,7.0,0.9*39
$GPGSV,3,1,12,01,45,045,50,02,45,045,50,03,45,045,50,04,45,045,50*7c
$GPGSV,3,2,12,05,45,045,50,06,45,045,50,07,45,045,50,08,45,045,50*77
$GPGSV,3,3,12,09,45,045,50,10,45,045,50,11,45,045,50,12,45,045,50*71
$GPRMC,122730.84,A,5200.3675,N,422.2426,E,-1.9,153.5,121223,0.0,E,A*1c
$GPVTG,153.5,T,0.0,M,-1.9,N,-3.6,K*41
$GPGGA,122730.84,5200.3675,N,00422.2426,E,12,12,7.0,1.8,M,0.0,M,0.0,0000*42
$GPGSA,A,3,01,02,03,04,05,06,07,08,09,10,11,12,7.1,7.0,0.9*39
$GPGSV,3,1,12,01,45,045,50,02,45,045,50,03,45,045,50,04,45,045,50*7c
$GPGSV,3,2,12,05,45,045,50,06,45,045,50,07,45,045,50,08,45,045,50*77
$GPGSV,3,3,12,09,45,045,50,10,45,045,50,11,45,045,50,12,45,045,50*71
$GPRMC,122731.31,A,5200.3695,N,422.2427,E,-1.9,153.5,121223,0.0,E,A*1c
$GPVTG,153.5,T,0.0,M,-1.9,N,-3.6,K*41
$GPGGA,122731.31,5200.3695,N,00422.2427,E,12,12,7.0,1.8,M,0.0,M,0.0,0000*42
$GPGSA,A,3,01,02,03,04,05,06,07,08,09,10,11,12,7.1,7.0,0.9*39
$GPGSV,3,1,12,01,45,045,50,02,45,045,50,03,45,045,50,04,45,045,50*7c
$GPGSV,3,2,12,05,45,045,50,06,45,045,50,07,45,045,50,08,45,045,50*77
$GPGSV,3,3,12,09,45,045,50,10,45,045,50,11,45,045,50,12,45,045,50*71
$GPRMC,122742.84,A,5200.3691,N,422.2426,E,-1.9,153.5,121223,0.0,E,A*13
$GPVTG,153.5,T,0.0,M,-1.9,N,-3.6,K*41
$GPGGA,122742.84,5200.3691,N,00422.2426,E,12,12,7.0,1.8,M,0.0,M,0.0,0000*4d
$GPGSA,A,3,01,02,03,04,05,06,07,08,09,10,11,12,7.1,7.0,0.9*39
$GPGSV,3,1,12,01,45,045,50,02,45,045,50,03,45,045,50,04,45,045,50*7c
$GPGSV,3,2,12,05,45,045,50,06,45,045,50,07,45,045,50,08,45,045,50*77
$GPGSV,3,3,12,09,45,045,50,10,45,045,50,11,45,045,50,12,45,045,50*71
$GPRMC,122743.31,A,5200.3678,N,422.2432,E,-1.9,153.5,121223,0.0,E,A*1e
$GPVTG,153.5,T,0.0,M,-1.9,N,-3.6,K*41
$GPGGA,122743.31,5200.3678,N,00422.2432,E,12,12,7.0,1.8,M,0.0,M,0.0,0000*40
$GPGSA,A,3,01,02,03,04,05,06,07,08,09,10,11,12,7.1,7.0,0.9*39
$GPGSV,3,1,12,01,45,045,50,02,45,045,50,03,45,045,50,04,45,045,50*7c
$GPGSV,3,2,12,05,45,045,50,06,45,045,50,07,45,045,50,08,45,045,50*77
$GPGSV,3,3,12,09,45,045,50,10,45,045,50,11,45,045,50,12,45,045,50*71
$GPRMC,122754.85,A,5200.3678,N,422.2429,E,-1.9,153.5,121223,0.0,E,A*1d
$GPVTG,153.5,T,0.0,M,-1.9,N,-3.6,K*41
$GPGGA,122754.85,5200.3678,N,00422.2429,E,12,12,7.0,1.8,M,0.0,M,0.0,0000*43
$GPGSA,A,3,01,02,03,04,05,06,07,08,09,10,11,12,7.1,7.0,0.9*39
$GPGSV,3,1,12,01,45,045,50,02,45,045,50,03,45,045,50,04,45,045,50*7c
$GPGSV,3,2,12,05,45,045,50,06,45,045,50,07,45,045,50,08,45,045,50*77
$GPGSV,3,3,12,09,45,045,50,10,45,045,50,11,45,045,50,12,45,045,50*71
$GPRMC,122755.30,A,5200.3678,N,422.2427,E,-1.9,153.5,121223,0.0,E,A*1c
$GPVTG,153.5,T,0.0,M,-1.9,N,-3.6,K*41
$GPGGA,122755.30,5200.3678,N,00422.2427,E,12,12,7.0,1.8,M,0.0,M,0.0,0000*42
$GPGSA,A,3,01,02,03,04,05,06,07,08,09,10,11,12,7.1,7.0,0.9*39
$GPGSV,3,1,12,01,45,045,50,02,45,045,50,03,45,045,50,04,45,045,50*7c
$GPGSV,3,2,12,05,45,045,50,06,45,045,50,07,45,045,50,08,45,045,50*77
$GPGSV,3,3,12,09,45,045,50,10,45,045,50,11,45,045,50,12,45,045,50*71
$GPRMC,122806.85,A,5200.3677,N,422.2426,E,-1.9,153.5,121223,0.0,E,A*15
$GPVTG,153.5,T,0.0,M,-1.9,N,-3.6,K*41
$GPGGA,122806.85,5200.3677,N,00422.2426,E,12,12,7.0,1.8,M,0.0,M,0.0,0000*4b
$GPGSA,A,3,01,02,03,04,05,06,07,08,09,10,11,12,7.1,7.0,0.8*38
$GPGSV,3,1,12,01,45,045,50,02,45,045,50,03,45,045,50,04,45,045,50*7c
$GPGSV,3,2,12,05,45,045,50,06,45,045,50,07,45,045,50,08,45,045,50*77
$GPGSV,3,3,12,09,45,045,50,10,45,045,50,11,45,045,50,12,45,045,50*71
$GPRMC,122807.31,A,5200.3655,N,422.2429,E,-1.9,153.5,121223,0.0,E,A*14
$GPVTG,153.5,T,0.0,M,-1.9,N,-3.6,K*41
$GPGGA,122807.31,5200.3655,N,00422.2429,E,12,12,7.0,1.7,M,0.0,M,0.0,0000*45
$GPGSA,A,3,01,02,03,04,05,06,07,08,09,10,11,12,7.0,7.0,0.8*39
$GPGSV,3,1,12,01,45,045,50,02,45,045,50,03,45,045,50,04,45,045,50*7c
$GPGSV,3,2,12,05,45,045,50,06,45,045,50,07,45,045,50,08,45,045,50*77
$GPGSV,3,3,12,09,45,045,50,10,45,045,50,11,45,045,50,12,45,045,50*71
$GPRMC,122818.85,A,5200.3658,N,422.2427,E,-1.9,153.5,121223,0.0,E,A*16
$GPVTG,153.5,T,0.0,M,-1.9,N,-3.6,K*41
$GPGGA,122818.85,5200.3658,N,00422.2427,E,12,12,7.0,1.7,M,0.0,M,0.0,0000*47
$GPGSA,A,3,01,02,03,04,05,06,07,08,09,10,11,12,7.0,7.0,0.8*39
$GPGSV,3,1,12,01,45,045,50,02,45,045,50,03,45,045,50,04,45,045,50*7c
$GPGSV,3,2,12,05,45,045,50,06,45,045,50,07,45,045,50,08,45,045,50*77
$GPGSV,3,3,12,09,45,045,50,10,45,045,50,11,45,045,50,12,45,045,50*71
$GPRMC,122819.29,A,5200.3658,N,422.2422,E,-1.9,153.5,121223,0.0,E,A*14
$GPVTG,153.5,T,0.0,M,-1.9,N,-3.6,K*41
$GPGGA,122819.29,5200.3658,N,00422.2422,E,12,12,7.0,1.7,M,0.0,M,0.0,0000*45
$GPGSA,A,3,01,02,03,04,05,06,07,08,09,10,11,12,7.0,7.0,0.8*39
$GPGSV,3,1,12,01,45,045,50,02,45,045,50,03,45,045,50,04,45,045,50*7c
$GPGSV,3,2,12,05,45,045,50,06,45,045,50,07,45,045,50,08,45,045,50*77
$GPGSV,3,3,12,09,45,045,50,10,45,045,50,11,45,045,50,12,45,045,50*71
$GPRMC,122830.85,A,5200.3662,N,422.2422,E,-1.9,153.5,121223,0.0,E,A*10
$GPVTG,153.5,T,0.0,M,-1.9,N,-3.6,K*41
$GPGGA,122830.85,5200.3662,N,00422.2422,E,12,12,7.0,1.7,M,0.0,M,0.0,0000*41
$GPGSA,A,3,01,02,03,04,05,06,07,08,09,10,11,12,7.0,7.0,0.8*39
$GPGSV,3,1,12,01,45,045,50,02,45,045,50,03,45,045,50,04,45,045,50*7c
$GPGSV,3,2,12,05,45,045,50,06,45,045,50,07,45,045,50,08,45,045,50*77
$GPGSV,3,3,12,09,45,045,50,10,45,045,50,11,45,045,50,12,45,045,50*71
$GPRMC,122831.30,A,5200.3674,N,422.2430,E,-1.9,153.5,121223,0.0,E,A*1b
$GPVTG,153.5,T,0.0,M,-1.9,N,-3.6,K*41
$GPGGA,122831.30,5200.3674,N,00422.2430,E,12,12,7.0,1.7,M,0.0,M,0.0,0000*4a
$GPGSA,A,3,01,02,03,04,05,06,07,08,09,10,11,12,7.0,7.0,0.8*39
$GPGSV,3,1,12,01,45,045,50,02,45,045,50,03,45,045,50,04,45,045,50*7c
$GPGSV,3,2,12,05,45,045,50,06,45,045,50,07,45,045,50,08,45,045,50*77
$GPGSV,3,3,12,09,45,045,50,10,45,045,50,11,45,045,50,12,45,045,50*71
$GPRMC,122842.85,A,5200.3674,N,422.2428,E,-1.9,153.5,121223,0.0,E,A*18
$GPVTG,153.5,T,0.0,M,-1.9,N,-3.6,K*41
$GPGGA,122842.85,5200.3674,N,00422.2428,E,12,12,7.0,1.7,M,0.0,M,0.0,0000*49
$GPGSA,A,3,01,02,03,04,05,06,07,08,09,10,11,12,7.0,7.0,0.8*39
$GPGSV,3,1,12,01,45,045,50,02,45,045,50,03,45,045,50,04,45,045,50*7c
$GPGSV,3,2,12,05,45,045,50,06,45,045,50,07,45,045,50,08,45,045,50*77
$GPGSV,3,3,12,09,45,045,50,10,45,045,50,11,45,045,50,12,45,045,50*71
$GPRMC,122843.31,A,5200.3686,N,422.2429,E,-1.9,153.5,121223,0.0,E,A*1a
$GPVTG,153.5,T,0.0,M,-1.9,N,-3.6,K*41
$GPGGA,122843.31,5200.3686,N,00422.2429,E,12,12,7.0,1.7,M,0.0,M,0.0,0000*4b
$GPGSA,A,3,01,02,03,04,05,06,07,08,09,10,11,12,7.0,7.0,0.8*39
$GPGSV,3,1,12,01,45,045,50,02,45,045,50,03,45,045,50,04,45,045,50*7c
$GPGSV,3,2,12,05,45,045,50,06,45,045,50,07,45,045,50,08,45,045,50*77
$GPGSV,3,3,12,09,45,045,50,10,45,045,50,11,45,045,50,12,45,045,50*71
$GPRMC,122854.84,A,5200.3684,N,422.2428,E,-1.9,153.5,121223,0.0,E,A*11
$GPVTG,153.5,T,0.0,M,-1.9,N,-3.6,K*41
$GPGGA,122854.84,5200.3684,N,00422.2428,E,12,12,7.0,1.7,M,0.0,M,0.0,0000*40
$GPGSA,A,3,01,02,03,04,05,06,07,08,09,10,11,12,7.0,7.0,0.8*39
$GPGSV,3,1,12,01,45,045,50,02,45,045,50,03,45,045,50,04,45,045,50*7c
$GPGSV,3,2,12,05,45,045,50,06,45,045,50,07,45,045,50,08,45,045,50*77
$GPGSV,3,3,12,09,45,045,50,10,45,045,50,11,45,045,50,12,45,045,50*71
$GPRMC,122855.31,A,5200.3682,N,422.2431,E,-1.9,153.5,121223,0.0,E,A*10
$GPVTG,153.5,T,0.0,M,-1.9,N,-3.6,K*41
$GPGGA,122855.31,5200.3682,N,00422.2431,E,12,12,7.0,1.7,M,0.0,M,0.0,0000*41
$GPGSA,A,3,01,02,03,04,05,06,07,08,09,10,11,12,7.0,7.0,0.8*39
$GPGSV,3,1,12,01,45,045,50,02,45,045,50,03,45,045,50,04,45,045,50*7c
$GPGSV,3,2,12,05,45,045,50,06,45,045,50,07,45,045,50,08,45,045,50*77
$GPGSV,3,3,12,09,45,045,50,10,45,045,50,11,45,045,50,12,45,045,50*71
$GPRMC,122906.85,A,5200.3681,N,422.2429,E,-1.9,153.5,121223,0.0,E,A*12
$GPVTG,153.5,T,0.0,M,-1.9,N,-3.6,K*41
$GPGGA,122906.85,5200.3681,N,00422.2429,E,12,12,7.0,1.7,M,0.0,M,0.0,0000*43
$GPGSA,A,3,01,02,03,04,05,06,07,08,09,10,11,12,7.0,7.0,0.8*39
$GPGSV,3,1,12,01,45,045,50,02,45,045,50,03,45,045,50,04,45,045,50*7c
$GPGSV,3,2,12,05,45,045,50,06,45,045,50,07,45,045,50,08,45,045,50*77
$GPGSV,3,3,12,09,45,045,50,10,45,045,50,11,45,045,50,12,45,045,50*71
$GPRMC,122907.32,A,5200.3674,N,422.2450,E,-1.9,153.5,121223,0.0,E,A*1b
$GPVTG,153.5,T,0.0,M,-1.9,N,-3.6,K*41
$GPGGA,122907.32,5200.3674,N,00422.2450,E,12,12,7.0,1.7,M,0.0,M,0.0,0000*4a
$GPGSA,A,3,01,02,03,04,05,06,07,08,09,10,11,12,7.0,7.0,0.8*39
$GPGSV,3,1,12,01,45,045,50,02,45,045,50,03,45,045,50,04,45,045,50*7c
$GPGSV,3,2,12,05,45,045,50,06,45,045,50,07,45,045,50,08,45,045,50*77
$GPGSV,3,3,12,09,45,045,50,10,45,045,50,11,45,045,50,12,45,045,50*71
$GPRMC,122918.85,A,5200.3674,N,422.2444,E,-1.9,153.5,121223,0.0,E,A*1c
$GPVTG,153.5,T,0.0,M,-1.9,N,-3.6,K*41
$GPGGA,122918.85,5200.3674,N,00422.2444,E,12,12,7.0,1.7,M,0.0,M,0.0,0000*4d
$GPGSA,A,3,01,02,03,04,05,06,07,08,09,10,11,12,7.0,7.0,0.8*39
$GPGSV,3,1,12,01,45,045,50,02,45,045,50,03,45,045,50,04,45,045,50*7c
$GPGSV,3,2,12,05,45,045,50,06,45,045,50,07,45,045,50,08,45,045,50*77
$GPGSV,3,3,12,09,45,045,50,10,45,045,50,11,45,045,50,12,45,045,50*71
$GPRMC,122919.31,A,5200.3692,N,422.2432,E,-1.9,153.5,121223,0.0,E,A*1b
$GPVTG,153.5,T,0.0,M,-1.9,N,-3.6,K*41
$GPGGA,122919.31,5200.3692,N,00422.2432,E,12,12,7.0,1.7,M,0.0,M,0.0,0000*4a
$GPGSA,A,3,01,02,03,04,05,06,07,08,09,10,11,12,7.0,7.0,0.8*39
$GPGSV,3,1,12,01,45,045,50,02,45,045,50,03,45,045,50,04,45,045,50*7c
$GPGSV,3,2,12,05,45,045,50,06,45,045,50,07,45,045,50,08,45,045,50*77
$GPGSV,3,3,12,09,45,045,50,10,45,045,50,11,45,045,50,12,45,045,50*71
$GPRMC,122931.07,A,5200.3689,N,422.2429,E,-1.9,153.5,121223,0.0,E,A*14
$GPVTG,153.5,T,0.0,M,-1.9,N,-3.6,K*41
$GPGGA,122931.07,5200.3689,N,00422.2429,E,12,12,7.0,1.7,M,0.0,M,0.0,0000*45
$GPGSA,A,3,01,02,03,04,05,06,07,08,09,10,11,12,7.0,7.0,0.7*36
$GPGSV,3,1,12,01,45,045,50,02,45,045,50,03,45,045,50,04,45,045,50*7c
$GPGSV,3,2,12,05,45,045,50,06,45,045,50,07,45,045,50,08,45,045,50*77
$GPGSV,3,3,12,09,45,045,50,10,45,045,50,11,45,045,50,12,45,045,50*71
$GPRMC,122931.52,A,5200.3663,N,422.2425,E,-1.9,153.5,121223,0.0,E,A*1c
$GPVTG,153.5,T,0.0,M,-1.9,N,-3.6,K*41
$GPGGA,122931.52,5200.3663,N,00422.2425,E,12,12,7.0,1.7,M,0.0,M,0.0,0000*4d
$GPGSA,A,3,01,02,03,04,05,06,07,08,09,10,11,12,7.0,7.0,0.7*36
$GPGSV,3,1,12,01,45,045,50,02,45,045,50,03,45,045,50,04,45,045,50*7c
$GPGSV,3,2,12,05,45,045,50,06,45,045,50,07,45,045,50,08,45,045,50*77
$GPGSV,3,3,12,09,45,045,50,10,45,045,50,11,45,045,50,12,45,045,50*71
$GPRMC,122943.07,A,5200.3665,N,422.2424,E,-1.9,153.5,121223,0.0,E,A*1e
$GPVTG,153.5,T,0.0,M,-1.9,N,-3.6,K*41
$GPGGA,122943.07,5200.3665,N,00422.2424,E,12,12,7.0,1.7,M,0.0,M,0.0,0000*4f
$GPGSA,A,3,01,02,03,04,05,06,07,08,09,10,11,12,7.0,7.0,0.7*36
$GPGSV,3,1,12,01,45,045,50,02,45,045,50,03,45,045,50,04,45,045,50*7c
$GPGSV,3,2,12,05,45,045,50,06,45,045,50,07,45,045,50,08,45,045,50*77
$GPGSV,3,3,12,09,45,045,50,10,45,045,50,11,45,045,50,12,45,045,50*71
$GPRMC,122943.52,A,5200.3660,N,422.2425,E,-1.9,153.5,121223,0.0,E,A*1a
$GPVTG,153.5,T,0.0,M,-1.9,N,-3.6,K*41
$GPGGA,122943.52,5200.3660,N,00422.2425,E,12,12,7.0,1.7,M,0.0,M,0.0,0000*4b
$GPGSA,A,3,01,02,03,04,05,06,07,08,09,10,11,12,7.0,7.0,0.7*36
$GPGSV,3,1,12,01,45,045,50,02,45,045,50,03,45,045,50,04,45,045,50*7c
$GPGSV,3,2,12,05,45,045,50,06,45,045,50,07,45,045,50,08,45,045,50*77
$GPGSV,3,3,12,09,45,045,50,10,45,045,50,11,45,045,50,12,45,045,50*71
$GPRMC,122955.07,A,5200.3663,N,422.2424,E,-1.9,153.5,121223,0.0,E,A*1f
$GPVTG,153.5,T,0.0,M,-1.9,N,-3.6,K*41
$GPGGA,122955.07,5200.3663,N,00422.2424,E,12,12,7.0,1.7,M,0.0,M,0.0,0000*4e
$GPGSA,A,3,01,02,03,04,05,06,07,08,09,10,11,12,7.0,7.0,0.7*36
$GPGSV,3,1,12,01,45,045,50,02,45,045,50,03,45,045,50,04,45,045,50*7c
$GPGSV,3,2,12,05,45,045,50,06,45,045,50,07,45,045,50,08,45,045,50*77
$GPGSV,3,3,12,09,45,045,50,10,45,045,50,11,45,045,50,12,45,045,50*71
$GPRMC,122955.52,A,5200.3669,N,422.2400,E,-1.9,153.5,121223,0.0,E,A*13
$GPVTG,153.5,T,0.0,M,-1.9,N,-3.6,K*41
$GPGGA,122955.52,5200.3669,N,00422.2400,E,12,12,7.0,1.7,M,0.0,M,0.0,0000*42
$GPGSA,A,3,01,02,03,04,05,06,07,08,09,10,11,12,7.0,7.0,0.7*36
$GPGSV,3,1,12,01,45,045,50,02,45,045,50,03,45,045,50,04,45,045,50*7c
$GPGSV,3,2,12,05,45,045,50,06,45,045,50,07,45,045,50,08,45,045,50*77
$GPGSV,3,3,12,09,45,045,50,10,45,045,50,11,45,045,50,12,45,045,50*71
$GPRMC,123007.07,A,5200.3671,N,422.2404,E,-1.9,153.5,121223,0.0,E,A*11
$GPVTG,153.5,T,0.0,M,-1.9,N,-3.6,K*41
$GPGGA,123007.07,5200.3671,N,00422.2404,E,12,12,7.0,1.7,M,0.0,M,0.0,0000*40
$GPGSA,A,3,01,02,03,04,05,06,07,08,09,10,11,12,7.0,7.0,0.7*36
$GPGSV,3,1,12,01,45,045,50,02,45,045,50,03,45,045,50,04,45,045,50*7c
$GPGSV,3,2,12,05,45,045,50,06,45,045,50,07,45,045,50,08,45,045,50*77
$GPGSV,3,3,12,09,45,045,50,10,45,045,50,11,45,045,50,12,45,045,50*71
$GPRMC,123007.52,A,5200.3658,N,422.2420,E,-1.9,153.5,121223,0.0,E,A*1c
$GPVTG,153.5,T,0.0,M,-1.9,N,-3.6,K*41
$GPGGA,123007.52,5200.3658,N,00422.2420,E,12,12,7.0,1.7,M,0.0,M,0.0,0000*4d
$GPGSA,A,3,01,02,03,04,05,06,07,08,09,10,11,12,7.0,7.0,0.7*36
$GPGSV,3,1,12,01,45,045,50,02,45,045,50,03,45,045,50,04,45,045,50*7c
$GPGSV,3,2,12,05,45,045,50,06,45,045,50,07,45,045,50,08,45,045,50*77
$GPGSV,3,3,12,09,45,045,50,10,45,045,50,11,45,045,50,12,45,045,50*71
$GPRMC,123019.07,A,5200.3661,N,422.2419,E,-1.9,153.5,121223,0.0,E,A*13
$GPVTG,153.5,T,0.0,M,-1.9,N,-3.6,K*41
$GPGGA,123019.07,5200.3661,N,00422.2419,E,12,12,7.0,1.7,M,0.0,M,0.0,0000*42
$GPGSA,A,3,01,02,03,04,05,06,07,08,09,10,11,12,7.0,7.0,0.7*36
$GPGSV,3,1,12,01,45,045,50,02,45,045,50,03,45,045,50,04,45,045,50*7c
$GPGSV,3,2,12,05,45,045,50,06,45,045,50,07,45,045,50,08,45,045,50*77
$GPGSV,3,3,12,09,45,045,50,10,45,045,50,11,45,045,50,12,45,045,50*71
$GPRMC,123019.52,A,5200.3676,N,422.2425,E,-1.9,153.5,121223,0.0,E,A*1a
$GPVTG,153.5,T,0.0,M,-1.9,N,-3.6,K*41
$GPGGA,123019.52,5200.3676,N,00422.2425,E,12,12,7.0,1.7,M,0.0,M,0.0,0000*4b
$GPGSA,A,3,01,02,03,04,05,06,07,08,09,10,11,12,7.0,7.0,0.7*36
$GPGSV,3,1,12,01,45,045,50,02,45,045,50,03,45,045,50,04,45,045,50*7c
$GPGSV,3,2,12,05,45,045,50,06,45,045,50,07,45,045,50,08,45,045,50*77
$GPGSV,3,3,12,09,45,045,50,10,45,045,50,11,45,045,50,12,45,045,50*71
$GPRMC,123031.07,A,5200.3676,N,422.2424,E,-1.9,153.5,121223,0.0,E,A*11
$GPVTG,153.5,T,0.0,M,-1.9,N,-3.6,K*41
$GPGGA,123031.07,5200.3676,N,00422.2424,E,12,12,7.0,1.7,M,0.0,M,0.0,0000*40
$GPGSA,A,3,01,02,03,04,05,06,07,08,09,10,11,12,7.0,7.0,0.7*36
$GPGSV,3,1,12,01,45,045,50,02,45,045,50,03,45,045,50,04,45,045,50*7c
$GPGSV,3,2,12,05,45,045,50,06,45,045,50,07,45,045,50,08,45,045,50*77
$GPGSV,3,3,12,09,45,045,50,10,45,045,50,11,45,045,50,12,45,045,50*71
$GPRMC,123031.51,A,5200.3673,N,422.2409,E,-1.9,153.5,121223,0.0,E,A*18
$GPVTG,153.5,T,0.0,M,-1.9,N,-3.6,K*41
$GPGGA,123031.51,5200.3673,N,00422.2409,E,12,12,7.0,1.7,M,0.0,M,0.0,0000*49
$GPGSA,A,3,01,02,03,04,05,06,07,08,09,10,11,12,7.0,7.0,0.7*36
$GPGSV,3,1,12,01,45,045,50,02,45,045,50,03,45,045,50,04,45,045,50*7c
$GPGSV,3,2,12,05,45,045,50,06,45,045,50,07,45,045,50,08,45,045,50*77
$GPGSV,3,3,12,09,45,045,50,10,45,045,50,11,45,045,50,12,45,045,50*71
$GPRMC,123043.07,A,5200.3673,N,422.2411,E,-1.9,153.5,121223,0.0,E,A*17
$GPVTG,153.5,T,0.0,M,-1.9,N,-3.6,K*41
$GPGGA,123043.07,5200.3673,N,00422.2411,E,12,12,7.0,1.7,M,0.0,M,0.0,0000*46
$GPGSA,A,3,01,02,03,04,05,06,07,08,09,10,11,12,7.0,7.0,0.7*36
$GPGSV,3,1,12,01,45,045,50,02,45,045,50,03,45,045,50,04,45,045,50*7c
$GPGSV,3,2,12,05,45,045,50,06,45,045,50,07,45,045,50,08,45,045,50*77
$GPGSV,3,3,12,09,45,045,50,10,45,045,50,11,45,045,50,12,45,045,50*71
$GPRMC,123043.51,A,5200.3674,N,422.2422,E,-1.9,153.5,121223,0.0,E,A*13
$GPVTG,153.5,T,0.0,M,-1.9,N,-3.6,K*41
$GPGGA,123043.51,5200.3674,N,00422.2422,E,12,12,7.0,1.7,M,0.0,M,0.0,0000*42
$GPGSA,A,3,01,02,03,04,05,06,07,08,09,10,11,12,7.0,7.0,0.7*36
$GPGSV,3,1,12,01,45,045,50,02,45,045,50,03,45,045,50,04,45,045,50*7c
$GPGSV,3,2,12,05,45,045,50,06,45,045,50,07,45,045,50,08,45,045,50*77
$GPGSV,3,3,12,09,45,045,50,10,45,045,50,11,45,045,50,12,45,045,50*71
$GPRMC,123055.07,A,5200.3675,N,422.2422,E,-1.9,153.5,121223,0.0,E,A*16
$GPVTG,153.5,T,0.0,M,-1.9,N,-3.6,K*41
$GPGGA,123055.07,5200.3675,N,00422.2422,E,12,12,7.0,1.6,M,0.0,M,0.0,0000*46
$GPGSA,A,3,01,02,03,04,05,06,07,08,09,10,11,12,7.0,7.0,0.7*36
$GPGSV,3,1,12,01,45,045,50,02,45,045,50,03,45,045,50,04,45,045,50*7c
$GPGSV,3,2,12,05,45,045,50,06,45,045,50,07,45,045,50,08,45,045,50*77
$GPGSV,3,3,12,09,45,045,50,10,45,045,50,11,45,045,50,12,45,045,50*71
$GPRMC,123055.51,A,5200.3663,N,422.2418,E,-1.9,153.5,121223,0.0,E,A*1b
$GPVTG,153.5,T,0.0,M,-1.9,N,-3.6,K*41
$GPGGA,123055.51,5200.3663,N,00422.2418,E,12,12,7.0,1.6,M,0.0,M,0.0,0000*4b
$GPGSA,A,3,01,02,03,04,05,06,07,08,09,10,11,12,7.0,7.0,0.7*36
$GPGSV,3,1,12,01,45,045,50,02,45,045,50,03,45,045,50,04,45,045,50*7c
$GPGSV,3,2,12,05,45,045,50,06,45,045,50,07,45,045,50,08,45,045,50*77
$GPGSV,3,3,12,09,45,045,50,10,45,045,50,11,45,045,50,12,45,045,50*71
$GPRMC,123107.07,A,5200.3665,N,422.2418,E,-1.9,153.5,121223,0.0,E,A*18
$GPVTG,153.5,T,0.0,M,-1.9,N,-3.6,K*41
$GPGGA,123107.07,5200.3665,N,00422.2418,E,12,12,7.0,1.6,M,0.0,M,0.0,0000*48
$GPGSA,A,3,01,02,03,04,05,06,07,08,09,10,11,12,7.0,7.0,0.7*36
$GPGSV,3,1,12,01,45,045,50,02,45,045,50,03,45,045,50,04,45,045,50*7c
$GPGSV,3,2,12,05,45,045,50,06,45,045,50,07,45,045,50,08,45,045,50*77
$GPGSV,3,3,12,09,45,045,50,10,45,045,50,11,45,045,50,12,45,045,50*71
$GPRMC,123107.51,A,5200.3670,N,422.2425,E,-1.9,153.5,121223,0.0,E,A*11
$GPVTG,153.5,T,0.0,M,-1.9,N,-3.6,K*41
$GPGGA,123107.51,5200.3670,N,00422.2425,E,12,12,7.0,1.6,M,0.0,M,0.0,0000*41
$GPGSA,A,3,01,02,03,04,05,06,07,08,09,10,11,12,7.0,7.0,0.7*36
$GPGSV,3,1,12,01,45,045,50,02,45,045,50,03,45,045,50,04,45,045,50*7c
$GPGSV,3,2,12,05,45,045,50,06,45,045,50,07,45,045,50,08,45,045,50*77
$GPGSV,3,3,12,09,45,045,50,10,45,045,50,11,45,045,50,12,45,045,50*71
$GPRMC,123119.07,A,5200.3671,N,422.2424,E,-1.9,153.5,121223,0.0,E,A*1d
$GPVTG,153.5,T,0.0,M,-1.9,N,-3.6,K*41
$GPGGA,123119.07,5200.3671,N,00422.2424,E,12,12,7.0,1.6,M,0.0,M,0.0,0000*4d
$GPGSA,A,3,01,02,03,04,05,06,07,08,09,10,11,12,7.0,7.0,0.7*36
$GPGSV,3,1,12,01,45,045,50,02,45,045,50,03,45,045,50,04,45,045,50*7c
$GPGSV,3,2,12,05,45,045,50,06,45,045,50,07,45,045,50,08,45,045,50*77
$GPGSV,3,3,12,09,45,045,50,10,45,045,50,11,45,045,50,12,45,045,50*71
$GPRMC,123119.52,A,5200.3673,N,422.2409,E,-1.9,153.5,121223,0.0,E,A*10
$GPVTG,153.5,T,0.0,M,-1.9,N,-3.6,K*41
$GPGGA,123119.52,5200.3673,N,00422.2409,E,12,12,7.0,1.6,M,0.0,M,0.0,0000*40
$GPGSA,A,3,01,02,03,04,05,06,07,08,09,10,11,12,7.0,7.0,0.7*36
$GPGSV,3,1,12,01,45,045,50,02,45,045,50,03,45,045,50,04,45,045,50*7c
$GPGSV,3,2,12,05,45,045,50,06,45,045,50,07,45,045,50,08,45,045,50*77
$GPGSV,3,3,12,09,45,045,50,10,45,045,50,11,45,045,50,12,45,045,50*71
$GPRMC,123131.06,A,5200.3673,N,422.2411,E,-1.9,153.5,121223,0.0,E,A*12
$GPVTG,153.5,T,0.0,M,-1.9,N,-3.6,K*41
$GPGGA,123131.06,5200.3673,N,00422.2411,E,12,12,7.0,1.6,M,0.0,M,0.0,0000*42
$GPGSA,A,3,01,02,03,04,05,06,07,08,09,10,11,12,7.0,7.0,0.7*36
$GPGSV,3,1,12,01,45,045,50,02,45,045,50,03,45,045,50,04,45,045,50*7c
$GPGSV,3,2,12,05,45,045,50,06,45,045,50,07,45,045,50,08,45,045,50*77
$GPGSV,3,3,12,09,45,045,50,10,45,045,50,11,45,045,50,12,45,045,50*71
$GPRMC,123131.51,A,5200.3668,N,422.2432,E,-1.9,153.5,121223,0.0,E,A*1b
$GPVTG,153.5,T,0.0,M,-1.9,N,-3.6,K*41
$GPGGA,123131.51,5200.3668,N,00422.2432,E,12,12,7.0,1.6,M,0.0,M,0.0,0000*4b
$GPGSA,A,3,01,02,03,04,05,06,07,08,09,10,11,12,7.0,7.0,0.6*37
$GPGSV,3,1,12,01,45,045,50,02,45,045,50,03,45,045,50,04,45,045,50*7c
$GPGSV,3,2,12,05,45,045,50,06,45,045,50,07,45,045,50,08,45,045,50*77
$GPGSV,3,3,12,09,45,045,50,10,45,045,50,11,45,045,50,12,45,045,50*71
$GPRMC,123143.06,A,5200.3670,N,422.2430,E,-1.9,153.5,121223,0.0,E,A*17
$GPVTG,153.5,T,0.0,M,-1.9,N,-3.6,K*41
$GPGGA,123143.06,5200.3670,N,00422.2430,E,12,12,7.0,1.6,M,0.0,M,0.0,0000*47
$GPGSA,A,3,01,02,03,04,05,06,07,08,09,10,11,12,7.0,7.0,0.6*37
$GPGSV,3,1,12,01,45,045,50,02,45,045,50,03,45,045,50,04,45,045,50*7c
$GPGSV,3,2,12,05,45,045,50,06,45,045,50,07,45,045,50,08,45,045,50*77
$GPGSV,3,3,12,09,45,045,50,10,45,045,50,11,45,045,50,12,45,045,50*71
$GPRMC,123143.55,A,5200.3665,N,422.2427,E,-1.9,153.5,121223,0.0,E,A*13
$GPVTG,153.5,T,0.0,M,-1.9,N,-3.6,K*41
$GPGGA,123143.55,5200.3665,N,00422.2427,E,12,12,7.0,1.6,M,0.0,M,0.0,0000*43
$GPGSA,A,3,01,02,03,04,05,06,07,08,09,10,11,12,7.0,7.0,0.6*37
$GPGSV,3,1,12,01,45,045,50,02,45,045,50,03,45,045,50,04,45,045,50*7c
$GPGSV,3,2,12,05,45,045,50,06,45,045,50,07,45,045,50,08,45,045,50*77
$GPGSV,3,3,12,09,45,045,50,10,45,045,50,11,45,045,50,12,45,045,50*71
$GPRMC,123155.07,A,5200.3667,N,422.2426,E,-1.9,153.5,121223,0.0,E,A*10
$GPVTG,153.5,T,0.0,M,-1.9,N,-3.6,K*41
$GPGGA,123155.07,5200.3667,N,00422.2426,E,12,12,7.0,1.6,M,0.0,M,0.0,0000*40
$GPGSA,A,3,01,02,03,04,05,06,07,08,09,10,11,12,7.0,7.0,0.6*37
$GPGSV,3,1,12,01,45,045,50,02,45,045,50,03,45,045,50,04,45,045,50*7c
$GPGSV,3,2,12,05,45,045,50,06,45,045,50,07,45,045,50,08,45,045,50*77
$GPGSV,3,3,12,09,45,045,50,10,45,045,50,11,45,045,50,12,45,045,50*71
$GPRMC,123155.52,A,5200.3665,N,422.2416,E,-1.9,153.5,121223,0.0,E,A*11
$GPVTG,153.5,T,0.0,M,-1.9,N,-3.6,K*41
$GPGGA,123155.52,5200.3665,N,00422.2416,E,12,12,7.0,1.6,M,0.0,M,0.0,0000*41
$GPGSA,A,3,01,02,03,04,05,06,07,08,09,10,11,12,7.0,7.0,0.6*37
$GPGSV,3,1,12,01,45,045,50,02,45,045,50,03,45,045,50,04,45,045,50*7c
$GPGSV,3,2,12,05,45,045,50,06,45,045,50,07,45,045,50,08,45,045,50*77
$GPGSV,3,3,12,09,45,045,50,10,45,045,50,11,45,045,50,12,45,045,50*71
$GPRMC,123207.06,A,5200.3667,N,422.2417,E,-1.9,153.5,121223,0.0,E,A*17
$GPVTG,153.5,T,0.0,M,-1.9,N,-3.6,K*41
$GPGGA,123207.06,5200.3667,N,00422.2417,E,12,12,7.0,1.6,M,0.0,M,0.0,0000*47
$GPGSA,A,3,01,02,03,04,05,06,07,08,09,10,11,12,7.0,7.0,0.6*37
$GPGSV,3,1,12,01,45,045,50,02,45,045,50,03,45,045,50,04,45,045,50*7c
$GPGSV,3,2,12,05,45,045,50,06,45,045,50,07,45,045,50,08,45,045,50*77
$GPGSV,3,3,12,09,45,045,50,10,45,045,50,11,45,045,50,12,45,045,50*71
$GPRMC,123207.51,A,5200.3653,N,422.2424,E,-1.9,153.5,121223,0.0,E,A*12
$GPVTG,153.5,T,0.0,M,-1.9,N,-3.6,K*41
$GPGGA,123207.51,5200.3653,N,00422.2424,E,12,12,7.0,1.6,M,0.0,M,0.0,0000*42
$GPGSA,A,3,01,02,03,04,05,06,07,08,09,10,11,12,7.0,7.0,0.6*37
$GPGSV,3,1,12,01,45,045,50,02,45,045,50,03,45,045,50,04,45,045,50*7c
$GPGSV,3,2,12,05,45,045,50,06,45,045,50,07,45,045,50,08,45,045,50*77
$GPGSV,3,3,12,09,45,045,50,10,45,045,50,11,45,045,50,12,45,045,50*71
$GPRMC,123219.06,A,5200.3657,N,422.2423,E,-1.9,153.5,121223,0.0,E,A*1c
$GPVTG,153.5,T,0.0,M,-1.9,N,-3.6,K*41
$GPGGA,123219.06,5200.3657,N,00422.2423,E,12,12,7.0,1.6,M,0.0,M,0.0,0000*4c
$GPGSA,A,3,01,02,03,04,05,06,07,08,09,10,11,12,7.0,7.0,0.6*37
$GPGSV,3,1,12,01,45,045,50,02,45,045,50,03,45,045,50,04,45,045,50*7c
$GPGSV,3,2,12,05,45,045,50,06,45,045,50,07,45,045,50,08,45,045,50*77
$GPGSV,3,3,12,09,45,045,50,10,45,045,50,11,45,045,50,12,45,045,50*71
$GPRMC,123219.52,A,5200.3687,N,422.2431,E,-1.9,153.5,121223,0.0,E,A*13
$GPVTG,153.5,T,0.0,M,-1.9,N,-3.6,K*41
$GPGGA,123219.52,5200.3687,N,00422.2431,E,12,12,7.0,1.6,M,0.0,M,0.0,0000*43
$GPGSA,A,3,01,02,03,04,05,06,07,08,09,10,11,12,7.0,7.0,0.6*37
$GPGSV,3,1,12,01,45,045,50,02,45,045,50,03,45,045,50,04,45,045,50*7c
$GPGSV,3,2,12,05,45,045,50,06,45,045,50,07,45,045,50,08,45,045,50*77
$GPGSV,3,3,12,09,45,045,50,10,45,045,50,11,45,045,50,12,45,045,50*71
$GPRMC,123231.28,A,5200.3685,N,422.2429,E,-1.9,153.5,121223,0.0,E,A*1f
$GPVTG,153.5,T,0.0,M,-1.9,N,-3.6,K*41
$GPGGA,123231.28,5200.3685,N,00422.2429,E,12,12,7.0,1.6,M,0.0,M,0.0,0000*4f
$GPGSA,A,3,01,02,03,04,05,06,07,08,09,10,11,12,7.0,7.0,0.6*37
$GPGSV,3,1,12,01,45,045,50,02,45,045,50,03,45,045,50,04,45,045,50*7c
$GPGSV,3,2,12,05,45,045,50,06,45,045,50,07,45,045,50,08,45,045,50*77
$GPGSV,3,3,12,09,45,045,50,10,45,045,50,11,45,045,50,12,45,045,50*71
$GPRMC,123231.74,A,5200.3676,N,422.2421,E,-1.9,153.5,121223,0.0,E,A*12
$GPVTG,153.5,T,0.0,M,-1.9,N,-3.6,K*41
$GPGGA,123231.74,5200.3676,N,00422.2421,E,12,12,7.0,1.6,M,0.0,M,0.0,0000*42
$GPGSA,A,3,01,02,03,04,05,06,07,08,09,10,11,12,7.0,7.0,0.6*37
$GPGSV,3,1,12,01,45,045,50,02,45,045,50,03,45,045,50,04,45,045,50*7c
$GPGSV,3,2,12,05,45,045,50,06,45,045,50,07,45,045,50,08,45,045,50*77
$GPGSV,3,3,12,09,45,045,50,10,45,045,50,11,45,045,50,12,45,045,50*71
$GPRMC,123243.28,A,5200.3676,N,422.2420,E,-1.9,153.5,121223,0.0,E,A*1f
$GPVTG,153.5,T,0.0,M,-1.9,N,-3.6,K*41
$GPGGA,123243.28,5200.3676,N,00422.2420,E,12,12,7.0,1.6,M,0.0,M,0.0,0000*4f
$GPGSA,A,3,01,02,03,04,05,06,07,08,09,10,11,12,7.0,7.0,0.6*37
$GPGSV,3,1,12,01,45,045,50,02,45,045,50,03,45,045,50,04,45,045,50*7c
$GPGSV,3,2,12,05,45,045,50,06,45,045,50,07,45,045,50,08,45,045,50*77
$GPGSV,3,3,12,09,45,045,50,10,45,045,50,11,45,045,50,12,45,045,50*71
$GPRMC,123243.74,A,5200.3679,N,422.2427,E,-1.9,153.5,121223,0.0,E,A*1e
$GPVTG,153.5,T,0.0,M,-1.9,N,-3.6,K*41
$GPGGA,123243.74,5200.3679,N,00422.2427,E,12,12,7.0,1.6,M,0.0,M,0.0,0000*4e
$GPGSA,A,3,01,02,03,04,05,06,07,08,09,10,11,12,7.0,7.0,0.6*37
$GPGSV,3,1,12,01,45,045,50,02,45,045,50,03,45,045,50,04,45,045,50*7c
$GPGSV,3,2,12,05,45,045,50,06,45,045,50,07,45,045,50,08,45,045,50*77
$GPGSV,3,3,12,09,45,045,50,10,45,045,50,11,45,045,50,12,45,045,50*71
$GPRMC,123255.29,A,5200.3679,N,422.2425,E,-1.9,153.5,121223,0.0,E,A*13
$GPVTG,153.5,T,0.0,M,-1.9,N,-3.6,K*41
$GPGGA,123255.29,5200.3679,N,00422.2425,E,12,12,7.0,1.6,M,0.0,M,0.0,0000*43
$GPGSA,A,3,01,02,03,04,05,06,07,08,09,10,11,12,7.0,7.0,0.6*37
$GPGSV,3,1,12,01,45,045,50,02,45,045,50,03,45,045,50,04,45,045,50*7c
$GPGSV,3,2,12,05,45,045,50,06,45,045,50,07,45,045,50,08,45,045,50*77
$GPGSV,3,3,12,09,45,045,50,10,45,045,50,11,45,045,50,12,45,045,50*71
$GPRMC,123255.75,A,5200.3655,N,422.2422,E,-1.9,153.5,121223,0.0,E,A*13
$GPVTG,153.5,T,0.0,M,-1.9,N,-3.6,K*41
$GPGGA,123255.75,5200.3655,N,00422.2422,E,12,12,7.0,1.6,M,0.0,M,0.0,0000*43
$GPGSA,A,3,01,02,03,04,05,06,07,08,09,10,11,12,7.0,7.0,0.6*37
$GPGSV,3,1,12,01,45,045,50,02,45,045,50,03,45,045,50,04,45,045,50*7c
$GPGSV,3,2,12,05,45,045,50,06,45,045,50,07,45,045,50,08,45,045,50*77
$GPGSV,3,3,12,09,45,045,50,10,45,045,50,11,45,045,50,12,45,045,50*71
$GPRMC,123307.29,A,5200.3659,N,422.2421,E,-1.9,153.5,121223,0.0,E,A*13
$GPVTG,153.5,T,0.0,M,-1.9,N,-3.6,K*41
$GPGGA,123307.29,5200.3659,N,00422.2421,E,12,12,7.0,1.6,M,0.0,M,0.0,0000*43
$GPGSA,A,3,01,02,03,04,05,06,07,08,09,10,11,12,7.0,7.0,0.6*37
$GPGSV,3,1,12,01,45,045,50,02,45,045,50,03,45,045,50,04,45,045,50*7c
$GPGSV,3,2,12,05,45,045,50,06,45,045,50,07,45,045,50,08,45,045,50*77
$GPGSV,3,3,12,09,45,045,50,10,45,045,50,11,45,045,50,12,45,045,50*71
$GPRMC,123307.74,A,5200.3662,N,422.2421,E,-1.9,153.5,121223,0.0,E,A*13
$GPVTG,153.5,T,0.0,M,-1.9,N,-3.6,K*41
$GPGGA,123307.74,5200.3662,N,00422.2421,E,12,12,7.0,1.6,M,0.0,M,0.0,0000*43
$GPGSA,A,3,01,02,03,04,05,06,07,08,09,10,11,12,7.0,7.0,0.6*37
$GPGSV,3,1,12,01,45,045,50,02,45,045,50,03,45,045,50,04,45,045,50*7c
$GPGSV,3,2,12,05,45,045,50,06,45,045,50,07,45,045,50,08,45,045,50*77
$GPGSV,3,3,12,09,45,045,50,10,45,045,50,11,45,045,50,12,45,045,50*71
$GPRMC,123319.29,A,5200.3664,N,422.2421,E,-1.9,153.5,121223,0.0,E,A*12
$GPVTG,153.5,T,0.0,M,-1.9,N,-3.6,K*41
$GPGGA,123319.29,5200.3664,N,00422.2421,E,12,12,7.0,1.6,M,0.0,M,0.0,0000*42
$GPGSA,A,3,01,02,03,04,05,06,07,08,09,10,11,12,7.0,7.0,0.6*37
$GPGSV,3,1,12,01,45,045,50,02,45,045,50,03,45,045,50,04,45,045,50*7c
$GPGSV,3,2,12,05,45,045,50,06,45,045,50,07,45,045,50,08,45,045,50*77
$GPGSV,3,3,12,09,45,045,50,10,45,045,50,11,45,045,50,12,45,045,50*71
$GPRMC,123319.75,A,5200.3660,N,422.2430,E,-1.9,153.5,121223,0.0,E,A*1f
$GPVTG,153.5,T,0.0,M,-1.9,N,-3.6,K*41
$GPGGA,123319.75,5200.3660,N,00422.2430,E,12,12,7.0,1.6,M,0.0,M,0.0,0000*4f
$GPGSA,A,3,01,02,03,04,05,06,07,08,09,10,11,12,7.0,7.0,0.6*37
$GPGSV,3,1,12,01,45,045,50,02,45,045,50,03,45,045,50,04,45,045,50*7c
$GPGSV,3,2,12,05,45,045,50,06,45,045,50,07,45,045,50,08,45,045,50*77
$GPGSV,3,3,12,09,45,045,50,10,45,045,50,11,45,045,50,12,45,045,50*71
$GPRMC,123331.28,A,5200.3663,N,422.2428,E,-1.9,153.5,121223,0.0,E,A*17
$GPVTG,153.5,T,0.0,M,-1.9,N,-3.6,K*41
$GPGGA,123331.28,5200.3663,N,00422.2428,E,12,12,7.0,1.6,M,0.0,M,0.0,0000*47
$GPGSA,A,3,01,02,03,04,05,06,07,08,09,10,11,12,7.0,7.0,0.6*37
$GPGSV,3,1,12,01,45,045,50,02,45,045,50,03,45,045,50,04,45,045,50*7c
$GPGSV,3,2,12,05,45,045,50,06,45,045,50,07,45,045,50,08,45,045,50*77
$GPGSV,3,3,12,09,45,045,50,10,45,045,50,11,45,045,50,12,45,045,50*71
$GPRMC,123331.73,A,5200.3652,N,422.2423,E,-1.9,153.5,121223,0.0,E,A*10
$GPVTG,153.5,T,0.0,M,-1.9,N,-3.6,K*41
$GPGGA,123331.73,5200.3652,N,00422.2423,E,12,12,7.0,1.6,M,0.0,M,0.0,0000*40
$GPGSA,A,3,01,02,03,04,05,06,07,08,09,10,11,12,7.0,7.0,0.6*37
$GPGSV,3,1,12,01,45,045,50,02,45,045,50,03,45,045,50,04,45,045,50*7c
$GPGSV,3,2,12,05,45,045,50,06,45,045,50,07,45,045,50,08,45,045,50*77
$GPGSV,3,3,12,09,45,045,50,10,45,045,50,11,45,045,50,12,45,045,50*71
$GPRMC,123343.28,A,5200.3656,N,422.2423,E,-1.9,153.5,121223,0.0,E,A*1f
$GPVTG,153.5,T,0.0,M,-1.9,N,-3.6,K*41
$GPGGA,123343.28,5200.3656,N,00422.2423,E,12,12,7.0,1.6,M,0.0,M,0.0,0000*4f
$GPGSA,A,3,01,02,03,04,05,06,07,08,09,10,11,12,7.0,7.0,0.6*37
$GPGSV,3,1,12,01,45,045,50,02,45,045,50,03,45,045,50,04,45,045,50*7c
$GPGSV,3,2,12,05,45,045,50,06,45,045,50,07,45,045,50,08,45,045,50*77
$GPGSV,3,3,12,09,45,045,50,10,45,045,50,11,45,045,50,12,45,045,50*71
$GPRMC,123343.74,A,5200.3664,N,422.2429,E,-1.9,153.5,121223,0.0,E,A*1d
$GPVTG,153.5,T,0.0,M,-1.9,N,-3.6,K*41
$GPGGA,123343.74,5200.3664,N,00422.2429,E,12,12,7.0,1.6,M,0.0,M,0.0,0000*4d
$GPGSA,A,3,01,02,03,04,05,06,07,08,09,10,11,12,7.0,7.0,0.6*37
$GPGSV,3,1,12,01,45,045,50,02,45,045,50,03,45,045,50,04,45,045,50*7c
$GPGSV,3,2,12,05,45,045,50,06,45,045,50,07,45,045,50,08,45,045,50*77
$GPGSV,3,3,12,09,45,045,50,10,45,045,50,11,45,045,50,12,45,045,50*71
$GPRMC,123355.28,A,5200.3666,N,422.2427,E,-1.9,153.5,121223,0.0,E,A*1f
$GPVTG,153.5,T,0.0,M,-1.9,N,-3.6,K*41
$GPGGA,123355.28,5200.3666,N,00422.2427,E,12,12,7.0,1.6,M,0.0,M,0.0,0000*4f
$GPGSA,A,3,01,02,03,04,05,06,07,08,09,10,11,12,7.0,7.0,0.6*37
$GPGSV,3,1,12,01,45,045,50,02,45,045,50,03,45,045,50,04,45,045,50*7c
$GPGSV,3,2,12,05,45,045,50,06,45,045,50,07,45,045,50,08,45,045,50*77
$GPGSV,3,3,12,09,45,045,50,10,45,045,50,11,45,045,50,12,45,045,50*71
$GPRMC,123355.74,A,5200.3685,N,422.2448,E,-1.9,153.5,121223,0.0,E,A*12
$GPVTG,153.5,T,0.0,M,-1.9,N,-3.6,K*41
$GPGGA,123355.74,5200.3685,N,00422.2448,E,12,12,7.0,1.6,M,0.0,M,0.0,0000*42
$GPGSA,A,3,01,02,03,04,05,06,07,08,09,10,11,12,7.0,7.0,0.6*37
$GPGSV,3,1,12,01,45,045,50,02,45,045,50,03,45,045,50,04,45,045,50*7c
$GPGSV,3,2,12,05,45,045,50,06,45,045,50,07,45,045,50,08,45,045,50*77
$GPGSV,3,3,12,09,45,045,50,10,45,045,50,11,45,045,50,12,45,045,50*71
$GPRMC,123407.28,A,5200.3683,N,422.2443,E,-1.9,153.5,121223,0.0,E,A*16
$GPVTG,153.5,T,0.0,M,-1.9,N,-3.6,K*41
$GPGGA,123407.28,5200.3683,N,00422.2443,E,12,12,7.0,1.6,M,0.0,M,0.0,0000*46
$GPGSA,A,3,01,02,03,04,05,06,07,08,09,10,11,12,7.0,7.0,0.6*37
$GPGSV,3,1,12,01,45,045,50,02,45,045,50,03,45,045,50,04,45,045,50*7c
$GPGSV,3,2,12,05,45,045,50,06,45,045,50,07,45,045,50,08,45,045,50*77
$GPGSV,3,3,12,09,45,045,50,10,45,045,50,11,45,045,50,12,45,045,50*71
$GPRMC,123407.76,A,5200.3681,N,422.2429,E,-1.9,153.5,121223,0.0,E,A*13
$GPVTG,153.5,T,0.0,M,-1.9,N,-3.6,K*41
$GPGGA,123407.76,5200.3681,N,00422.2429,E,12,12,7.0,1.6,M,0.0,M,0.0,0000*43
$GPGSA,A,3,01,02,03,04,05,06,07,08,09,10,11,12,7.0,7.0,0.6*37
$GPGSV,3,1,12,01,45,045,50,02,45,045,50,03,45,045,50,04,45,045,50*7c
$GPGSV,3,2,12,05,45,045,50,06,45,045,50,07,45,045,50,08,45,045,50*77
$GPGSV,3,3,12,09,45,045,50,10,45,045,50,11,45,045,50,12,45,045,50*71
$GPRMC,123419.28,A,5200.3680,N,422.2427,E,-1.9,153.5,121223,0.0,E,A*18
$GPVTG,153.5,T,0.0,M,-1.9,N,-3.6,K*41
$GPGGA,123419.28,5200.3680,N,00422.2427,E,12,12,7.0,1.6,M,0.0,M,0.0,0000*48
$GPGSA,A,3,01,02,03,04,05,06,07,08,09,10,11,12,7.0,7.0,0.6*37
$GPGSV,3,1,12,01,45,045,50,02,45,045,50,03,45,045,50,04,45,045,50*7c
$GPGSV,3,2,12,05,45,045,50,06,45,045,50,07,45,045,50,08,45,045,50*77
$GPGSV,3,3,12,09,45,045,50,10,45,045,50,11,45,045,50,12,45,045,50*71
$GPRMC,123419.74,A,5200.3671,N,422.2425,E,-1.9,153.5,121223,0.0,E,A*1d
$GPVTG,153.5,T,0.0,M,-1.9,N,-3.6,K*41
$GPGGA,123419.74,5200.3671,N,00422.2425,E,12,12,7.0,1.6,M,0.0,M,0.0,0000*4d
$GPGSA,A,3,01,02,03,04,05,06,07,08,09,10,11,12,7.0,7.0,0.6*37
$GPGSV,3,1,12,01,45,045,50,02,45,045,50,03,45,045,50,04,45,045,50*7c
$GPGSV,3,2,12,05,45,045,50,06,45,045,50,07,45,045,50,08,45,045,50*77
$GPGSV,3,3,12,09,45,045,50,10,45,045,50,11,45,045,50,12,45,045,50*71
$GPRMC,123431.28,A,5200.3672,N,422.2424,E,-1.9,153.5,121223,0.0,E,A*1c
$GPVTG,153.5,T,0.0,M,-1.9,N,-3.6,K*41
$GPGGA,123431.28,5200.3672,N,00422.2424,E,12,12,7.0,1.6,M,0.0,M,0.0,0000*4c
$GPGSA,A,3,01,02,03,04,05,06,07,08,09,10,11,12,7.0,7.0,0.6*37
$GPGSV,3,1,12,01,45,045,50,02,45,045,50,03,45,045,50,04,45,045,50*7c
$GPGSV,3,2,12,05,45,045,50,06,45,045,50,07,45,045,50,08,45,045,50*77
$GPGSV,3,3,12,09,45,045,50,10,45,045,50,11,45,045,50,12,45,045,50*71
$GPRMC,123431.74,A,5200.3670,N,422.2430,E,-1.9,153.5,121223,0.0,E,A*12
$GPVTG,153.5,T,0.0,M,-1.9,N,-3.6,K*41
$GPGGA,123431.74,5200.3670,N,00422.2430,E,12,12,7.0,1.6,M,0.0,M,0.0,0000*42
$GPGSA,A,3,01,02,03,04,05,06,07,08,09,10,11,12,7.0,7.0,0.6*37
$GPGSV,3,1,12,01,45,045,50,02,45,045,50,03,45,045,50,04,45,045,50*7c
$GPGSV,3,2,12,05,45,045,50,06,45,045,50,07,45,045,50,08,45,045,50*77
$GPGSV,3,3,12,09,45,045,50,10,45,045,50,11,45,045,50,12,45,045,50*71
$GPRMC,123443.29,A,5200.3671,N,422.2428,E,-1.9,153.5,121223,0.0,E,A*17
$GPVTG,153.5,T,0.0,M,-1.9,N,-3.6,K*41
$GPGGA,123443.29,5200.3671,N,00422.2428,E,12,12,7.0,1.6,M,0.0,M,0.0,0000*47
$GPGSA,A,3,01,02,03,04,05,06,07,08,09,10,11,12,7.0,7.0,0.6*37
$GPGSV,3,1,12,01,45,045,50,02,45,045,50,03,45,045,50,04,45,045,50*7c
$GPGSV,3,2,12,05,45,045,50,06,45,045,50,07,45,045,50,08,45,045,50*77
$GPGSV,3,3,12,09,45,045,50,10,45,045,50,11,45,045,50,12,45,045,50*71
$GPRMC,123443.73,A,5200.3685,N,422.2426,E,-1.9,153.5,121223,0.0,E,A*1d
$GPVTG,153.5,T,0.0,M,-1.9,N,-3.6,K*41
$GPGGA,123443.73,5200.3685,N,00422.2426,E,12,12,7.0,1.6,M,0.0,M,0.0,0000*4d
$GPGSA,A,3,01,02,03,04,05,06,07,08,09,10,11,12,7.0,7.0,0.6*37
$GPGSV,3,1,12,01,45,045,50,02,45,045,50,03,45,045,50,04,45,045,50*7c
$GPGSV,3,2,12,05,45,045,50,06,45,045,50,07,45,045,50,08,45,045,50*77
$GPGSV,3,3,12,09,45,045,50,10,45,045,50,11,45,045,50,12,45,045,50*71
$GPRMC,123455.29,A,5200.3683,N,422.2424,E,-1.9,153.5,121223,0.0,E,A*11
$GPVTG,153.5,T,0.0,M,-1.9,N,-3.6,K*41
$GPGGA,123455.29,5200.3683,N,00422.2424,E,12,12,7.0,1.6,M,0.0,M,0.0,0000*41
$GPGSA,A,3,01,02,03,04,05,06,07,08,09,10,11,12,7.0,7.0,0.6*37
$GPGSV,3,1,12,01,45,045,50,02,45,045,50,03,45,045,50,04,45,045,50*7c
$GPGSV,3,2,12,05,45,045,50,06,45,045,50,07,45,045,50,08,45,045,50*77
$GPGSV,3,3,12,09,45,045,50,10,45,045,50,11,45,045,50,12,45,045,50*71
$GPRMC,123455.73,A,5200.3667,N,422.2437,E,-1.9,153.5,121223,0.0,E,A*16
$GPVTG,153.5,T,0.0,M,-1.9,N,-3.6,K*41
$GPGGA,123455.73,5200.3667,N,00422.2437,E,12,12,7.0,1.6,M,0.0,M,0.0,0000*46
$GPGSA,A,3,01,02,03,04,05,06,07,08,09,10,11,12,7.0,7.0,0.5*34
$GPGSV,3,1,12,01,45,045,50,02,45,045,50,03,45,045,50,04,45,045,50*7c
$GPGSV,3,2,12,05,45,045,50,06,45,045,50,07,45,045,50,08,45,045,50*77
$GPGSV,3,3,12,09,45,045,50,10,45,045,50,11,45,045,50,12,45,045,50*71
$GPRMC,123507.28,A,5200.3669,N,422.2434,E,-1.9,153.5,121223,0.0,E,A*13
$GPVTG,153.5,T,0.0,M,-1.9,N,-3.6,K*41
$GPGGA,123507.28,5200.3669,N,00422.2434,E,12,12,7.0,1.6,M,0.0,M,0.0,0000*43
$GPGSA,A,3,01,02,03,04,05,06,07,08,09,10,11,12,7.0,7.0,0.5*34
$GPGSV,3,1,12,01,45,045,50,02,45,045,50,03,45,045,50,04,45,045,50*7c
$GPGSV,3,2,12,05,45,045,50,06,45,045,50,07,45,045,50,08,45,045,50*77
$GPGSV,3,3,12,09,45,045,50,10,45,045,50,11,45,045,50,12,45,045,50*71
$GPRMC,123507.73,A,5200.3675,N,422.2434,E,-1.9,153.5,121223,0.0,E,A*10
$GPVTG,153.5,T,0.0,M,-1.9,N,-3.6,K*41
$GPGGA,123507.73,5200.3675,N,00422.2434,E,12,12,7.0,1.6,M,0.0,M,0.0,0000*40
$GPGSA,A,3,01,02,03,04,05,06,07,08,09,10,11,12,7.0,7.0,0.5*34
$GPGSV,3,1,12,01,45,045,50,02,45,045,50,03,45,045,50,04,45,045,50*7c
$GPGSV,3,2,12,05,45,045,50,06,45,045,50,07,45,045,50,08,45,045,50*77
$GPGSV,3,3,12,09,45,045,50,10,45,045,50,11,45,045,50,12,45,045,50*71
$GPRMC,123519.28,A,5200.3675,N,422.2431,E,-1.9,153.5,121223,0.0,E,A*14
$GPVTG,153.5,T,0.0,M,-1.9,N,-3.6,K*41
$GPGGA,123519.28,5200.3675,N,00422.2431,E,12,12,7.0,1.6,M,0.0,M,0.0,0000*44
$GPGSA,A,3,01,02,03,04,05,06,07,08,09,10,11,12,7.0,7.0,0.5*34
$GPGSV,3,1,12,01,45,045,50,02,45,045,50,03,45,045,50,04,45,045,50*7c
$GPGSV,3,2,12,05,45,045,50,06,45,045,50,07,45,045,50,08,45,045,50*77
$GPGSV,3,3,12,09,45,045,50,10,45,045,50,11,45,045,50,12,45,045,50*71
$GPRMC,123519.74,A,5200.3665,N,422.2431,E,-1.9,153.5,121223,0.0,E,A*1c
$GPVTG,153.5,T,0.0,M,-1.9,N,-3.6,K*41
$GPGGA,123519.74,5200.3665,N,00422.2431,E,12,12,7.0,1.6,M,0.0,M,0.0,0000*4c
$GPGSA,A,3,01,02,03,04,05,06,07,08,09,10,11,12,7.0,7.0,0.5*34
$GPGSV,3,1,12,01,45,045,50,02,45,045,50,03,45,045,50,04,45,045,50*7c
$GPGSV,3,2,12,05,45,045,50,06,45,045,50,07,45,045,50,08,45,045,50*77
$GPGSV,3,3,12,09,45,045,50,10,45,045,50,11,45,045,50,12,45,045,50*71
$GPRMC,123531.49,A,5200.3667,N,422.2428,E,-1.9,153.5,121223,0.0,E,A*12
$GPVTG,153.5,T,0.0,M,-1.9,N,-3.6,K*41
$GPGGA,123531.49,5200.3667,N,00422.2428,E,12,12,7.0,1.6,M,0.0,M,0.0,0000*42
$GPGSA,A,3,01,02,03,04,05,06,07,08,09,10,11,12,7.0,7.0,0.5*34
$GPGSV,3,1,12,01,45,045,50,02,45,045,50,03,45,045,50,04,45,045,50*7c
$GPGSV,3,2,12,05,45,045,50,06,45,045,50,07,45,045,50,08,45,045,50*77
$GPGSV,3,3,12,09,45,045,50,10,45,045,50,11,45,045,50,12,45,045,50*71
$GPRMC,123531.95,A,5200.3682,N,422.2429,E,-1.9,153.5,121223,0.0,E,A*19
$GPVTG,153.5,T,0.0,M,-1.9,N,-3.6,K*41
$GPGGA,123531.95,5200.3682,N,00422.2429,E,12,12,7.0,1.6,M,0.0,M,0.0,0000*49
$GPGSA,A,3,01,02,03,04,05,06,07,08,09,10,11,12,7.0,7.0,0.5*34
$GPGSV,3,1,12,01,45,045,50,02,45,045,50,03,45,045,50,04,45,045,50*7c
$GPGSV,3,2,12,05,45,045,50,06,45,045,50,07,45,045,50,08,45,045,50*77
$GPGSV,3,3,12,09,45,045,50,10,45,045,50,11,45,045,50,12,45,045,50*71
$GPRMC,123543.50,A,5200.3681,N,422.2427,E,-1.9,153.5,121223,0.0,E,A*18
$GPVTG,153.5,T,0.0,M,-1.9,N,-3.6,K*41
$GPGGA,123543.50,5200.3681,N,00422.2427,E,12,12,7.0,1.6,M,0.0,M,0.0,0000*48
$GPGSA,A,3,01,02,03,04,05,06,07,08,09,10,11,12,7.0,7.0,0.5*34
$GPGSV,3,1,12,01,45,045,50,02,45,045,50,03,45,045,50,04,45,045,50*7c
$GPGSV,3,2,12,05,45,045,50,06,45,045,50,07,45,045,50,08,45,045,50*77
$GPGSV,3,3,12,09,45,045,50,10,45,045,50,11,45,045,50,12,45,045,50*71
$GPRMC,123543.96,A,5200.3646,N,422.2434,E,-1.9,153.5,121223,0.0,E,A*1b
$GPVTG,153.5,T,0.0,M,-1.9,N,-3.6,K*41
$GPGGA,123543.96,5200.3646,N,00422.2434,E,12,12,7.0,1.6,M,0.0,M,0.0,0000*4b
$GPGSA,A,3,01,02,03,04,05,06,07,08,09,10,11,12,7.0,7.0,0.5*34
$GPGSV,3,1,12,01,45,045,50,02,45,045,50,03,45,045,50,04,45,045,50*7c
$GPGSV,3,2,12,05,45,045,50,06,45,045,50,07,45,045,50,08,45,045,50*77
$GPGSV,3,3,12,09,45,045,50,10,45,045,50,11,45,045,50,12,45,045,50*71
$GPRMC,123555.50,A,5200.3651,N,422.2431,E,-1.9,153.5,121223,0.0,E,A*15
$GPVTG,153.5,T,0.0,M,-1.9,N,-3.6,K*41
$GPGGA,123555.50,5200.3651,N,00422.2431,E,12,12,7.0,1.6,M,0.0,M,0.0,0000*45
$GPGSA,A,3,01,02,03,04,05,06,07,08,09,10,11,12,7.0,7.0,0.5*34
$GPGSV,3,1,12,01,45,045,50,02,45,045,50,03,45,045,50,04,45,045,50*7c
$GPGSV,3,2,12,05,45,045,50,06,45,045,50,07,45,045,50,08,45,045,50*77
$GPGSV,3,3,12,09,45,045,50,10,45,045,50,11,45,045,50,12,45,045,50*71
$GPRMC,123555.95,A,5200.3655,N,422.2426,E,-1.9,153.5,121223,0.0,E,A*1e
$GPVTG,153.5,T,0.0,M,-1.9,N,-3.6,K*41
$GPGGA,123555.95,5200.3655,N,00422.2426,E,12,12,7.0,1.6,M,0.0,M,0.0,0000*4e
$GPGSA,A,3,01,02,03,04,05,06,07,08,09,10,11,12,7.0,7.0,0.5*34
$GPGSV,3,1,12,01,45,045,50,02,45,045,50,03,45,045,50,04,45,045,50*7c
$GPGSV,3,2,12,05,45,045,50,06,45,045,50,07,45,045,50,08,45,045,50*77
$GPGSV,3,3,12,09,45,045,50,10,45,045,50,11,45,045,50,12,45,045,50*71
$GPRMC,123607.50,A,5200.3659,N,422.2425,E,-1.9,153.5,121223,0.0,E,A*1c
$GPVTG,153.5,T,0.0,M,-1.9,N,-3.6,K*41
$GPGGA,123607.50,5200.3659,N,00422.2425,E,12,12,7.0,1.6,M,0.0,M,0.0,0000*4c
$GPGSA,A,3,01,02,03,04,05,06,07,08,09,10,11,12,7.0,7.0,0.5*34
