$GPGSA,A,3,01,02,03,04,05,06,07,08,09,10,11,12,7.4,7.0,2.4*33
$GPGSV,3,1,12,01,45,045,50,02,45,045,50,03,45,045,50,04,45,045,50*7c
$GPGSV,3,2,12,05,45,045,50,06,45,045,50,07,45,045,50,08,45,045,50*77
$GPGSV,3,3,12,09,45,045,50,10,45,045,50,11,45,045,50,12,45,045,50*71
$GPRMC,115506.52,A,5200.3452,N,422.2801,E,-1.9,17.4,111223,0.0,E,A*29
$GPVTG,17.4,T,0.0,M,-1.9,N,-3.6,K*71
$GPGGA,115506.52,5200.3452,N,00422.2801,E,12,12,7.0,1.5,M,0.0,M,0.0,0000*49
$GPGSA,A,3,01,02,03,04,05,06,07,08,09,10,11,12,7.4,7.0,2.3*34
$GPGSV,3,1,12,01,45,045,50,02,45,045,50,03,45,045,50,04,45,045,50*7c
$GPGSV,3,2,12,05,45,045,50,06,45,045,50,07,45,045,50,08,45,045,50*77
$GPGSV,3,3,12,09,45,045,50,10,45,045,50,11,45,045,50,12,45,045,50*71
$GPRMC,115506.99,A,5200.3452,N,422.2797,E,-1.9,17.4,111223,0.0,E,A*2e
$GPVTG,17.4,T,0.0,M,-1.9,N,-3.6,K*71
$GPGGA,115506.99,5200.3452,N,00422.2797,E,12,12,7.0,1.5,M,0.0,M,0.0,0000*4e
$GPGSA,A,3,01,02,03,04,05,06,07,08,09,10,11,12,7.3,7.0,2.1*31
$GPGSV,3,1,12,01,45,045,50,02,45,045,50,03,45,045,50,04,45,045,50*7c
$GPGSV,3,2,12,05,45,045,50,06,45,045,50,07,45,045,50,08,45,045,50*77
$GPGSV,3,3,12,09,45,045,50,10,45,045,50,11,45,045,50,12,45,045,50*71
$GPRMC,115518.52,A,5200.3451,N,422.2806,E,-1.9,17.4,111223,0.0,E,A*22
$GPVTG,17.4,T,0.0,M,-1.9,N,-3.6,K*71
$GPGGA,115518.52,5200.3451,N,00422.2806,E,12,12,7.0,1.5,M,0.0,M,0.0,0000*42
$GPGSA,A,3,01,02,03,04,05,06,07,08,09,10,11,12,7.3,7.0,2.0*30
$GPGSV,3,1,12,01,45,045,50,02,45,045,50,03,45,045,50,04,45,045,50*7c
$GPGSV,3,2,12,05,45,045,50,06,45,045,50,07,45,045,50,08,45,045,50*77
$GPGSV,3,3,12,09,45,045,50,10,45,045,50,11,45,045,50,12,45,045,50*71
$GPRMC,115518.99,A,5200.3452,N,422.2799,E,-1.9,17.4,111223,0.0,E,A*2f
$GPVTG,17.4,T,0.0,M,-1.9,N,-3.6,K*71
$GPGGA,115518.99,5200.3452,N,00422.2799,E,12,12,7.0,1.5,M,0.0,M,0.0,0000*4f
$GPGSA,A,3,01,02,03,04,05,06,07,08,09,10,11,12,7.3,7.0,2.0*30
$GPGSV,3,1,12,01,45,045,50,02,45,045,50,03,45,045,50,04,45,045,50*7c
$GPGSV,3,2,12,05,45,045,50,06,45,045,50,07,45,045,50,08,45,045,50*77
$GPGSV,3,3,12,09,45,045,50,10,45,045,50,11,45,045,50,12,45,045,50*71
$GPRMC,115530.52,A,5200.3451,N,422.2808,E,-1.9,23.8,111223,0.0,E,A*2d
$GPVTG,23.8,T,0.0,M,-1.9,N,-3.6,K*7a
$GPGGA,115530.52,5200.3451,N,00422.2808,E,12,12,7.0,1.6,M,0.0,M,0.0,0000*45
$GPGSA,A,3,01,02,03,04,05,06,07,08,09,10,11,12,7.3,7.0,2.1*31
$GPGSV,3,1,12,01,45,045,50,02,45,045,50,03,45,045,50,04,45,045,50*7c
$GPGSV,3,2,12,05,45,045,50,06,45,045,50,07,45,045,50,08,45,045,50*77
$GPGSV,3,3,12,09,45,045,50,10,45,045,50,11,45,045,50,12,45,045,50*71
$GPRMC,115530.98,A,5200.3454,N,422.2795,E,-1.9,16.4,111223,0.0,E,A*2f
$GPVTG,16.4,T,0.0,M,-1.9,N,-3.6,K*70
$GPGGA,115530.98,5200.3454,N,00422.2795,E,12,12,7.0,1.5,M,0.0,M,0.0,0000*4e
$GPGSA,A,3,01,02,03,04,05,06,07,08,09,10,11,12,14.1,13.6,3.6*34
$GPGSV,3,1,12,01,45,045,50,02,45,045,50,03,45,045,50,04,45,045,50*7c
$GPGSV,3,2,12,05,45,045,50,06,45,045,50,07,45,045,50,08,45,045,50*77
$GPGSV,3,3,12,09,45,045,50,10,45,045,50,11,45,045,50,12,45,045,50*71
$GPRMC,115537.00,A,5200.3450,N,422.2820,E,-1.9,70.0,111223,0.0,E,A*28
$GPVTG,70.0,T,0.0,M,-1.9,N,-3.6,K*74
$GPGGA,115537.00,5200.3450,N,00422.2820,E,12,12,13.6,1.5,M,0.0,M,0.0,0000*7e
$GPGSA,A,3,01,02,03,04,05,06,07,08,09,10,11,12,7.7,7.0,3.2*37
$GPGSV,3,1,12,01,45,045,50,02,45,045,50,03,45,045,50,04,45,045,50*7c
$GPGSV,3,2,12,05,45,045,50,06,45,045,50,07,45,045,50,08,45,045,50*77
$GPGSV,3,3,12,09,45,045,50,10,45,045,50,11,45,045,50,12,45,045,50*71
$GPRMC,115537.49,A,5200.3452,N,422.2797,E,-1.9,70.0,111223,0.0,E,A*24
$GPVTG,70.0,T,0.0,M,-1.9,N,-3.6,K*74
$GPGGA,115537.49,5200.3452,N,00422.2797,E,12,12,7.0,1.5,M,0.0,M,0.0,0000*41
$GPGSA,A,3,01,02,03,04,05,06,07,08,09,10,11,12,14.1,13.6,3.9*3b
$GPGSV,3,1,12,01,45,045,50,02,45,045,50,03,45,045,50,04,45,045,50*7c
$GPGSV,3,2,12,05,45,045,50,06,45,045,50,07,45,045,50,08,45,045,50*77
$GPGSV,3,3,12,09,45,045,50,10,45,045,50,11,45,045,50,12,45,045,50*71
$GPRMC,115543.51,A,5200.3447,N,422.2835,E,-1.9,77.4,111223,0.0,E,A*2e
$GPVTG,77.4,T,0.0,M,-1.9,N,-3.6,K*77
$GPGGA,115543.51,5200.3447,N,00422.2835,E,12,12,13.6,1.5,M,0.0,M,0.0,0000*7b
$GPGSA,A,3,01,02,03,04,05,06,07,08,09,10,11,12,7.8,7.0,3.3*39
$GPGSV,3,1,12,01,45,045,50,02,45,045,50,03,45,045,50,04,45,045,50*7c
$GPGSV,3,2,12,05,45,045,50,06,45,045,50,07,45,045,50,08,45,045,50*77
$GPGSV,3,3,12,09,45,045,50,10,45,045,50,11,45,045,50,12,45,045,50*71
$GPRMC,115544.01,A,5200.3453,N,422.2798,E,-1.9,73.1,111223,0.0,E,A*20
$GPVTG,73.1,T,0.0,M,-1.9,N,-3.6,K*76
$GPGGA,115544.01,5200.3453,N,00422.2798,E,12,12,7.0,1.5,M,0.0,M,0.0,0000*47
$GPGSA,A,3,01,02,03,04,05,06,07,08,09,10,11,12,14.2,13.6,3.9*38
$GPGSV,3,1,12,01,45,045,50,02,45,045,50,03,45,045,50,04,45,045,50*7c
$GPGSV,3,2,12,05,45,045,50,06,45,045,50,07,45,045,50,08,45,045,50*77
$GPGSV,3,3,12,09,45,045,50,10,45,045,50,11,45,045,50,12,45,045,50*71
$GPRMC,115550.03,A,5200.3448,N,422.2837,E,-1.9,347.0,111223,0.0,E,A*12
$GPVTG,347.0,T,0.0,M,-1.9,N,-3.6,K*43
$GPGGA,115550.03,5200.3448,N,00422.2837,E,12,12,13.6,1.5,M,0.0,M,0.0,0000*73
$GPGSA,A,3,01,02,03,04,05,06,07,08,09,10,11,12,7.8,7.0,3.4*3e
$GPGSV,3,1,12,01,45,045,50,02,45,045,50,03,45,045,50,04,45,045,50*7c
$GPGSV,3,2,12,05,45,045,50,06,45,045,50,07,45,045,50,08,45,045,50*77
$GPGSV,3,3,12,09,45,045,50,10,45,045,50,11,45,045,50,12,45,045,50*71
$GPRMC,115550.53,A,5200.3452,N,422.2799,E,-1.9,347.0,111223,0.0,E,A*17
$GPVTG,347.0,T,0.0,M,-1.9,N,-3.6,K*43
$GPGGA,115550.53,5200.3452,N,00422.2799,E,12,12,7.0,1.5,M,0.0,M,0.0,0000*45
$GPGSA,A,3,01,02,03,04,05,06,07,08,09,10,11,12,14.1,13.5,4.1*37
$GPGSV,3,1,12,01,45,045,50,02,45,045,50,03,45,045,50,04,45,045,50*7c
$GPGSV,3,2,12,05,45,045,50,06,45,045,50,07,45,045,50,08,45,045,50*77
$GPGSV,3,3,12,09,45,045,50,10,45,045,50,11,45,045,50,12,45,045,50*71
$GPRMC,115558.87,A,5200.3449,N,422.2820,E,-1.9,45.4,111223,0.0,E,A*24
$GPVTG,45.4,T,0.0,M,-1.9,N,-3.6,K*76
$GPGGA,115558.87,5200.3449,N,00422.2820,E,12,12,13.5,1.5,M,0.0,M,0.0,0000*73
$GPGSA,A,3,01,02,03,04,05,06,07,08,09,10,11,12,7.8,7.0,3.4*3e
$GPGSV,3,1,12,01,45,045,50,02,45,045,50,03,45,045,50,04,45,045,50*7c
$GPGSV,3,2,12,05,45,045,50,06,45,045,50,07,45,045,50,08,45,045,50*77
$GPGSV,3,3,12,09,45,045,50,10,45,045,50,11,45,045,50,12,45,045,50*71
$GPRMC,115559.37,A,5200.3454,N,422.2796,E,-1.9,45.4,111223,0.0,E,A*20
$GPVTG,45.4,T,0.0,M,-1.9,N,-3.6,K*76
$GPGGA,115559.37,5200.3454,N,00422.2796,E,12,12,7.0,1.5,M,0.0,M,0.0,0000*47
$GPGSA,A,3,01,02,03,04,05,06,07,08,09,10,11,12,11.5,10.8,3.9*37
$GPGSV,3,1,12,01,45,045,50,02,45,045,50,03,45,045,50,04,45,045,50*7c
$GPGSV,3,2,12,05,45,045,50,06,45,045,50,07,45,045,50,08,45,045,50*77
$GPGSV,3,3,12,09,45,045,50,10,45,045,50,11,45,045,50,12,45,045,50*71
$GPRMC,115605.39,A,5200.3451,N,422.2816,E,-1.9,45.4,111223,0.0,E,A*26
$GPVTG,45.4,T,0.0,M,-1.9,N,-3.6,K*76
$GPGGA,115605.39,5200.3451,N,00422.2816,E,12,12,10.8,1.5,M,0.0,M,0.0,0000*7f
$GPGSA,A,3,01,02,03,04,05,06,07,08,09,10,11,12,7.7,7.0,3.3*36
$GPGSV,3,1,12,01,45,045,50,02,45,045,50,03,45,045,50,04,45,045,50*7c
$GPGSV,3,2,12,05,45,045,50,06,45,045,50,07,45,045,50,08,45,045,50*77
$GPGSV,3,3,12,09,45,045,50,10,45,045,50,11,45,045,50,12,45,045,50*71
$GPRMC,115605.93,A,5200.3452,N,422.2798,E,-1.9,45.4,111223,0.0,E,A*2c
$GPVTG,45.4,T,0.0,M,-1.9,N,-3.6,K*76
$GPGGA,115605.93,5200.3452,N,00422.2798,E,12,12,7.0,1.5,M,0.0,M,0.0,0000*4b
$GPGSA,A,3,01,02,03,04,05,06,07,08,09,10,11,12,7.6,7.0,2.9*3c
$GPGSV,3,1,12,01,45,045,50,02,45,045,50,03,45,045,50,04,45,045,50*7c
$GPGSV,3,2,12,05,45,045,50,06,45,045,50,07,45,045,50,08,45,045,50*77
$GPGSV,3,3,12,09,45,045,50,10,45,045,50,11,45,045,50,12,45,045,50*71
$GPRMC,115617.52,A,5200.3451,N,422.2807,E,-1.9,45.4,111223,0.0,E,A*28
$GPVTG,45.4,T,0.0,M,-1.9,N,-3.6,K*76
$GPGGA,115617.52,5200.3451,N,00422.2807,E,12,12,7.0,1.5,M,0.0,M,0.0,0000*4f
$GPGSA,A,3,01,02,03,04,05,06,07,08,09,10,11,12,7.5,7.0,2.6*30
$GPGSV,3,1,12,01,45,045,50,02,45,045,50,03,45,045,50,04,45,045,50*7c
$GPGSV,3,2,12,05,45,045,50,06,45,045,50,07,45,045,50,08,45,045,50*77
$GPGSV,3,3,12,09,45,045,50,10,45,045,50,11,45,045,50,12,45,045,50*71
$GPRMC,115617.99,A,5200.3455,N,422.2793,E,-1.9,45.4,111223,0.0,E,A*29
$GPVTG,45.4,T,0.0,M,-1.9,N,-3.6,K*76
$GPGGA,115617.99,5200.3455,N,00422.2793,E,12,12,7.0,1.5,M,0.0,M,0.0,0000*4e
$GPGSA,A,3,01,02,03,04,05,06,07,08,09,10,11,12,7.4,7.0,2.4*33
$GPGSV,3,1,12,01,45,045,50,02,45,045,50,03,45,045,50,04,45,045,50*7c
$GPGSV,3,2,12,05,45,045,50,06,45,045,50,07,45,045,50,08,45,045,50*77
$GPGSV,3,3,12,09,45,045,50,10,45,045,50,11,45,045,50,12,45,045,50*71
$GPRMC,115628.00,A,5200.3458,N,422.2773,E,-1.9,45.4,111223,0.0,E,A*26
$GPVTG,45.4,T,0.0,M,-1.9,N,-3.6,K*76
$GPGGA,115628.00,5200.3458,N,00422.2773,E,12,12,7.0,1.5,M,0.0,M,0.0,0000*41
$GPGSA,A,3,01,02,03,04,05,06,07,08,09,10,11,12,4.2,4.0,1.4*36
$GPGSV,3,1,12,01,45,045,50,02,45,045,50,03,45,045,50,04,45,045,50*7c
$GPGSV,3,2,12,05,45,045,50,06,45,045,50,07,45,045,50,08,45,045,50*77
$GPGSV,3,3,12,09,45,045,50,10,45,045,50,11,45,045,50,12,45,045,50*71
$GPRMC,115637.22,A,5200.3435,N,422.2659,E,0.0,45.4,111223,0.0,E,A*0f
$GPVTG,45.4,T,0.0,M,0.0,N,0.0,K*7b
$GPGGA,115637.22,5200.3435,N,00422.2659,E,12,12,4.0,0.3,M,0.0,M,0.0,0000*49
$GPGSA,A,3,01,02,03,04,05,06,07,08,09,10,11,12,4.0,3.7,1.4*34
$GPGSV,3,1,12,01,45,045,50,02,45,045,50,03,45,045,50,04,45,045,50*7c
$GPGSV,3,2,12,05,45,045,50,06,45,045,50,07,45,045,50,08,45,045,50*77
$GPGSV,3,3,12,09,45,045,50,10,45,045,50,11,45,045,50,12,45,045,50*71
$GPRMC,115638.17,A,5200.3435,N,422.2659,E,0.0,45.4,111223,0.0,E,A*06
$GPVTG,45.4,T,0.0,M,0.0,N,0.0,K*7b
$GPGGA,115638.17,5200.3435,N,00422.2659,E,12,12,3.7,0.3,M,0.0,M,0.0,0000*40
$GPGSA,A,3,01,02,03,04,05,06,07,08,09,10,11,12,3.8,3.5,1.3*3e
$GPGSV,3,1,12,01,45,045,50,02,45,045,50,03,45,045,50,04,45,045,50*7c
$GPGSV,3,2,12,05,45,045,50,06,45,045,50,07,45,045,50,08,45,045,50*77
$GPGSV,3,3,12,09,45,045,50,10,45,045,50,11,45,045,50,12,45,045,50*71
$GPRMC,115639.12,A,5200.3435,N,422.2659,E,0.0,45.4,111223,0.0,E,A*02
$GPVTG,45.4,T,0.0,M,0.0,N,0.0,K*7b
$GPGGA,115639.12,5200.3435,N,00422.2659,E,12,12,3.5,0.3,M,0.0,M,0.0,0000*46
$GPGSA,A,3,01,02,03,04,05,06,07,08,09,10,11,12,3.6,3.3,1.3*36
$GPGSV,3,1,12,01,45,045,50,02,45,045,50,03,45,045,50,04,45,045,50*7c
$GPGSV,3,2,12,05,45,045,50,06,45,045,50,07,45,045,50,08,45,045,50*77
$GPGSV,3,3,12,09,45,045,50,10,45,045,50,11,45,045,50,12,45,045,50*71
$GPRMC,115640.07,A,5200.3435,N,422.2659,E,0.0,45.4,111223,0.0,E,A*08
$GPVTG,45.4,T,0.0,M,0.0,N,0.0,K*7b
$GPGGA,115640.07,5200.3435,N,00422.2659,E,12,12,3.3,0.3,M,0.0,M,0.0,0000*4a
$GPGSA,A,3,01,02,03,04,05,06,07,08,09,10,11,12,3.5,3.2,1.3*34
$GPGSV,3,1,12,01,45,045,50,02,45,045,50,03,45,045,50,04,45,045,50*7c
$GPGSV,3,2,12,05,45,045,50,06,45,045,50,07,45,045,50,08,45,045,50*77
$GPGSV,3,3,12,09,45,045,50,10,45,045,50,11,45,045,50,12,45,045,50*71
$GPRMC,115641.02,A,5200.3435,N,422.2659,E,0.0,45.4,111223,0.0,E,A*0c
$GPVTG,45.4,T,0.0,M,0.0,N,0.0,K*7b
$GPGGA,115641.02,5200.3435,N,00422.2659,E,12,12,3.2,0.3,M,0.0,M,0.0,0000*4f
$GPGSA,A,3,01,02,03,04,05,06,07,08,09,10,11,12,3.3,3.0,1.3*30
$GPGSV,3,1,12,01,45,045,50,02,45,045,50,03,45,045,50,04,45,045,50*7c
$GPGSV,3,2,12,05,45,045,50,06,45,045,50,07,45,045,50,08,45,045,50*77
$GPGSV,3,3,12,09,45,045,50,10,45,045,50,11,45,045,50,12,45,045,50*71
$GPRMC,115641.99,A,5200.3435,N,422.2659,E,0.0,45.4,111223,0.0,E,A*0e
$GPVTG,45.4,T,0.0,M,0.0,N,0.0,K*7b
$GPGGA,115641.99,5200.3435,N,00422.2659,E,12,12,3.0,0.3,M,0.0,M,0.0,0000*4f
$GPGSA,A,3,01,02,03,04,05,06,07,08,09,10,11,12,3.3,3.0,1.3*30
$GPGSV,3,1,12,01,45,045,50,02,45,045,50,03,45,045,50,04,45,045,50*7c
$GPGSV,3,2,12,05,45,045,50,06,45,045,50,07,45,045,50,08,45,045,50*77
$GPGSV,3,3,12,09,45,045,50,10,45,045,50,11,45,045,50,12,45,045,50*71
$GPRMC,115642.99,A,5200.3435,N,422.2659,E,0.0,45.4,111223,0.0,E,A*0d
$GPVTG,45.4,T,0.0,M,0.0,N,0.0,K*7b
$GPGGA,115642.99,5200.3435,N,00422.2659,E,12,12,3.0,0.3,M,0.0,M,0.0,0000*4c
$GPGSA,A,3,01,02,03,04,05,06,07,08,09,10,11,12,3.6,3.2,1.5*31
$GPGSV,3,1,12,01,45,045,50,02,45,045,50,03,45,045,50,04,45,045,50*7c
$GPGSV,3,2,12,05,45,045,50,06,45,045,50,07,45,045,50,08,45,045,50*77
$GPGSV,3,3,12,09,45,045,50,10,45,045,50,11,45,045,50,12,45,045,50*71
$GPRMC,115643.99,A,5200.3435,N,422.2659,E,0.0,45.4,111223,0.0,E,A*0c
$GPVTG,45.4,T,0.0,M,0.0,N,0.0,K*7b
$GPGGA,115643.99,5200.3435,N,00422.2659,E,12,12,3.2,0.3,M,0.0,M,0.0,0000*4f
$GPGSA,A,3,01,02,03,04,05,06,07,08,09,10,11,12,3.4,3.1,1.5*30
$GPGSV,3,1,12,01,45,045,50,02,45,045,50,03,45,045,50,04,45,045,50*7c
$GPGSV,3,2,12,05,45,045,50,06,45,045,50,07,45,045,50,08,45,045,50*77
$GPGSV,3,3,12,09,45,045,50,10,45,045,50,11,45,045,50,12,45,045,50*71
$GPRMC,115644.99,A,5200.3435,N,422.2659,E,0.0,45.4,111223,0.0,E,A*0b
$GPVTG,45.4,T,0.0,M,0.0,N,0.0,K*7b
$GPGGA,115644.99,5200.3435,N,00422.2659,E,12,12,3.1,0.3,M,0.0,M,0.0,0000*4b
$GPGSA,A,3,01,02,03,04,05,06,07,08,09,10,11,12,1.4,1.3,0.3*35
$GPGSV,3,1,12,01,45,045,50,02,45,045,50,03,45,045,50,04,45,045,50*7c
$GPGSV,3,2,12,05,45,045,50,06,45,045,50,07,45,045,50,08,45,045,50*77
$GPGSV,3,3,12,09,45,045,50,10,45,045,50,11,45,045,50,12,45,045,50*71
$GPRMC,115645.99,A,5200.3451,N,422.2774,E,0.2,-1.0,111223,0.0,E,A*1d
$GPVTG,-1.0,T,0.0,M,0.2,N,0.4,K*64
$GPGGA,115645.99,5200.3451,N,00422.2774,E,12,12,1.3,0.3,M,0.0,M,0.0,0000*46
$GPGSA,A,3,01,02,03,04,05,06,07,08,09,10,11,12,1.4,1.3,0.4*32
$GPGSV,3,1,12,01,45,045,50,02,45,045,50,03,45,045,50,04,45,045,50*7c
$GPGSV,3,2,12,05,45,045,50,06,45,045,50,07,45,045,50,08,45,045,50*77
$GPGSV,3,3,12,09,45,045,50,10,45,045,50,11,45,045,50,12,45,045,50*71
$GPRMC,115646.99,A,5200.3445,N,422.2772,E,0.6,-1.0,111223,0.0,E,A*19
$GPVTG,-1.0,T,0.0,M,0.6,N,1.0,K*65
$GPGGA,115646.99,5200.3445,N,00422.2772,E,12,12,1.3,0.2,M,0.0,M,0.0,0000*47
$GPGSA,A,3,01,02,03,04,05,06,07,08,09,10,11,12,1.4,1.4,0.4*35
$GPGSV,3,1,12,01,45,045,50,02,45,045,50,03,45,045,50,04,45,045,50*7c
$GPGSV,3,2,12,05,45,045,50,06,45,045,50,07,45,045,50,08,45,045,50*77
$GPGSV,3,3,12,09,45,045,50,10,45,045,50,11,45,045,50,12,45,045,50*71
$GPRMC,115647.99,A,5200.3442,N,422.2775,E,0.5,-1.0,111223,0.0,E,A*1b
$GPVTG,-1.0,T,0.0,M,0.5,N,0.9,K*6e
$GPGGA,115647.99,5200.3442,N,00422.2775,E,12,12,1.4,0.2,M,0.0,M,0.0,0000*41
$GPGSA,A,3,01,02,03,04,05,06,07,08,09,10,11,12,1.4,1.3,0.4*32
$GPGSV,3,1,12,01,45,045,50,02,45,045,50,03,45,045,50,04,45,045,50*7c
$GPGSV,3,2,12,05,45,045,50,06,45,045,50,07,45,045,50,08,45,045,50*77
$GPGSV,3,3,12,09,45,045,50,10,45,045,50,11,45,045,50,12,45,045,50*71
$GPRMC,115648.99,A,5200.3440,N,422.2766,E,0.3,-1.0,111223,0.0,E,A*12
$GPVTG,-1.0,T,0.0,M,0.3,N,0.5,K*64
$GPGGA,115648.99,5200.3440,N,00422.2766,E,12,12,1.3,0.2,M,0.0,M,0.0,0000*49
$GPGSA,A,3,01,02,03,04,05,06,07,08,09,10,11,12,1.4,1.4,0.4*35
$GPGSV,3,1,12,01,45,045,50,02,45,045,50,03,45,045,50,04,45,045,50*7c
$GPGSV,3,2,12,05,45,045,50,06,45,045,50,07,45,045,50,08,45,045,50*77
$GPGSV,3,3,12,09,45,045,50,10,45,045,50,11,45,045,50,12,45,045,50*71
$GPRMC,115649.99,A,5200.3440,N,422.2765,E,0.2,-1.0,111223,0.0,E,A*11
$GPVTG,-1.0,T,0.0,M,0.2,N,0.4,K*64
$GPGGA,115649.99,5200.3440,N,00422.2765,E,12,12,1.4,0.2,M,0.0,M,0.0,0000*4c
$GPGSA,A,3,01,02,03,04,05,06,07,08,09,10,11,12,1.4,1.3,0.4*32
$GPGSV,3,1,12,01,45,045,50,02,45,045,50,03,45,045,50,04,45,045,50*7c
$GPGSV,3,2,12,05,45,045,50,06,45,045,50,07,45,045,50,08,45,045,50*77
$GPGSV,3,3,12,09,45,045,50,10,45,045,50,11,45,045,50,12,45,045,50*71
$GPRMC,115650.99,A,5200.3439,N,422.2777,E,0.6,-1.0,111223,0.0,E,A*10
$GPVTG,-1.0,T,0.0,M,0.6,N,1.1,K*64
$GPGGA,115650.99,5200.3439,N,00422.2777,E,12,12,1.3,0.2,M,0.0,M,0.0,0000*4e
$GPGSA,A,3,01,02,03,04,05,06,07,08,09,10,11,12,1.4,1.3,0.4*32
$GPGSV,3,1,12,01,45,045,50,02,45,045,50,03,45,045,50,04,45,045,50*7c
$GPGSV,3,2,12,05,45,045,50,06,45,045,50,07,45,045,50,08,45,045,50*77
$GPGSV,3,3,12,09,45,045,50,10,45,045,50,11,45,045,50,12,45,045,50*71
$GPRMC,115651.99,A,5200.3439,N,422.2777,E,0.6,-1.0,111223,0.0,E,A*11
$GPVTG,-1.0,T,0.0,M,0.6,N,1.1,K*64
$GPGGA,115651.99,5200.3439,N,00422.2777,E,12,12,1.3,0.2,M,0.0,M,0.0,0000*4f
$GPGSA,A,3,01,02,03,04,05,06,07,08,09,10,11,12,1.4,1.4,0.4*35
$GPGSV,3,1,12,01,45,045,50,02,45,045,50,03,45,045,50,04,45,045,50*7c
$GPGSV,3,2,12,05,45,045,50,06,45,045,50,07,45,045,50,08,45,045,50*77
$GPGSV,3,3,12,09,45,045,50,10,45,045,50,11,45,045,50,12,45,045,50*71
$GPRMC,115652.99,A,5200.3437,N,422.2778,E,0.7,-1.0,111223,0.0,E,A*12
$GPVTG,-1.0,T,0.0,M,0.7,N,1.3,K*67
$GPGGA,115652.99,5200.3437,N,00422.2778,E,12,12,1.4,0.2,M,0.0,M,0.0,0000*4a
$GPGSA,A,3,01,02,03,04,05,06,07,08,09,10,11,12,1.4,1.4,0.4*35
$GPGSV,3,1,12,01,45,045,50,02,45,045,50,03,45,045,50,04,45,045,50*7c
$GPGSV,3,2,12,05,45,045,50,06,45,045,50,07,45,045,50,08,45,045,50*77
$GPGSV,3,3,12,09,45,045,50,10,45,045,50,11,45,045,50,12,45,045,50*71
$GPRMC,115653.99,A,5200.3436,N,422.2778,E,0.7,-1.0,111223,0.0,E,A*12
$GPVTG,-1.0,T,0.0,M,0.7,N,1.3,K*67
$GPGGA,115653.99,5200.3436,N,00422.2778,E,12,12,1.4,0.1,M,0.0,M,0.0,0000*49
$GPGSA,A,3,01,02,03,04,05,06,07,08,09,10,11,12,1.4,1.3,0.4*32
$GPGSV,3,1,12,01,45,045,50,02,45,045,50,03,45,045,50,04,45,045,50*7c
$GPGSV,3,2,12,05,45,045,50,06,45,045,50,07,45,045,50,08,45,045,50*77
$GPGSV,3,3,12,09,45,045,50,10,45,045,50,11,45,045,50,12,45,045,50*71
$GPRMC,115654.99,A,5200.3434,N,422.2773,E,0.2,-1.0,111223,0.0,E,A*19
$GPVTG,-1.0,T,0.0,M,0.2,N,0.3,K*63
$GPGGA,115654.99,5200.3434,N,00422.2773,E,12,12,1.3,0.1,M,0.0,M,0.0,0000*40
$GPGSA,A,3,01,02,03,04,05,06,07,08,09,10,11,12,1.4,1.3,0.4*32
$GPGSV,3,1,12,01,45,045,50,02,45,045,50,03,45,045,50,04,45,045,50*7c
$GPGSV,3,2,12,05,45,045,50,06,45,045,50,07,45,045,50,08,45,045,50*77
$GPGSV,3,3,12,09,45,045,50,10,45,045,50,11,45,045,50,12,45,045,50*71
$GPRMC,115655.99,A,5200.3433,N,422.2787,E,0.3,-1.0,111223,0.0,E,A*15
$GPVTG,-1.0,T,0.0,M,0.3,N,0.5,K*64
$GPGGA,115655.99,5200.3433,N,00422.2787,E,12,12,1.3,0.1,M,0.0,M,0.0,0000*4d
$GPGSA,A,3,01,02,03,04,05,06,07,08,09,10,11,12,1.3,1.3,0.4*35
$GPGSV,3,1,12,01,45,045,50,02,45,045,50,03,45,045,50,04,45,045,50*7c
$GPGSV,3,2,12,05,45,045,50,06,45,045,50,07,45,045,50,08,45,045,50*77
$GPGSV,3,3,12,09,45,045,50,10,45,045,50,11,45,045,50,12,45,045,50*71
$GPRMC,115656.99,A,5200.3431,N,422.2795,E,0.1,-1.0,111223,0.0,E,A*15
$GPVTG,-1.0,T,0.0,M,0.1,N,0.2,K*61
$GPGGA,115656.99,5200.3431,N,00422.2795,E,12,12,1.3,0.1,M,0.0,M,0.0,0000*4f
$GPGSA,A,3,01,02,03,04,05,06,07,08,09,10,11,12,1.3,1.2,0.5*35
$GPGSV,3,1,12,01,45,045,50,02,45,045,50,03,45,045,50,04,45,045,50*7c
$GPGSV,3,2,12,05,45,045,50,06,45,045,50,07,45,045,50,08,45,045,50*77
$GPGSV,3,3,12,09,45,045,50,10,45,045,50,11,45,045,50,12,45,045,50*71
$GPRMC,115657.99,A,5200.3427,N,422.2810,E,0.1,-1.0,111223,0.0,E,A*11
$GPVTG,-1.0,T,0.0,M,0.1,N,0.1,K*62
$GPGGA,115657.99,5200.3427,N,00422.2810,E,12,12,1.2,0.1,M,0.0,M,0.0,0000*4a
$GPGSA,A,3,01,02,03,04,05,06,07,08,09,10,11,12,1.3,1.2,0.5*35
$GPGSV,3,1,12,01,45,045,50,02,45,045,50,03,45,045,50,04,45,045,50*7c
$GPGSV,3,2,12,05,45,045,50,06,45,045,50,07,45,045,50,08,45,045,50*77
$GPGSV,3,3,12,09,45,045,50,10,45,045,50,11,45,045,50,12,45,045,50*71
$GPRMC,115658.99,A,5200.3422,N,422.2807,E,0.6,-1.0,111223,0.0,E,A*1a
$GPVTG,-1.0,T,0.0,M,0.6,N,1.1,K*64
$GPGGA,115658.99,5200.3422,N,00422.2807,E,12,12,1.2,0.1,M,0.0,M,0.0,0000*46
$GPGSA,A,3,01,02,03,04,05,06,07,08,09,10,11,12,1.3,1.2,0.5*35
$GPGSV,3,1,12,01,45,045,50,02,45,045,50,03,45,045,50,04,45,045,50*7c
$GPGSV,3,2,12,05,45,045,50,06,45,045,50,07,45,045,50,08,45,045,50*77
$GPGSV,3,3,12,09,45,045,50,10,45,045,50,11,45,045,50,12,45,045,50*71
$GPRMC,115659.99,A,5200.3422,N,422.2805,E,0.3,-1.0,111223,0.0,E,A*1c
$GPVTG,-1.0,T,0.0,M,0.3,N,0.5,K*64
$GPGGA,115659.99,5200.3422,N,00422.2805,E,12,12,1.2,0.1,M,0.0,M,0.0,0000*45
$GPGSA,A,3,01,02,03,04,05,06,07,08,09,10,11,12,1.3,1.2,0.5*35
$GPGSV,3,1,12,01,45,045,50,02,45,045,50,03,45,045,50,04,45,045,50*7c
$GPGSV,3,2,12,05,45,045,50,06,45,045,50,07,45,045,50,08,45,045,50*77
$GPGSV,3,3,12,09,45,045,50,10,45,045,50,11,45,045,50,12,45,045,50*71
$GPRMC,115700.99,A,5200.3423,N,422.2806,E,0.3,-1.0,111223,0.0,E,A*13
$GPVTG,-1.0,T,0.0,M,0.3,N,0.5,K*64
$GPGGA,115700.99,5200.3423,N,00422.2806,E,12,12,1.2,0.2,M,0.0,M,0.0,0000*49
$GPGSA,A,3,01,02,03,04,05,06,07,08,09,10,11,12,1.3,1.2,0.5*35
$GPGSV,3,1,12,01,45,045,50,02,45,045,50,03,45,045,50,04,45,045,50*7c
$GPGSV,3,2,12,05,45,045,50,06,45,045,50,07,45,045,50,08,45,045,50*77
$GPGSV,3,3,12,09,45,045,50,10,45,045,50,11,45,045,50,12,45,045,50*71
$GPRMC,115701.99,A,5200.3429,N,422.2801,E,1.0,-1.0,111223,0.0,E,A*1d
$GPVTG,-1.0,T,0.0,M,1.0,N,1.9,K*6b
$GPGGA,115701.99,5200.3429,N,00422.2801,E,12,12,1.2,0.2,M,0.0,M,0.0,0000*45
$GPGSA,A,3,01,02,03,04,05,06,07,08,09,10,11,12,1.3,1.2,0.5*35
$GPGSV,3,1,12,01,45,045,50,02,45,045,50,03,45,045,50,04,45,045,50*7c
$GPGSV,3,2,12,05,45,045,50,06,45,045,50,07,45,045,50,08,45,045,50*77
$GPGSV,3,3,12,09,45,045,50,10,45,045,50,11,45,045,50,12,45,045,50*71
$GPRMC,115702.99,A,5200.3427,N,422.2796,E,1.0,-1.0,111223,0.0,E,A*11
$GPVTG,-1.0,T,0.0,M,1.0,N,1.8,K*6a
$GPGGA,115702.99,5200.3427,N,00422.2796,E,12,12,1.2,0.3,M,0.0,M,0.0,0000*48
$GPGSA,A,3,01,02,03,04,05,06,07,08,09,10,11,12,1.3,1.2,0.5*35
$GPGSV,3,1,12,01,45,045,50,02,45,045,50,03,45,045,50,04,45,045,50*7c
$GPGSV,3,2,12,05,45,045,50,06,45,045,50,07,45,045,50,08,45,045,50*77
$GPGSV,3,3,12,09,45,045,50,10,45,045,50,11,45,045,50,12,45,045,50*71
$GPRMC,115703.99,A,5200.3420,N,422.2803,E,0.6,-1.0,111223,0.0,E,A*13
$GPVTG,-1.0,T,0.0,M,0.6,N,1.1,K*64
$GPGGA,115703.99,5200.3420,N,00422.2803,E,12,12,1.2,0.3,M,0.0,M,0.0,0000*4d
$GPGSA,A,3,01,02,03,04,05,06,07,08,09,10,11,12,1.2,1.2,0.5*34
$GPGSV,3,1,12,01,45,045,50,02,45,045,50,03,45,045,50,04,45,045,50*7c
$GPGSV,3,2,12,05,45,045,50,06,45,045,50,07,45,045,50,08,45,045,50*77
$GPGSV,3,3,12,09,45,045,50,10,45,045,50,11,45,045,50,12,45,045,50*71
$GPRMC,115704.99,A,5200.3416,N,422.2809,E,0.4,-1.0,111223,0.0,E,A*19
$GPVTG,-1.0,T,0.0,M,0.4,N,0.7,K*61
$GPGGA,115704.99,5200.3416,N,00422.2809,E,12,12,1.2,0.2,M,0.0,M,0.0,0000*44
$GPGSA,A,3,01,02,03,04,05,06,07,08,09,10,11,12,1.2,1.1,0.5*37
$GPGSV,3,1,12,01,45,045,50,02,45,045,50,03,45,045,50,04,45,045,50*7c
$GPGSV,3,2,12,05,45,045,50,06,45,045,50,07,45,045,50,08,45,045,50*77
$GPGSV,3,3,12,09,45,045,50,10,45,045,50,11,45,045,50,12,45,045,50*71
$GPRMC,115705.99,A,5200.3417,N,422.2813,E,0.6,-1.0,111223,0.0,E,A*10
$GPVTG,-1.0,T,0.0,M,0.6,N,1.1,K*64
$GPGGA,115705.99,5200.3417,N,00422.2813,E,12,12,1.1,0.2,M,0.0,M,0.0,0000*4c
$GPGSA,A,3,01,02,03,04,05,06,07,08,09,10,11,12,1.2,1.1,0.5*37
$GPGSV,3,1,12,01,45,045,50,02,45,045,50,03,45,045,50,04,45,045,50*7c
$GPGSV,3,2,12,05,45,045,50,06,45,045,50,07,45,045,50,08,45,045,50*77
$GPGSV,3,3,12,09,45,045,50,10,45,045,50,11,45,045,50,12,45,045,50*71
$GPRMC,115706.99,A,5200.3415,N,422.2823,E,1.0,-1.0,111223,0.0,E,A*15
$GPVTG,-1.0,T,0.0,M,1.0,N,1.8,K*6a
$GPGGA,115706.99,5200.3415,N,00422.2823,E,12,12,1.1,0.3,M,0.0,M,0.0,0000*4f
$GPGSA,A,3,01,02,03,04,05,06,07,08,09,10,11,12,1.2,1.1,0.5*37
$GPGSV,3,1,12,01,45,045,50,02,45,045,50,03,45,045,50,04,45,045,50*7c
$GPGSV,3,2,12,05,45,045,50,06,45,045,50,07,45,045,50,08,45,045,50*77
$GPGSV,3,3,12,09,45,045,50,10,45,045,50,11,45,045,50,12,45,045,50*71
$GPRMC,115707.99,A,5200.3417,N,422.2821,E,0.1,-1.0,111223,0.0,E,A*14
$GPVTG,-1.0,T,0.0,M,0.1,N,0.2,K*61
$GPGGA,115707.99,5200.3417,N,00422.2821,E,12,12,1.1,0.3,M,0.0,M,0.0,0000*4e
$GPGSA,A,3,01,02,03,04,05,06,07,08,09,10,11,12,1.2,1.1,0.5*37
$GPGSV,3,1,12,01,45,045,50,02,45,045,50,03,45,045,50,04,45,045,50*7c
$GPGSV,3,2,12,05,45,045,50,06,45,045,50,07,45,045,50,08,45,045,50*77
$GPGSV,3,3,12,09,45,045,50,10,45,045,50,11,45,045,50,12,45,045,50*71
$GPRMC,115708.99,A,5200.3415,N,422.2823,E,0.3,-1.0,111223,0.0,E,A*19
$GPVTG,-1.0,T,0.0,M,0.3,N,0.5,K*64
$GPGGA,115708.99,5200.3415,N,00422.2823,E,12,12,1.1,0.3,M,0.0,M,0.0,0000*41
$GPGSA,A,3,01,02,03,04,05,06,07,08,09,10,11,12,1.2,1.1,0.5*37
$GPGSV,3,1,12,01,45,045,50,02,45,045,50,03,45,045,50,04,45,045,50*7c
$GPGSV,3,2,12,05,45,045,50,06,45,045,50,07,45,045,50,08,45,045,50*77
$GPGSV,3,3,12,09,45,045,50,10,45,045,50,11,45,045,50,12,45,045,50*71
$GPRMC,115709.99,A,5200.3411,N,422.2823,E,0.7,-1.0,111223,0.0,E,A*18
$GPVTG,-1.0,T,0.0,M,0.7,N,1.3,K*67
$GPGGA,115709.99,5200.3411,N,00422.2823,E,12,12,1.1,0.2,M,0.0,M,0.0,0000*45
$GPGSA,A,3,01,02,03,04,05,06,07,08,09,10,11,12,1.3,1.2,0.5*35
$GPGSV,3,1,12,01,45,045,50,02,45,045,50,03,45,045,50,04,45,045,50*7c
$GPGSV,3,2,12,05,45,045,50,06,45,045,50,07,45,045,50,08,45,045,50*77
$GPGSV,3,3,12,09,45,045,50,10,45,045,50,11,45,045,50,12,45,045,50*71
$GPRMC,115710.99,A,5200.3413,N,422.2825,E,0.2,-1.0,111223,0.0,E,A*11
$GPVTG,-1.0,T,0.0,M,0.2,N,0.4,K*64
$GPGGA,115710.99,5200.3413,N,00422.2825,E,12,12,1.2,0.3,M,0.0,M,0.0,0000*4b
$GPGSA,A,3,01,02,03,04,05,06,07,08,09,10,11,12,1.3,1.2,0.5*35
$GPGSV,3,1,12,01,45,045,50,02,45,045,50,03,45,045,50,04,45,045,50*7c
$GPGSV,3,2,12,05,45,045,50,06,45,045,50,07,45,045,50,08,45,045,50*77
$GPGSV,3,3,12,09,45,045,50,10,45,045,50,11,45,045,50,12,45,045,50*71
$GPRMC,115711.99,A,5200.3415,N,422.2833,E,1.1,-1.0,111223,0.0,E,A*13
$GPVTG,-1.0,T,0.0,M,1.1,N,2.1,K*61
$GPGGA,115711.99,5200.3415,N,00422.2833,E,12,12,1.2,0.4,M,0.0,M,0.0,0000*4c
$GPGSA,A,3,01,02,03,04,05,06,07,08,09,10,11,12,1.3,1.2,0.5*35
$GPGSV,3,1,12,01,45,045,50,02,45,045,50,03,45,045,50,04,45,045,50*7c
$GPGSV,3,2,12,05,45,045,50,06,45,045,50,07,45,045,50,08,45,045,50*77
$GPGSV,3,3,12,09,45,045,50,10,45,045,50,11,45,045,50,12,45,045,50*71
$GPRMC,115712.99,A,5200.3415,N,422.2841,E,0.6,-1.0,111223,0.0,E,A*13
$GPVTG,-1.0,T,0.0,M,0.6,N,1.1,K*64
$GPGGA,115712.99,5200.3415,N,00422.2841,E,12,12,1.2,0.4,M,0.0,M,0.0,0000*4a
$GPGSA,A,3,01,02,03,04,05,06,07,08,09,10,11,12,1.3,1.2,0.5*35
$GPGSV,3,1,12,01,45,045,50,02,45,045,50,03,45,045,50,04,45,045,50*7c
$GPGSV,3,2,12,05,45,045,50,06,45,045,50,07,45,045,50,08,45,045,50*77
$GPGSV,3,3,12,09,45,045,50,10,45,045,50,11,45,045,50,12,45,045,50*71
$GPRMC,115713.99,A,5200.3414,N,422.2844,E,0.5,-1.0,111223,0.0,E,A*15
$GPVTG,-1.0,T,0.0,M,0.5,N,0.9,K*6e
$GPGGA,115713.99,5200.3414,N,00422.2844,E,12,12,1.2,0.4,M,0.0,M,0.0,0000*4f
$GPGSA,A,3,01,02,03,04,05,06,07,08,09,10,11,12,1.3,1.2,0.5*35
$GPGSV,3,1,12,01,45,045,50,02,45,045,50,03,45,045,50,04,45,045,50*7c
$GPGSV,3,2,12,05,45,045,50,06,45,045,50,07,45,045,50,08,45,045,50*77
$GPGSV,3,3,12,09,45,045,50,10,45,045,50,11,45,045,50,12,45,045,50*71
$GPRMC,115714.99,A,5200.3409,N,422.2846,E,0.2,-1.0,111223,0.0,E,A*1b
$GPVTG,-1.0,T,0.0,M,0.2,N,0.4,K*64
$GPGGA,115714.99,5200.3409,N,00422.2846,E,12,12,1.2,0.3,M,0.0,M,0.0,0000*41
$GPGSA,A,3,01,02,03,04,05,06,07,08,09,10,11,12,1.3,1.2,0.5*35
$GPGSV,3,1,12,01,45,045,50,02,45,045,50,03,45,045,50,04,45,045,50*7c
$GPGSV,3,2,12,05,45,045,50,06,45,045,50,07,45,045,50,08,45,045,50*77
$GPGSV,3,3,12,09,45,045,50,10,45,045,50,11,45,045,50,12,45,045,50*71
$GPRMC,115715.99,A,5200.3408,N,422.2850,E,0.7,-1.0,111223,0.0,E,A*19
$GPVTG,-1.0,T,0.0,M,0.7,N,1.4,K*60
$GPGGA,115715.99,5200.3408,N,00422.2850,E,12,12,1.2,0.2,M,0.0,M,0.0,0000*47
$GPGSA,A,3,01,02,03,04,05,06,07,08,09,10,11,12,1.3,1.2,0.5*35
$GPGSV,3,1,12,01,45,045,50,02,45,045,50,03,45,045,50,04,45,045,50*7c
$GPGSV,3,2,12,05,45,045,50,06,45,045,50,07,45,045,50,08,45,045,50*77
$GPGSV,3,3,12,09,45,045,50,10,45,045,50,11,45,045,50,12,45,045,50*71
$GPRMC,115716.99,A,5200.3408,N,422.2868,E,1.2,-1.0,111223,0.0,E,A*15
$GPVTG,-1.0,T,0.0,M,1.2,N,2.2,K*61
$GPGGA,115716.99,5200.3408,N,00422.2868,E,12,12,1.2,0.2,M,0.0,M,0.0,0000*4f
$GPGSA,A,3,01,02,03,04,05,06,07,08,09,10,11,12,1.4,1.3,0.5*33
$GPGSV,3,1,12,01,45,045,50,02,45,045,50,03,45,045,50,04,45,045,50*7c
$GPGSV,3,2,12,05,45,045,50,06,45,045,50,07,45,045,50,08,45,045,50*77
$GPGSV,3,3,12,09,45,045,50,10,45,045,50,11,45,045,50,12,45,045,50*71
$GPRMC,115717.99,A,5200.3409,N,422.2870,E,0.2,-1.0,111223,0.0,E,A*1d
$GPVTG,-1.0,T,0.0,M,0.2,N,0.3,K*63
$GPGGA,115717.99,5200.3409,N,00422.2870,E,12,12,1.3,0.1,M,0.0,M,0.0,0000*44
$GPGSA,A,3,01,02,03,04,05,06,07,08,09,10,11,12,1.4,1.3,0.5*33
$GPGSV,3,1,12,01,45,045,50,02,45,045,50,03,45,045,50,04,45,045,50*7c
$GPGSV,3,2,12,05,45,045,50,06,45,045,50,07,45,045,50,08,45,045,50*77
$GPGSV,3,3,12,09,45,045,50,10,45,045,50,11,45,045,50,12,45,045,50*71
$GPRMC,115718.99,A,5200.3409,N,422.2879,E,0.1,-1.0,111223,0.0,E,A*18
$GPVTG,-1.0,T,0.0,M,0.1,N,0.2,K*61
$GPGGA,115718.99,5200.3409,N,00422.2879,E,12,12,1.3,0.1,M,0.0,M,0.0,0000*42
$GPGSA,A,3,01,02,03,04,05,06,07,08,09,10,11,12,1.4,1.3,0.5*33
$GPGSV,3,1,12,01,45,045,50,02,45,045,50,03,45,045,50,04,45,045,50*7c
$GPGSV,3,2,12,05,45,045,50,06,45,045,50,07,45,045,50,08,45,045,50*77
$GPGSV,3,3,12,09,45,045,50,10,45,045,50,11,45,045,50,12,45,045,50*71
$GPRMC,115719.99,A,5200.3410,N,422.2889,E,0.5,-1.0,111223,0.0,E,A*1a
$GPVTG,-1.0,T,0.0,M,0.5,N,0.8,K*6f
$GPGGA,115719.99,5200.3410,N,00422.2889,E,12,12,1.3,0.2,M,0.0,M,0.0,0000*47
$GPGSA,A,3,01,02,03,04,05,06,07,08,09,10,11,12,1.4,1.2,0.5*32
$GPGSV,3,1,12,01,45,045,50,02,45,045,50,03,45,045,50,04,45,045,50*7c
$GPGSV,3,2,12,05,45,045,50,06,45,045,50,07,45,045,50,08,45,045,50*77
$GPGSV,3,3,12,09,45,045,50,10,45,045,50,11,45,045,50,12,45,045,50*71
$GPRMC,115720.99,A,5200.3411,N,422.2886,E,0.2,-1.0,111223,0.0,E,A*19
$GPVTG,-1.0,T,0.0,M,0.2,N,0.3,K*63
$GPGGA,115720.99,5200.3411,N,00422.2886,E,12,12,1.2,0.2,M,0.0,M,0.0,0000*42
$GPGSA,A,3,01,02,03,04,05,06,07,08,09,10,11,12,1.4,1.3,0.5*33
$GPGSV,3,1,12,01,45,045,50,02,45,045,50,03,45,045,50,04,45,045,50*7c
$GPGSV,3,2,12,05,45,045,50,06,45,045,50,07,45,045,50,08,45,045,50*77
$GPGSV,3,3,12,09,45,045,50,10,45,045,50,11,45,045,50,12,45,045,50*71
$GPRMC,115721.99,A,5200.3410,N,422.2882,E,0.3,-1.0,111223,0.0,E,A*1c
$GPVTG,-1.0,T,0.0,M,0.3,N,0.6,K*67
$GPGGA,115721.99,5200.3410,N,00422.2882,E,12,12,1.3,0.2,M,0.0,M,0.0,0000*47
$GPGSA,A,3,01,02,03,04,05,06,07,08,09,10,11,12,1.4,1.3,0.5*33
$GPGSV,3,1,12,01,45,045,50,02,45,045,50,03,45,045,50,04,45,045,50*7c
$GPGSV,3,2,12,05,45,045,50,06,45,045,50,07,45,045,50,08,45,045,50*77
$GPGSV,3,3,12,09,45,045,50,10,45,045,50,11,45,045,50,12,45,045,50*71
$GPRMC,115722.99,A,5200.3411,N,422.2872,E,0.3,-1.0,111223,0.0,E,A*11
$GPVTG,-1.0,T,0.0,M,0.3,N,0.6,K*67
$GPGGA,115722.99,5200.3411,N,00422.2872,E,12,12,1.3,0.2,M,0.0,M,0.0,0000*4a
$GPGSA,A,3,01,02,03,04,05,06,07,08,09,10,11,12,1.4,1.3,0.5*33
$GPGSV,3,1,12,01,45,045,50,02,45,045,50,03,45,045,50,04,45,045,50*7c
$GPGSV,3,2,12,05,45,045,50,06,45,045,50,07,45,045,50,08,45,045,50*77
$GPGSV,3,3,12,09,45,045,50,10,45,045,50,11,45,045,50,12,45,045,50*71
$GPRMC,115723.99,A,5200.3412,N,422.2864,E,0.5,-1.0,111223,0.0,E,A*12
$GPVTG,-1.0,T,0.0,M,0.5,N,0.9,K*6e
$GPGGA,115723.99,5200.3412,N,00422.2864,E,12,12,1.3,0.2,M,0.0,M,0.0,0000*4f
$GPGSA,A,3,01,02,03,04,05,06,07,08,09,10,11,12,1.4,1.3,0.5*33
$GPGSV,3,1,12,01,45,045,50,02,45,045,50,03,45,045,50,04,45,045,50*7c
$GPGSV,3,2,12,05,45,045,50,06,45,045,50,07,45,045,50,08,45,045,50*77
$GPGSV,3,3,12,09,45,045,50,10,45,045,50,11,45,045,50,12,45,045,50*71
$GPRMC,115724.99,A,5200.3413,N,422.2865,E,0.6,-1.0,111223,0.0,E,A*16
$GPVTG,-1.0,T,0.0,M,0.6,N,1.1,K*64
$GPGGA,115724.99,5200.3413,N,00422.2865,E,12,12,1.3,0.2,M,0.0,M,0.0,0000*48
$GPGSA,A,3,01,02,03,04,05,06,07,08,09,10,11,12,1.4,1.3,0.5*33
$GPGSV,3,1,12,01,45,045,50,02,45,045,50,03,45,045,50,04,45,045,50*7c
$GPGSV,3,2,12,05,45,045,50,06,45,045,50,07,45,045,50,08,45,045,50*77
$GPGSV,3,3,12,09,45,045,50,10,45,045,50,11,45,045,50,12,45,045,50*71
$GPRMC,115725.99,A,5200.3412,N,422.2869,E,0.5,-1.0,111223,0.0,E,A*19
$GPVTG,-1.0,T,0.0,M,0.5,N,1.0,K*66
$GPGGA,115725.99,5200.3412,N,00422.2869,E,12,12,1.3,0.2,M,0.0,M,0.0,0000*44
$GPGSA,A,3,01,02,03,04,05,06,07,08,09,10,11,12,1.4,1.3,0.5*33
$GPGSV,3,1,12,01,45,045,50,02,45,045,50,03,45,045,50,04,45,045,50*7c
$GPGSV,3,2,12,05,45,045,50,06,45,045,50,07,45,045,50,08,45,045,50*77
$GPGSV,3,3,12,09,45,045,50,10,45,045,50,11,45,045,50,12,45,045,50*71
$GPRMC,115726.99,A,5200.3407,N,422.2876,E,0.3,-1.0,111223,0.0,E,A*16
$GPVTG,-1.0,T,0.0,M,0.3,N,0.6,K*67
$GPGGA,115726.99,5200.3407,N,00422.2876,E,12,12,1.3,0.2,M,0.0,M,0.0,0000*4d
$GPGSA,A,3,01,02,03,04,05,06,07,08,09,10,11,12,1.4,1.3,0.5*33
$GPGSV,3,1,12,01,45,045,50,02,45,045,50,03,45,045,50,04,45,045,50*7c
$GPGSV,3,2,12,05,45,045,50,06,45,045,50,07,45,045,50,08,45,045,50*77
$GPGSV,3,3,12,09,45,045,50,10,45,045,50,11,45,045,50,12,45,045,50*71
$GPRMC,115727.99,A,5200.3410,N,422.2883,E,0.1,-1.0,111223,0.0,E,A*19
$GPVTG,-1.0,T,0.0,M,0.1,N,0.1,K*62
$GPGGA,115727.99,5200.3410,N,00422.2883,E,12,12,1.3,0.2,M,0.0,M,0.0,0000*40
$GPGSA,A,3,01,02,03,04,05,06,07,08,09,10,11,12,1.4,1.3,0.5*33
$GPGSV,3,1,12,01,45,045,50,02,45,045,50,03,45,045,50,04,45,045,50*7c
$GPGSV,3,2,12,05,45,045,50,06,45,045,50,07,45,045,50,08,45,045,50*77
$GPGSV,3,3,12,09,45,045,50,10,45,045,50,11,45,045,50,12,45,045,50*71
$GPRMC,115728.99,A,5200.3411,N,422.2872,E,1.6,-1.0,111223,0.0,E,A*1f
$GPVTG,-1.0,T,0.0,M,1.6,N,2.9,K*6e
$GPGGA,115728.99,5200.3411,N,00422.2872,E,12,12,1.3,0.1,M,0.0,M,0.0,0000*43
$GPGSA,A,3,01,02,03,04,05,06,07,08,09,10,11,12,1.4,1.3,0.5*33
$GPGSV,3,1,12,01,45,045,50,02,45,045,50,03,45,045,50,04,45,045,50*7c
$GPGSV,3,2,12,05,45,045,50,06,45,045,50,07,45,045,50,08,45,045,50*77
$GPGSV,3,3,12,09,45,045,50,10,45,045,50,11,45,045,50,12,45,045,50*71
$GPRMC,115729.99,A,5200.3411,N,422.2879,E,0.2,-1.0,111223,0.0,E,A*10
$GPVTG,-1.0,T,0.0,M,0.2,N,0.4,K*64
$GPGGA,115729.99,5200.3411,N,00422.2879,E,12,12,1.3,0.2,M,0.0,M,0.0,0000*4a
$GPGSA,A,3,01,02,03,04,05,06,07,08,09,10,11,12,1.4,1.3,0.5*33
$GPGSV,3,1,12,01,45,045,50,02,45,045,50,03,45,045,50,04,45,045,50*7c
$GPGSV,3,2,12,05,45,045,50,06,45,045,50,07,45,045,50,08,45,045,50*77
$GPGSV,3,3,12,09,45,045,50,10,45,045,50,11,45,045,50,12,45,045,50*71
$GPRMC,115730.99,A,5200.3411,N,422.2891,E,0.7,-1.0,111223,0.0,E,A*1b
$GPVTG,-1.0,T,0.0,M,0.7,N,1.2,K*66
$GPGGA,115730.99,5200.3411,N,00422.2891,E,12,12,1.3,0.2,M,0.0,M,0.0,0000*44
$GPGSA,A,3,01,02,03,04,05,06,07,08,09,10,11,12,1.4,1.2,0.6*31
$GPGSV,3,1,12,01,45,045,50,02,45,045,50,03,45,045,50,04,45,045,50*7c
$GPGSV,3,2,12,05,45,045,50,06,45,045,50,07,45,045,50,08,45,045,50*77
$GPGSV,3,3,12,09,45,045,50,10,45,045,50,11,45,045,50,12,45,045,50*71
$GPRMC,115731.99,A,5200.3418,N,422.2873,E,0.4,-1.0,111223,0.0,E,A*1c
$GPVTG,-1.0,T,0.0,M,0.4,N,0.7,K*61
$GPGGA,115731.99,5200.3418,N,00422.2873,E,12,12,1.2,0.2,M,0.0,M,0.0,0000*41
$GPGSA,A,3,01,02,03,04,05,06,07,08,09,10,11,12,1.3,1.2,0.6*36
$GPGSV,3,1,12,01,45,045,50,02,45,045,50,03,45,045,50,04,45,045,50*7c
$GPGSV,3,2,12,05,45,045,50,06,45,045,50,07,45,045,50,08,45,045,50*77
$GPGSV,3,3,12,09,45,045,50,10,45,045,50,11,45,045,50,12,45,045,50*71
$GPRMC,115732.99,A,5200.3419,N,422.2880,E,0.1,-1.0,111223,0.0,E,A*17
$GPVTG,-1.0,T,0.0,M,0.1,N,0.2,K*61
$GPGGA,115732.99,5200.3419,N,00422.2880,E,12,12,1.2,0.3,M,0.0,M,0.0,0000*4e
$GPGSA,A,3,01,02,03,04,05,06,07,08,09,10,11,12,1.3,1.2,0.6*36
$GPGSV,3,1,12,01,45,045,50,02,45,045,50,03,45,045,50,04,45,045,50*7c
$GPGSV,3,2,12,05,45,045,50,06,45,045,50,07,45,045,50,08,45,045,50*77
$GPGSV,3,3,12,09,45,045,50,10,45,045,50,11,45,045,50,12,45,045,50*71
$GPRMC,115733.99,A,5200.3422,N,422.2878,E,0.2,-1.0,111223,0.0,E,A*1a
$GPVTG,-1.0,T,0.0,M,0.2,N,0.4,K*64
$GPGGA,115733.99,5200.3422,N,00422.2878,E,12,12,1.2,0.3,M,0.0,M,0.0,0000*40
$GPGSA,A,3,01,02,03,04,05,06,07,08,09,10,11,12,1.3,1.2,0.6*36
$GPGSV,3,1,12,01,45,045,50,02,45,045,50,03,45,045,50,04,45,045,50*7c
$GPGSV,3,2,12,05,45,045,50,06,45,045,50,07,45,045,50,08,45,045,50*77
$GPGSV,3,3,12,09,45,045,50,10,45,045,50,11,45,045,50,12,45,045,50*71
$GPRMC,115734.99,A,5200.3422,N,422.2880,E,0.1,-1.0,111223,0.0,E,A*19
$GPVTG,-1.0,T,0.0,M,0.1,N,0.2,K*61
$GPGGA,115734.99,5200.3422,N,00422.2880,E,12,12,1.2,0.3,M,0.0,M,0.0,0000*40
$GPGSA,A,3,01,02,03,04,05,06,07,08,09,10,11,12,1.3,1.2,0.6*36
$GPGSV,3,1,12,01,45,045,50,02,45,045,50,03,45,045,50,04,45,045,50*7c
$GPGSV,3,2,12,05,45,045,50,06,45,045,50,07,45,045,50,08,45,045,50*77
$GPGSV,3,3,12,09,45,045,50,10,45,045,50,11,45,045,50,12,45,045,50*71
$GPRMC,115735.99,A,5200.3421,N,422.2884,E,0.5,-1.0,111223,0.0,E,A*1b
$GPVTG,-1.0,T,0.0,M,0.5,N,0.9,K*6e
$GPGGA,115735.99,5200.3421,N,00422.2884,E,12,12,1.2,0.3,M,0.0,M,0.0,0000*46
$GPGSA,A,3,01,02,03,04,05,06,07,08,09,10,11,12,1.3,1.2,0.6*36
$GPGSV,3,1,12,01,45,045,50,02,45,045,50,03,45,045,50,04,45,045,50*7c
$GPGSV,3,2,12,05,45,045,50,06,45,045,50,07,45,045,50,08,45,045,50*77
$GPGSV,3,3,12,09,45,045,50,10,45,045,50,11,45,045,50,12,45,045,50*71
$GPRMC,115736.99,A,5200.3423,N,422.2888,E,0.8,-1.0,111223,0.0,E,A*1b
$GPVTG,-1.0,T,0.0,M,0.8,N,1.5,K*6e
$GPGGA,115736.99,5200.3423,N,00422.2888,E,12,12,1.2,0.3,M,0.0,M,0.0,0000*4b
$GPGSA,A,3,01,02,03,04,05,06,07,08,09,10,11,12,1.3,1.2,0.6*36
$GPGSV,3,1,12,01,45,045,50,02,45,045,50,03,45,045,50,04,45,045,50*7c
$GPGSV,3,2,12,05,45,045,50,06,45,045,50,07,45,045,50,08,45,045,50*77
$GPGSV,3,3,12,09,45,045,50,10,45,045,50,11,45,045,50,12,45,045,50*71
$GPRMC,115737.99,A,5200.3422,N,422.2896,E,0.3,-1.0,111223,0.0,E,A*1f
$GPVTG,-1.0,T,0.0,M,0.3,N,0.6,K*67
$GPGGA,115737.99,5200.3422,N,00422.2896,E,12,12,1.2,0.3,M,0.0,M,0.0,0000*44
$GPGSA,A,3,01,02,03,04,05,06,07,08,09,10,11,12,1.3,1.2,0.6*36
$GPGSV,3,1,12,01,45,045,50,02,45,045,50,03,45,045,50,04,45,045,50*7c
$GPGSV,3,2,12,05,45,045,50,06,45,045,50,07,45,045,50,08,45,045,50*77
$GPGSV,3,3,12,09,45,045,50,10,45,045,50,11,45,045,50,12,45,045,50*71
$GPRMC,115738.99,A,5200.3421,N,422.2902,E,0.3,-1.0,111223,0.0,E,A*1f
$GPVTG,-1.0,T,0.0,M,0.3,N,0.6,K*67
$GPGGA,115738.99,5200.3421,N,00422.2902,E,12,12,1.2,0.2,M,0.0,M,0.0,0000*45
$GPGSA,A,3,01,02,03,04,05,06,07,08,09,10,11,12,1.3,1.2,0.6*36
$GPGSV,3,1,12,01,45,045,50,02,45,045,50,03,45,045,50,04,45,045,50*7c
$GPGSV,3,2,12,05,45,045,50,06,45,045,50,07,45,045,50,08,45,045,50*77
$GPGSV,3,3,12,09,45,045,50,10,45,045,50,11,45,045,50,12,45,045,50*71
$GPRMC,115739.99,A,5200.3421,N,422.2896,E,1.1,-1.0,111223,0.0,E,A*11
$GPVTG,-1.0,T,0.0,M,1.1,N,2.0,K*60
$GPGGA,115739.99,5200.3421,N,00422.2896,E,12,12,1.2,0.2,M,0.0,M,0.0,0000*48
$GPGSA,A,3,01,02,03,04,05,06,07,08,09,10,11,12,1.3,1.2,0.6*36
$GPGSV,3,1,12,01,45,045,50,02,45,045,50,03,45,045,50,04,45,045,50*7c
$GPGSV,3,2,12,05,45,045,50,06,45,045,50,07,45,045,50,08,45,045,50*77
$GPGSV,3,3,12,09,45,045,50,10,45,045,50,11,45,045,50,12,45,045,50*71
$GPRMC,115740.99,A,5200.3424,N,422.2886,E,1.0,-1.0,111223,0.0,E,A*1a
$GPVTG,-1.0,T,0.0,M,1.0,N,1.9,K*6b
$GPGGA,115740.99,5200.3424,N,00422.2886,E,12,12,1.2,0.1,M,0.0,M,0.0,0000*41
$GPGSA,A,3,01,02,03,04,05,06,07,08,09,10,11,12,1.3,1.2,0.6*36
$GPGSV,3,1,12,01,45,045,50,02,45,045,50,03,45,045,50,04,45,045,50*7c
$GPGSV,3,2,12,05,45,045,50,06,45,045,50,07,45,045,50,08,45,045,50*77
$GPGSV,3,3,12,09,45,045,50,10,45,045,50,11,45,045,50,12,45,045,50*71
$GPRMC,115741.99,A,5200.3424,N,422.2881,E,0.3,-1.0,111223,0.0,E,A*1e
$GPVTG,-1.0,T,0.0,M,0.3,N,0.5,K*64
$GPGGA,115741.99,5200.3424,N,00422.2881,E,12,12,1.2,0.0,M,0.0,M,0.0,0000*46
$GPGSA,A,3,01,02,03,04,05,06,07,08,09,10,11,12,1.3,1.2,0.6*36
$GPGSV,3,1,12,01,45,045,50,02,45,045,50,03,45,045,50,04,45,045,50*7c
$GPGSV,3,2,12,05,45,045,50,06,45,045,50,07,45,045,50,08,45,045,50*77
$GPGSV,3,3,12,09,45,045,50,10,45,045,50,11,45,045,50,12,45,045,50*71
$GPRMC,115742.99,A,5200.3425,N,422.2871,E,1.1,-1.0,111223,0.0,E,A*10
$GPVTG,-1.0,T,0.0,M,1.1,N,2.0,K*60
$GPGGA,115742.99,5200.3425,N,00422.2871,E,12,12,1.2,0.0,M,0.0,M,0.0,0000*4b
$GPGSA,A,3,01,02,03,04,05,06,07,08,09,10,11,12,1.3,1.2,0.6*36
$GPGSV,3,1,12,01,45,045,50,02,45,045,50,03,45,045,50,04,45,045,50*7c
$GPGSV,3,2,12,05,45,045,50,06,45,045,50,07,45,045,50,08,45,045,50*77
$GPGSV,3,3,12,09,45,045,50,10,45,045,50,11,45,045,50,12,45,045,50*71
$GPRMC,115743.99,A,5200.3424,N,422.2880,E,0.7,-1.0,111223,0.0,E,A*19
$GPVTG,-1.0,T,0.0,M,0.7,N,1.3,K*67
$GPGGA,115743.99,5200.3424,N,00422.2880,E,12,12,1.2,-0.0,M,0.0,M,0.0,0000*68
$GPGSA,A,3,01,02,03,04,05,06,07,08,09,10,11,12,1.3,1.2,0.6*36
$GPGSV,3,1,12,01,45,045,50,02,45,045,50,03,45,045,50,04,45,045,50*7c
$GPGSV,3,2,12,05,45,045,50,06,45,045,50,07,45,045,50,08,45,045,50*77
$GPGSV,3,3,12,09,45,045,50,10,45,045,50,11,45,045,50,12,45,045,50*71
$GPRMC,115744.99,A,5200.3423,N,422.2890,E,0.2,-1.0,111223,0.0,E,A*1d
$GPVTG,-1.0,T,0.0,M,0.2,N,0.4,K*64
$GPGGA,115744.99,5200.3423,N,00422.2890,E,12,12,1.2,-0.0,M,0.0,M,0.0,0000*69
$GPGSA,A,3,01,02,03,04,05,06,07,08,09,10,11,12,1.3,1.2,0.6*36
$GPGSV,3,1,12,01,45,045,50,02,45,045,50,03,45,045,50,04,45,045,50*7c
$GPGSV,3,2,12,05,45,045,50,06,45,045,50,07,45,045,50,08,45,045,50*77
$GPGSV,3,3,12,09,45,045,50,10,45,045,50,11,45,045,50,12,45,045,50*71
$GPRMC,115745.99,A,5200.3420,N,422.2898,E,0.1,-1.0,111223,0.0,E,A*14
$GPVTG,-1.0,T,0.0,M,0.1,N,0.3,K*60
$GPGGA,115745.99,5200.3420,N,00422.2898,E,12,12,1.2,0.1,M,0.0,M,0.0,0000*4f
$GPGSA,A,3,01,02,03,04,05,06,07,08,09,10,11,12,1.3,1.2,0.6*36
$GPGSV,3,1,12,01,45,045,50,02,45,045,50,03,45,045,50,04,45,045,50*7c
$GPGSV,3,2,12,05,45,045,50,06,45,045,50,07,45,045,50,08,45,045,50*77
$GPGSV,3,3,12,09,45,045,50,10,45,045,50,11,45,045,50,12,45,045,50*71
$GPRMC,115746.99,A,5200.3421,N,422.2899,E,0.5,-1.0,111223,0.0,E,A*13
$GPVTG,-1.0,T,0.0,M,0.5,N,0.9,K*6e
$GPGGA,115746.99,5200.3421,N,00422.2899,E,12,12,1.2,0.1,M,0.0,M,0.0,0000*4c
$GPGSA,A,3,01,02,03,04,05,06,07,08,09,10,11,12,1.4,1.2,0.6*31
$GPGSV,3,1,12,01,45,045,50,02,45,045,50,03,45,045,50,04,45,045,50*7c
$GPGSV,3,2,12,05,45,045,50,06,45,045,50,07,45,045,50,08,45,045,50*77
$GPGSV,3,3,12,09,45,045,50,10,45,045,50,11,45,045,50,12,45,045,50*71
$GPRMC,115747.99,A,5200.3421,N,422.2897,E,0.3,-1.0,111223,0.0,E,A*1a
$GPVTG,-1.0,T,0.0,M,0.3,N,0.5,K*64
$GPGGA,115747.99,5200.3421,N,00422.2897,E,12,12,1.2,0.1,M,0.0,M,0.0,0000*43
$GPGSA,A,3,01,02,03,04,05,06,07,08,09,10,11,12,1.4,1.3,0.6*30
$GPGSV,3,1,12,01,45,045,50,02,45,045,50,03,45,045,50,04,45,045,50*7c
$GPGSV,3,2,12,05,45,045,50,06,45,045,50,07,45,045,50,08,45,045,50*77
$GPGSV,3,3,12,09,45,045,50,10,45,045,50,11,45,045,50,12,45,045,50*71
$GPRMC,115748.99,A,5200.3421,N,422.2893,E,0.3,-1.0,111223,0.0,E,A*11
$GPVTG,-1.0,T,0.0,M,0.3,N,0.6,K*67
$GPGGA,115748.99,5200.3421,N,00422.2893,E,12,12,1.3,0.0,M,0.0,M,0.0,0000*48
$GPGSA,A,3,01,02,03,04,05,06,07,08,09,10,11,12,1.4,1.3,0.6*30
$GPGSV,3,1,12,01,45,045,50,02,45,045,50,03,45,045,50,04,45,045,50*7c
$GPGSV,3,2,12,05,45,045,50,06,45,045,50,07,45,045,50,08,45,045,50*77
$GPGSV,3,3,12,09,45,045,50,10,45,045,50,11,45,045,50,12,45,045,50*71
$GPRMC,115749.99,A,5200.3417,N,422.2893,E,0.1,-1.0,111223,0.0,E,A*17
$GPVTG,-1.0,T,0.0,M,0.1,N,0.1,K*62
$GPGGA,115749.99,5200.3417,N,00422.2893,E,12,12,1.3,0.1,M,0.0,M,0.0,0000*4d
$GPGSA,A,3,01,02,03,04,05,06,07,08,09,10,11,12,1.4,1.3,0.6*30
$GPGSV,3,1,12,01,45,045,50,02,45,045,50,03,45,045,50,04,45,045,50*7c
$GPGSV,3,2,12,05,45,045,50,06,45,045,50,07,45,045,50,08,45,045,50*77
$GPGSV,3,3,12,09,45,045,50,10,45,045,50,11,45,045,50,12,45,045,50*71
$GPRMC,115750.99,A,5200.3416,N,422.2895,E,0.4,-1.0,111223,0.0,E,A*1d
$GPVTG,-1.0,T,0.0,M,0.4,N,0.7,K*61
$GPGGA,115750.99,5200.3416,N,00422.2895,E,12,12,1.3,0.2,M,0.0,M,0.0,0000*41
$GPGSA,A,3,01,02,03,04,05,06,07,08,09,10,11,12,1.4,1.3,0.6*30
$GPGSV,3,1,12,01,45,045,50,02,45,045,50,03,45,045,50,04,45,045,50*7c
$GPGSV,3,2,12,05,45,045,50,06,45,045,50,07,45,045,50,08,45,045,50*77
$GPGSV,3,3,12,09,45,045,50,10,45,045,50,11,45,045,50,12,45,045,50*71
$GPRMC,115751.99,A,5200.3415,N,422.2896,E,0.9,-1.0,111223,0.0,E,A*11
$GPVTG,-1.0,T,0.0,M,0.9,N,1.7,K*6d
$GPGGA,115751.99,5200.3415,N,00422.2896,E,12,12,1.3,0.3,M,0.0,M,0.0,0000*41
$GPGSA,A,3,01,02,03,04,05,06,07,08,09,10,11,12,1.4,1.3,0.6*30
$GPGSV,3,1,12,01,45,045,50,02,45,045,50,03,45,045,50,04,45,045,50*7c
$GPGSV,3,2,12,05,45,045,50,06,45,045,50,07,45,045,50,08,45,045,50*77
$GPGSV,3,3,12,09,45,045,50,10,45,045,50,11,45,045,50,12,45,045,50*71
$GPRMC,115752.99,A,5200.3416,N,422.2887,E,1.2,-1.0,111223,0.0,E,A*1b
$GPVTG,-1.0,T,0.0,M,1.2,N,2.2,K*61
$GPGGA,115752.99,5200.3416,N,00422.2887,E,12,12,1.3,0.2,M,0.0,M,0.0,0000*40
$GPGSA,A,3,01,02,03,04,05,06,07,08,09,10,11,12,1.3,1.2,0.6*36
$GPGSV,3,1,12,01,45,045,50,02,45,045,50,03,45,045,50,04,45,045,50*7c
$GPGSV,3,2,12,05,45,045,50,06,45,045,50,07,45,045,50,08,45,045,50*77
$GPGSV,3,3,12,09,45,045,50,10,45,045,50,11,45,045,50,12,45,045,50*71
$GPRMC,115753.99,A,5200.3412,N,422.2886,E,0.2,-1.0,111223,0.0,E,A*1e
$GPVTG,-1.0,T,0.0,M,0.2,N,0.4,K*64
$GPGGA,115753.99,5200.3412,N,00422.2886,E,12,12,1.2,0.2,M,0.0,M,0.0,0000*45
$GPGSA,A,3,01,02,03,04,05,06,07,08,09,10,11,12,1.3,1.1,0.6*35
$GPGSV,3,1,12,01,45,045,50,02,45,045,50,03,45,045,50,04,45,045,50*7c
$GPGSV,3,2,12,05,45,045,50,06,45,045,50,07,45,045,50,08,45,045,50*77
$GPGSV,3,3,12,09,45,045,50,10,45,045,50,11,45,045,50,12,45,045,50*71
$GPRMC,115754.99,A,5200.3412,N,422.2886,E,0.0,-1.0,111223,0.0,E,A*1b
$GPVTG,-1.0,T,0.0,M,0.0,N,0.0,K*62
$GPGGA,115754.99,5200.3412,N,00422.2886,E,12,12,1.1,0.2,M,0.0,M,0.0,0000*41
$GPGSA,A,3,01,02,03,04,05,06,07,08,09,10,11,12,1.2,1.1,0.6*34
$GPGSV,3,1,12,01,45,045,50,02,45,045,50,03,45,045,50,04,45,045,50*7c
$GPGSV,3,2,12,05,45,045,50,06,45,045,50,07,45,045,50,08,45,045,50*77
$GPGSV,3,3,12,09,45,045,50,10,45,045,50,11,45,045,50,12,45,045,50*71
$GPRMC,115755.99,A,5200.3412,N,422.2886,E,0.0,-1.0,111223,0.0,E,A*1a
$GPVTG,-1.0,T,0.0,M,0.0,N,0.0,K*62
$GPGGA,115755.99,5200.3412,N,00422.2886,E,12,12,1.1,0.2,M,0.0,M,0.0,0000*40
$GPGSA,A,3,01,02,03,04,05,06,07,08,09,10,11,12,1.2,1.1,0.6*34
$GPGSV,3,1,12,01,45,045,50,02,45,045,50,03,45,045,50,04,45,045,50*7c
$GPGSV,3,2,12,05,45,045,50,06,45,045,50,07,45,045,50,08,45,045,50*77
$GPGSV,3,3,12,09,45,045,50,10,45,045,50,11,45,045,50,12,45,045,50*71
$GPRMC,115756.99,A,5200.3412,N,422.2886,E,0.0,-1.0,111223,0.0,E,A*19
$GPVTG,-1.0,T,0.0,M,0.0,N,0.0,K*62
$GPGGA,115756.99,5200.3412,N,00422.2886,E,12,12,1.1,0.2,M,0.0,M,0.0,0000*43
$GPGSA,A,3,01,02,03,04,05,06,07,08,09,10,11,12,1.2,1.1,0.6*34
$GPGSV,3,1,12,01,45,045,50,02,45,045,50,03,45,045,50,04,45,045,50*7c
$GPGSV,3,2,12,05,45,045,50,06,45,045,50,07,45,045,50,08,45,045,50*77
$GPGSV,3,3,12,09,45,045,50,10,45,045,50,11,45,045,50,12,45,045,50*71
$GPRMC,115757.99,A,5200.3412,N,422.2886,E,0.0,-1.0,111223,0.0,E,A*18
$GPVTG,-1.0,T,0.0,M,0.0,N,0.0,K*62
$GPGGA,115757.99,5200.3412,N,00422.2886,E,12,12,1.1,0.2,M,0.0,M,0.0,0000*42
$GPGSA,A,3,01,02,03,04,05,06,07,08,09,10,11,12,1.2,1.1,0.6*34
$GPGSV,3,1,12,01,45,045,50,02,45,045,50,03,45,045,50,04,45,045,50*7c
$GPGSV,3,2,12,05,45,045,50,06,45,045,50,07,45,045,50,08,45,045,50*77
$GPGSV,3,3,12,09,45,045,50,10,45,045,50,11,45,045,50,12,45,045,50*71
$GPRMC,115758.99,A,5200.3412,N,422.2886,E,0.0,-1.0,111223,0.0,E,A*17
$GPVTG,-1.0,T,0.0,M,0.0,N,0.0,K*62
$GPGGA,115758.99,5200.3412,N,00422.2886,E,12,12,1.1,0.2,M,0.0,M,0.0,0000*4d
$GPGSA,A,3,01,02,03,04,05,06,07,08,09,10,11,12,1.2,1.1,0.6*34
$GPGSV,3,1,12,01,45,045,50,02,45,045,50,03,45,045,50,04,45,045,50*7c
$GPGSV,3,2,12,05,45,045,50,06,45,045,50,07,45,045,50,08,45,045,50*77
$GPGSV,3,3,12,09,45,045,50,10,45,045,50,11,45,045,50,12,45,045,50*71
$GPRMC,115759.99,A,5200.3412,N,422.2886,E,0.0,-1.0,111223,0.0,E,A*16
$GPVTG,-1.0,T,0.0,M,0.0,N,0.0,K*62
$GPGGA,115759.99,5200.3412,N,00422.2886,E,12,12,1.1,0.2,M,0.0,M,0.0,0000*4c
$GPGSA,A,3,01,02,03,04,05,06,07,08,09,10,11,12,1.2,1.0,0.6*35
$GPGSV,3,1,12,01,45,045,50,02,45,045,50,03,45,045,50,04,45,045,50*7c
$GPGSV,3,2,12,05,45,045,50,06,45,045,50,07,45,045,50,08,45,045,50*77
$GPGSV,3,3,12,09,45,045,50,10,45,045,50,11,45,045,50,12,45,045,50*71
$GPRMC,115800.99,A,5200.3412,N,422.2886,E,0.0,-1.0,111223,0.0,E,A*15
$GPVTG,-1.0,T,0.0,M,0.0,N,0.0,K*62
$GPGGA,115800.99,5200.3412,N,00422.2886,E,12,12,1.0,0.2,M,0.0,M,0.0,0000*4e
$GPGSA,A,3,01,02,03,04,05,06,07,08,09,10,11,12,1.2,1.0,0.6*35
$GPGSV,3,1,12,01,45,045,50,02,45,045,50,03,45,045,50,04,45,045,50*7c
$GPGSV,3,2,12,05,45,045,50,06,45,045,50,07,45,045,50,08,45,045,50*77
$GPGSV,3,3,12,09,45,045,50,10,45,045,50,11,45,045,50,12,45,045,50*71
$GPRMC,115801.99,A,5200.3412,N,422.2886,E,0.0,-1.0,111223,0.0,E,A*14
$GPVTG,-1.0,T,0.0,M,0.0,N,0.0,K*62
$GPGGA,115801.99,5200.3412,N,00422.2886,E,12,12,1.0,0.2,M,0.0,M,0.0,0000*4f
$GPGSA,A,3,01,02,03,04,05,06,07,08,09,10,11,12,1.2,1.0,0.6*35
$GPGSV,3,1,12,01,45,045,50,02,45,045,50,03,45,045,50,04,45,045,50*7c
$GPGSV,3,2,12,05,45,045,50,06,45,045,50,07,45,045,50,08,45,045,50*77
$GPGSV,3,3,12,09,45,045,50,10,45,045,50,11,45,045,50,12,45,045,50*71
$GPRMC,115802.99,A,5200.3412,N,422.2886,E,0.0,-1.0,111223,0.0,E,A*17
$GPVTG,-1.0,T,0.0,M,0.0,N,0.0,K*62
$GPGGA,115802.99,5200.3412,N,00422.2886,E,12,12,1.0,0.2,M,0.0,M,0.0,0000*4c
$GPGSA,A,3,01,02,03,04,05,06,07,08,09,10,11,12,1.2,1.0,0.6*35
$GPGSV,3,1,12,01,45,045,50,02,45,045,50,03,45,045,50,04,45,045,50*7c
$GPGSV,3,2,12,05,45,045,50,06,45,045,50,07,45,045,50,08,45,045,50*77
$GPGSV,3,3,12,09,45,045,50,10,45,045,50,11,45,045,50,12,45,045,50*71
$GPRMC,115803.99,A,5200.3412,N,422.2886,E,0.0,-1.0,111223,0.0,E,A*16
$GPVTG,-1.0,T,0.0,M,0.0,N,0.0,K*62
$GPGGA,115803.99,5200.3412,N,00422.2886,E,12,12,1.0,0.2,M,0.0,M,0.0,0000*4d
$GPGSA,A,3,01,02,03,04,05,06,07,08,09,10,11,12,1.2,1.0,0.6*35
$GPGSV,3,1,12,01,45,045,50,02,45,045,50,03,45,045,50,04,45,045,50*7c
$GPGSV,3,2,12,05,45,045,50,06,45,045,50,07,45,045,50,08,45,045,50*77
$GPGSV,3,3,12,09,45,045,50,10,45,045,50,11,45,045,50,12,45,045,50*71
$GPRMC,115804.99,A,5200.3412,N,422.2886,E,0.0,-1.0,111223,0.0,E,A*11
$GPVTG,-1.0,T,0.0,M,0.0,N,0.0,K*62
$GPGGA,115804.99,5200.3412,N,00422.2886,E,12,12,1.0,0.2,M,0.0,M,0.0,0000*4a
$GPGSA,A,3,01,02,03,04,05,06,07,08,09,10,11,12,1.2,1.0,0.6*35
$GPGSV,3,1,12,01,45,045,50,02,45,045,50,03,45,045,50,04,45,045,50*7c
$GPGSV,3,2,12,05,45,045,50,06,45,045,50,07,45,045,50,08,45,045,50*77
$GPGSV,3,3,12,09,45,045,50,10,45,045,50,11,45,045,50,12,45,045,50*71
$GPRMC,115805.99,A,5200.3412,N,422.2886,E,0.0,-1.0,111223,0.0,E,A*10
$GPVTG,-1.0,T,0.0,M,0.0,N,0.0,K*62
$GPGGA,115805.99,5200.3412,N,00422.2886,E,12,12,1.0,0.2,M,0.0,M,0.0,0000*4b
$GPGSA,A,3,01,02,03,04,05,06,07,08,09,10,11,12,1.2,1.0,0.6*35
$GPGSV,3,1,12,01,45,045,50,02,45,045,50,03,45,045,50,04,45,045,50*7c
$GPGSV,3,2,12,05,45,045,50,06,45,045,50,07,45,045,50,08,45,045,50*77
$GPGSV,3,3,12,09,45,045,50,10,45,045,50,11,45,045,50,12,45,045,50*71
$GPRMC,115806.99,A,5200.3412,N,422.2886,E,0.0,-1.0,111223,0.0,E,A*13
$GPVTG,-1.0,T,0.0,M,0.0,N,0.0,K*62
$GPGGA,115806.99,5200.3412,N,00422.2886,E,12,12,1.0,0.2,M,0.0,M,0.0,0000*48
$GPGSA,A,3,01,02,03,04,05,06,07,08,09,10,11,12,1.2,1.0,0.6*35
$GPGSV,3,1,12,01,45,045,50,02,45,045,50,03,45,045,50,04,45,045,50*7c
$GPGSV,3,2,12,05,45,045,50,06,45,045,50,07,45,045,50,08,45,045,50*77
$GPGSV,3,3,12,09,45,045,50,10,45,045,50,11,45,045,50,12,45,045,50*71
$GPRMC,115807.99,A,5200.3412,N,422.2886,E,0.0,-1.0,111223,0.0,E,A*12
$GPVTG,-1.0,T,0.0,M,0.0,N,0.0,K*62
$GPGGA,115807.99,5200.3412,N,00422.2886,E,12,12,1.0,0.2,M,0.0,M,0.0,0000*49
$GPGSA,A,3,01,02,03,04,05,06,07,08,09,10,11,12,1.2,1.0,0.6*35
$GPGSV,3,1,12,01,45,045,50,02,45,045,50,03,45,045,50,04,45,045,50*7c
$GPGSV,3,2,12,05,45,045,50,06,45,045,50,07,45,045,50,08,45,045,50*77
$GPGSV,3,3,12,09,45,045,50,10,45,045,50,11,45,045,50,12,45,045,50*71
$GPRMC,115808.99,A,5200.3412,N,422.2886,E,0.0,-1.0,111223,0.0,E,A*1d
$GPVTG,-1.0,T,0.0,M,0.0,N,0.0,K*62
$GPGGA,115808.99,5200.3412,N,00422.2886,E,12,12,1.0,0.2,M,0.0,M,0.0,0000*46
$GPGSA,A,3,01,02,03,04,05,06,07,08,09,10,11,12,1.2,1.1,0.6*34
$GPGSV,3,1,12,01,45,045,50,02,45,045,50,03,45,045,50,04,45,045,50*7c
$GPGSV,3,2,12,05,45,045,50,06,45,045,50,07,45,045,50,08,45,045,50*77
$GPGSV,3,3,12,09,45,045,50,10,45,045,50,11,45,045,50,12,45,045,50*71
$GPRMC,115809.99,A,5200.3412,N,422.2886,E,0.0,-1.0,111223,0.0,E,A*1c
$GPVTG,-1.0,T,0.0,M,0.0,N,0.0,K*62
$GPGGA,115809.99,5200.3412,N,00422.2886,E,12,12,1.1,0.2,M,0.0,M,0.0,0000*46
$GPGSA,A,3,01,02,03,04,05,06,07,08,09,10,11,12,1.2,1.1,0.6*34
$GPGSV,3,1,12,01,45,045,50,02,45,045,50,03,45,045,50,04,45,045,50*7c
$GPGSV,3,2,12,05,45,045,50,06,45,045,50,07,45,045,50,08,45,045,50*77
$GPGSV,3,3,12,09,45,045,50,10,45,045,50,11,45,045,50,12,45,045,50*71
$GPRMC,115810.99,A,5200.3412,N,422.2886,E,0.0,-1.0,111223,0.0,E,A*14
$GPVTG,-1.0,T,0.0,M,0.0,N,0.0,K*62
$GPGGA,115810.99,5200.3412,N,00422.2886,E,12,12,1.1,0.2,M,0.0,M,0.0,0000*4e
$GPGSA,A,3,01,02,03,04,05,06,07,08,09,10,11,12,1.2,1.1,0.6*34
$GPGSV,3,1,12,01,45,045,50,02,45,045,50,03,45,045,50,04,45,045,50*7c
$GPGSV,3,2,12,05,45,045,50,06,45,045,50,07,45,045,50,08,45,045,50*77
$GPGSV,3,3,12,09,45,045,50,10,45,045,50,11,45,045,50,12,45,045,50*71
$GPRMC,115811.99,A,5200.3412,N,422.2886,E,0.0,-1.0,111223,0.0,E,A*15
$GPVTG,-1.0,T,0.0,M,0.0,N,0.0,K*62
$GPGGA,115811.99,5200.3412,N,00422.2886,E,12,12,1.1,0.2,M,0.0,M,0.0,0000*4f
$GPGSA,A,3,01,02,03,04,05,06,07,08,09,10,11,12,1.2,1.1,0.6*34
$GPGSV,3,1,12,01,45,045,50,02,45,045,50,03,45,045,50,04,45,045,50*7c
$GPGSV,3,2,12,05,45,045,50,06,45,045,50,07,45,045,50,08,45,045,50*77
$GPGSV,3,3,12,09,45,045,50,10,45,045,50,11,45,045,50,12,45,045,50*71
$GPRMC,115812.99,A,5200.3412,N,422.2886,E,0.0,-1.0,111223,0.0,E,A*16
$GPVTG,-1.0,T,0.0,M,0.0,N,0.0,K*62
$GPGGA,115812.99,5200.3412,N,00422.2886,E,12,12,1.1,0.2,M,0.0,M,0.0,0000*4c
$GPGSA,A,3,01,02,03,04,05,06,07,08,09,10,11,12,1.2,1.1,0.6*34
$GPGSV,3,1,12,01,45,045,50,02,45,045,50,03,45,045,50,04,45,045,50*7c
$GPGSV,3,2,12,05,45,045,50,06,45,045,50,07,45,045,50,08,45,045,50*77
$GPGSV,3,3,12,09,45,045,50,10,45,045,50,11,45,045,50,12,45,045,50*71
$GPRMC,115813.99,A,5200.3412,N,422.2886,E,0.0,-1.0,111223,0.0,E,A*17
$GPVTG,-1.0,T,0.0,M,0.0,N,0.0,K*62
$GPGGA,115813.99,5200.3412,N,00422.2886,E,12,12,1.1,0.2,M,0.0,M,0.0,0000*4d
$GPGSA,A,3,01,02,03,04,05,06,07,08,09,10,11,12,1.2,1.1,0.6*34
$GPGSV,3,1,12,01,45,045,50,02,45,045,50,03,45,045,50,04,45,045,50*7c
$GPGSV,3,2,12,05,45,045,50,06,45,045,50,07,45,045,50,08,45,045,50*77
$GPGSV,3,3,12,09,45,045,50,10,45,045,50,11,45,045,50,12,45,045,50*71
$GPRMC,115814.99,A,5200.3412,N,422.2886,E,0.0,-1.0,111223,0.0,E,A*10
$GPVTG,-1.0,T,0.0,M,0.0,N,0.0,K*62
$GPGGA,115814.99,5200.3412,N,00422.2886,E,12,12,1.1,0.2,M,0.0,M,0.0,0000*4a
$GPGSA,A,3,01,02,03,04,05,06,07,08,09,10,11,12,1.2,1.1,0.6*34
$GPGSV,3,1,12,01,45,045,50,02,45,045,50,03,45,045,50,04,45,045,50*7c
$GPGSV,3,2,12,05,45,045,50,06,45,045,50,07,45,045,50,08,45,045,50*77
$GPGSV,3,3,12,09,45,045,50,10,45,045,50,11,45,045,50,12,45,045,50*71
$GPRMC,115815.99,A,5200.3412,N,422.2886,E,0.0,-1.0,111223,0.0,E,A*11
$GPVTG,-1.0,T,0.0,M,0.0,N,0.0,K*62
$GPGGA,115815.99,5200.3412,N,00422.2886,E,12,12,1.1,0.2,M,0.0,M,0.0,0000*4b
$GPGSA,A,3,01,02,03,04,05,06,07,08,09,10,11,12,1.2,1.1,0.6*34
$GPGSV,3,1,12,01,45,045,50,02,45,045,50,03,45,045,50,04,45,045,50*7c
$GPGSV,3,2,12,05,45,045,50,06,45,045,50,07,45,045,50,08,45,045,50*77
$GPGSV,3,3,12,09,45,045,50,10,45,045,50,11,45,045,50,12,45,045,50*71
$GPRMC,115816.99,A,5200.3412,N,422.2886,E,0.0,-1.0,111223,0.0,E,A*12
$GPVTG,-1.0,T,0.0,M,0.0,N,0.0,K*62
$GPGGA,115816.99,5200.3412,N,00422.2886,E,12,12,1.1,0.2,M,0.0,M,0.0,0000*48
$GPGSA,A,3,01,02,03,04,05,06,07,08,09,10,11,12,1.2,1.1,0.6*34
$GPGSV,3,1,12,01,45,045,50,02,45,045,50,03,45,045,50,04,45,045,50*7c
$GPGSV,3,2,12,05,45,045,50,06,45,045,50,07,45,045,50,08,45,045,50*77
$GPGSV,3,3,12,09,45,045,50,10,45,045,50,11,45,045,50,12,45,045,50*71
$GPRMC,115817.99,A,5200.3412,N,422.2886,E,0.0,-1.0,111223,0.0,E,A*13
$GPVTG,-1.0,T,0.0,M,0.0,N,0.0,K*62
$GPGGA,115817.99,5200.3412,N,00422.2886,E,12,12,1.1,0.2,M,0.0,M,0.0,0000*49
$GPGSA,A,3,01,02,03,04,05,06,07,08,09,10,11,12,1.2,1.1,0.6*34
$GPGSV,3,1,12,01,45,045,50,02,45,045,50,03,45,045,50,04,45,045,50*7c
$GPGSV,3,2,12,05,45,045,50,06,45,045,50,07,45,045,50,08,45,045,50*77
$GPGSV,3,3,12,09,45,045,50,10,45,045,50,11,45,045,50,12,45,045,50*71
$GPRMC,115818.99,A,5200.3412,N,422.2886,E,0.0,-1.0,111223,0.0,E,A*1c
$GPVTG,-1.0,T,0.0,M,0.0,N,0.0,K*62
$GPGGA,115818.99,5200.3412,N,00422.2886,E,12,12,1.1,0.2,M,0.0,M,0.0,0000*46
$GPGSA,A,3,01,02,03,04,05,06,07,08,09,10,11,12,1.2,1.1,0.6*34
$GPGSV,3,1,12,01,45,045,50,02,45,045,50,03,45,045,50,04,45,045,50*7c
$GPGSV,3,2,12,05,45,045,50,06,45,045,50,07,45,045,50,08,45,045,50*77
$GPGSV,3,3,12,09,45,045,50,10,45,045,50,11,45,045,50,12,45,045,50*71
$GPRMC,115819.99,A,5200.3412,N,422.2886,E,0.0,-1.0,111223,0.0,E,A*1d
$GPVTG,-1.0,T,0.0,M,0.0,N,0.0,K*62
$GPGGA,115819.99,5200.3412,N,00422.2886,E,12,12,1.1,0.2,M,0.0,M,0.0,0000*47
$GPGSA,A,3,01,02,03,04,05,06,07,08,09,10,11,12,1.2,1.1,0.6*34
$GPGSV,3,1,12,01,45,045,50,02,45,045,50,03,45,045,50,04,45,045,50*7c
$GPGSV,3,2,12,05,45,045,50,06,45,045,50,07,45,045,50,08,45,045,50*77
$GPGSV,3,3,12,09,45,045,50,10,45,045,50,11,45,045,50,12,45,045,50*71
$GPRMC,115820.99,A,5200.3412,N,422.2886,E,0.0,-1.0,111223,0.0,E,A*17
$GPVTG,-1.0,T,0.0,M,0.0,N,0.0,K*62
$GPGGA,115820.99,5200.3412,N,00422.2886,E,12,12,1.1,0.2,M,0.0,M,0.0,0000*4d
$GPGSA,A,3,01,02,03,04,05,06,07,08,09,10,11,12,1.2,1.1,0.6*34
$GPGSV,3,1,12,01,45,045,50,02,45,045,50,03,45,045,50,04,45,045,50*7c
$GPGSV,3,2,12,05,45,045,50,06,45,045,50,07,45,045,50,08,45,045,50*77
$GPGSV,3,3,12,09,45,045,50,10,45,045,50,11,45,045,50,12,45,045,50*71
$GPRMC,115821.99,A,5200.3412,N,422.2886,E,0.0,-1.0,111223,0.0,E,A*16
$GPVTG,-1.0,T,0.0,M,0.0,N,0.0,K*62
$GPGGA,115821.99,5200.3412,N,00422.2886,E,12,12,1.1,0.2,M,0.0,M,0.0,0000*4c
$GPGSA,A,3,01,02,03,04,05,06,07,08,09,10,11,12,1.2,1.1,0.6*34
$GPGSV,3,1,12,01,45,045,50,02,45,045,50,03,45,045,50,04,45,045,50*7c
$GPGSV,3,2,12,05,45,045,50,06,45,045,50,07,45,045,50,08,45,045,50*77
$GPGSV,3,3,12,09,45,045,50,10,45,045,50,11,45,045,50,12,45,045,50*71
$GPRMC,115822.99,A,5200.3412,N,422.2886,E,0.0,-1.0,111223,0.0,E,A*15
$GPVTG,-1.0,T,0.0,M,0.0,N,0.0,K*62
$GPGGA,115822.99,5200.3412,N,00422.2886,E,12,12,1.1,0.2,M,0.0,M,0.0,0000*4f
$GPGSA,A,3,01,02,03,04,05,06,07,08,09,10,11,12,1.2,1.1,0.6*34
$GPGSV,3,1,12,01,45,045,50,02,45,045,50,03,45,045,50,04,45,045,50*7c
$GPGSV,3,2,12,05,45,045,50,06,45,045,50,07,45,045,50,08,45,045,50*77
$GPGSV,3,3,12,09,45,045,50,10,45,045,50,11,45,045,50,12,45,045,50*71
$GPRMC,115823.99,A,5200.3412,N,422.2886,E,0.0,-1.0,111223,0.0,E,A*14
$GPVTG,-1.0,T,0.0,M,0.0,N,0.0,K*62
$GPGGA,115823.99,5200.3412,N,00422.2886,E,12,12,1.1,0.2,M,0.0,M,0.0,0000*4e
$GPGSA,A,3,01,02,03,04,05,06,07,08,09,10,11,12,1.2,1.1,0.6*34
$GPGSV,3,1,12,01,45,045,50,02,45,045,50,03,45,045,50,04,45,045,50*7c
$GPGSV,3,2,12,05,45,045,50,06,45,045,50,07,45,045,50,08,45,045,50*77
$GPGSV,3,3,12,09,45,045,50,10,45,045,50,11,45,045,50,12,45,045,50*71
$GPRMC,115824.99,A,5200.3412,N,422.2886,E,0.0,-1.0,111223,0.0,E,A*13
$GPVTG,-1.0,T,0.0,M,0.0,N,0.0,K*62
$GPGGA,115824.99,5200.3412,N,00422.2886,E,12,12,1.1,0.2,M,0.0,M,0.0,0000*49
$GPGSA,A,3,01,02,03,04,05,06,07,08,09,10,11,12,1.2,1.0,0.6*35
$GPGSV,3,1,12,01,45,045,50,02,45,045,50,03,45,045,50,04,45,045,50*7c
$GPGSV,3,2,12,05,45,045,50,06,45,045,50,07,45,045,50,08,45,045,50*77
$GPGSV,3,3,12,09,45,045,50,10,45,045,50,11,45,045,50,12,45,045,50*71
$GPRMC,115825.99,A,5200.3412,N,422.2886,E,0.0,-1.0,111223,0.0,E,A*12
$GPVTG,-1.0,T,0.0,M,0.0,N,0.0,K*62
$GPGGA,115825.99,5200.3412,N,00422.2886,E,12,12,1.0,0.2,M,0.0,M,0.0,0000*49
$GPGSA,A,3,01,02,03,04,05,06,07,08,09,10,11,12,1.2,1.0,0.6*35
$GPGSV,3,1,12,01,45,045,50,02,45,045,50,03,45,045,50,04,45,045,50*7c
$GPGSV,3,2,12,05,45,045,50,06,45,045,50,07,45,045,50,08,45,045,50*77
$GPGSV,3,3,12,09,45,045,50,10,45,045,50,11,45,045,50,12,45,045,50*71
$GPRMC,115826.99,A,5200.3412,N,422.2886,E,0.0,-1.0,111223,0.0,E,A*11
$GPVTG,-1.0,T,0.0,M,0.0,N,0.0,K*62
$GPGGA,115826.99,5200.3412,N,00422.2886,E,12,12,1.0,0.2,M,0.0,M,0.0,0000*4a
$GPGSA,A,3,01,02,03,04,05,06,07,08,09,10,11,12,1.2,1.0,0.6*35
$GPGSV,3,1,12,01,45,045,50,02,45,045,50,03,45,045,50,04,45,045,50*7c
$GPGSV,3,2,12,05,45,045,50,06,45,045,50,07,45,045,50,08,45,045,50*77
$GPGSV,3,3,12,09,45,045,50,10,45,045,50,11,45,045,50,12,45,045,50*71
$GPRMC,115827.99,A,5200.3412,N,422.2886,E,0.0,-1.0,111223,0.0,E,A*10
$GPVTG,-1.0,T,0.0,M,0.0,N,0.0,K*62
$GPGGA,115827.99,5200.3412,N,00422.2886,E,12,12,1.0,0.2,M,0.0,M,0.0,0000*4b
$GPGSA,A,3,01,02,03,04,05,06,07,08,09,10,11,12,1.2,1.0,0.6*35
$GPGSV,3,1,12,01,45,045,50,02,45,045,50,03,45,045,50,04,45,045,50*7c
$GPGSV,3,2,12,05,45,045,50,06,45,045,50,07,45,045,50,08,45,045,50*77
$GPGSV,3,3,12,09,45,045,50,10,45,045,50,11,45,045,50,12,45,045,50*71
$GPRMC,115828.99,A,5200.3412,N,422.2886,E,0.0,-1.0,111223,0.0,E,A*1f
$GPVTG,-1.0,T,0.0,M,0.0,N,0.0,K*62
$GPGGA,115828.99,5200.3412,N,00422.2886,E,12,12,1.0,0.2,M,0.0,M,0.0,0000*44
$GPGSA,A,3,01,02,03,04,05,06,07,08,09,10,11,12,1.2,1.0,0.6*35
$GPGSV,3,1,12,01,45,045,50,02,45,045,50,03,45,045,50,04,45,045,50*7c
$GPGSV,3,2,12,05,45,045,50,06,45,045,50,07,45,045,50,08,45,045,50*77
$GPGSV,3,3,12,09,45,045,50,10,45,045,50,11,45,045,50,12,45,045,50*71
$GPRMC,115829.99,A,5200.3412,N,422.2886,E,0.0,-1.0,111223,0.0,E,A*1e
$GPVTG,-1.0,T,0.0,M,0.0,N,0.0,K*62
$GPGGA,115829.99,5200.3412,N,00422.2886,E,12,12,1.0,0.2,M,0.0,M,0.0,0000*45
$GPGSA,A,3,01,02,03,04,05,06,07,08,09,10,11,12,1.2,1.0,0.6*35
$GPGSV,3,1,12,01,45,045,50,02,45,045,50,03,45,045,50,04,45,045,50*7c
$GPGSV,3,2,12,05,45,045,50,06,45,045,50,07,45,045,50,08,45,045,50*77
