$GPGSA,A,3,01,02,03,04,05,06,07,08,09,10,11,12,11.2,10.5,3.8*3c
$GPGSV,3,1,12,01,45,045,50,02,45,045,50,03,45,045,50,04,45,045,50*7c
$GPGSV,3,2,12,05,45,045,50,06,45,045,50,07,45,045,50,08,45,045,50*77
$GPGSV,3,3,12,09,45,045,50,10,45,045,50,11,45,045,50,12,45,045,50*71
$GPRMC,113341.73,A,5200.3689,N,422.2611,E,-1.9,198.9,121223,0.0,E,A*1a
$GPVTG,198.9,T,0.0,M,-1.9,N,-3.6,K*4a
$GPGGA,113341.73,5200.3689,N,00422.2611,E,12,12,10.5,1.1,M,0.0,M,0.0,0000*75
$GPGSA,A,3,01,02,03,04,05,06,07,08,09,10,11,12,7.7,7.0,3.2*37
$GPGSV,3,1,12,01,45,045,50,02,45,045,50,03,45,045,50,04,45,045,50*7c
$GPGSV,3,2,12,05,45,045,50,06,45,045,50,07,45,045,50,08,45,045,50*77
$GPGSV,3,3,12,09,45,045,50,10,45,045,50,11,45,045,50,12,45,045,50*71
$GPRMC,113342.23,A,5200.3696,N,422.2625,E,-1.9,198.9,121223,0.0,E,A*15
$GPVTG,198.9,T,0.0,M,-1.9,N,-3.6,K*4a
$GPGGA,113342.23,5200.3696,N,00422.2625,E,12,12,7.0,1.0,M,0.0,M,0.0,0000*48
$GPGSA,A,3,01,02,03,04,05,06,07,08,09,10,11,12,7.5,7.0,2.8*3e
$GPGSV,3,1,12,01,45,045,50,02,45,045,50,03,45,045,50,04,45,045,50*7c
$GPGSV,3,2,12,05,45,045,50,06,45,045,50,07,45,045,50,08,45,045,50*77
$GPGSV,3,3,12,09,45,045,50,10,45,045,50,11,45,045,50,12,45,045,50*71
$GPRMC,113343.98,A,5200.3697,N,422.2627,E,-1.9,198.9,121223,0.0,E,A*17
$GPVTG,198.9,T,0.0,M,-1.9,N,-3.6,K*4a
$GPGGA,113343.98,5200.3697,N,00422.2627,E,12,12,7.0,1.0,M,0.0,M,0.0,0000*4a
$GPGSA,A,3,01,02,03,04,05,06,07,08,09,10,11,12,7.5,7.0,2.6*30
$GPGSV,3,1,12,01,45,045,50,02,45,045,50,03,45,045,50,04,45,045,50*7c
$GPGSV,3,2,12,05,45,045,50,06,45,045,50,07,45,045,50,08,45,045,50*77
$GPGSV,3,3,12,09,45,045,50,10,45,045,50,11,45,045,50,12,45,045,50*71
$GPRMC,113353.27,A,5200.3697,N,422.2627,E,-1.9,198.9,121223,0.0,E,A*12
$GPVTG,198.9,T,0.0,M,-1.9,N,-3.6,K*4a
$GPGGA,113353.27,5200.3697,N,00422.2627,E,12,12,7.0,1.1,M,0.0,M,0.0,0000*4e
$GPGSA,A,3,01,02,03,04,05,06,07,08,09,10,11,12,7.4,7.0,2.3*34
$GPGSV,3,1,12,01,45,045,50,02,45,045,50,03,45,045,50,04,45,045,50*7c
$GPGSV,3,2,12,05,45,045,50,06,45,045,50,07,45,045,50,08,45,045,50*77
$GPGSV,3,3,12,09,45,045,50,10,45,045,50,11,45,045,50,12,45,045,50*71
$GPRMC,113353.79,A,5200.3697,N,422.2627,E,-1.9,198.9,121223,0.0,E,A*19
$GPVTG,198.9,T,0.0,M,-1.9,N,-3.6,K*4a
$GPGGA,113353.79,5200.3697,N,00422.2627,E,12,12,7.0,1.0,M,0.0,M,0.0,0000*44
$GPGSA,A,3,01,02,03,04,05,06,07,08,09,10,11,12,7.3,7.0,2.2*32
$GPGSV,3,1,12,01,45,045,50,02,45,045,50,03,45,045,50,04,45,045,50*7c
$GPGSV,3,2,12,05,45,045,50,06,45,045,50,07,45,045,50,08,45,045,50*77
$GPGSV,3,3,12,09,45,045,50,10,45,045,50,11,45,045,50,12,45,045,50*71
$GPRMC,113405.27,A,5200.3697,N,422.2627,E,-1.9,198.9,121223,0.0,E,A*16
$GPVTG,198.9,T,0.0,M,-1.9,N,-3.6,K*4a
$GPGGA,113405.27,5200.3697,N,00422.2627,E,12,12,7.0,1.1,M,0.0,M,0.0,0000*4a
$GPGSA,A,3,01,02,03,04,05,06,07,08,09,10,11,12,7.3,7.0,2.1*31
$GPGSV,3,1,12,01,45,045,50,02,45,045,50,03,45,045,50,04,45,045,50*7c
$GPGSV,3,2,12,05,45,045,50,06,45,045,50,07,45,045,50,08,45,045,50*77
$GPGSV,3,3,12,09,45,045,50,10,45,045,50,11,45,045,50,12,45,045,50*71
$GPRMC,113405.76,A,5200.3697,N,422.2627,E,-1.9,198.9,121223,0.0,E,A*12
$GPVTG,198.9,T,0.0,M,-1.9,N,-3.6,K*4a
$GPGGA,113405.76,5200.3697,N,00422.2627,E,12,12,7.0,1.1,M,0.0,M,0.0,0000*4e
$GPGSA,A,3,01,02,03,04,05,06,07,08,09,10,11,12,7.3,7.0,1.9*3a
$GPGSV,3,1,12,01,45,045,50,02,45,045,50,03,45,045,50,04,45,045,50*7c
$GPGSV,3,2,12,05,45,045,50,06,45,045,50,07,45,045,50,08,45,045,50*77
$GPGSV,3,3,12,09,45,045,50,10,45,045,50,11,45,045,50,12,45,045,50*71
$GPRMC,113407.57,A,5200.3697,N,422.2627,E,-1.9,198.9,121223,0.0,E,A*13
$GPVTG,198.9,T,0.0,M,-1.9,N,-3.6,K*4a
$GPGGA,113407.57,5200.3697,N,00422.2627,E,12,12,7.0,1.1,M,0.0,M,0.0,0000*4f
$GPGSA,A,3,01,02,03,04,05,06,07,08,09,10,11,12,7.2,7.0,1.8*3a
$GPGSV,3,1,12,01,45,045,50,02,45,045,50,03,45,045,50,04,45,045,50*7c
$GPGSV,3,2,12,05,45,045,50,06,45,045,50,07,45,045,50,08,45,045,50*77
$GPGSV,3,3,12,09,45,045,50,10,45,045,50,11,45,045,50,12,45,045,50*71
$GPRMC,113418.32,A,5200.3699,N,422.2631,E,-1.9,198.9,121223,0.0,E,A*17
$GPVTG,198.9,T,0.0,M,-1.9,N,-3.6,K*4a
$GPGGA,113418.32,5200.3699,N,00422.2631,E,12,12,7.0,1.1,M,0.0,M,0.0,0000*4b
$GPGSA,A,3,01,02,03,04,05,06,07,08,09,10,11,12,7.2,7.0,1.8*3a
$GPGSV,3,1,12,01,45,045,50,02,45,045,50,03,45,045,50,04,45,045,50*7c
$GPGSV,3,2,12,05,45,045,50,06,45,045,50,07,45,045,50,08,45,045,50*77
$GPGSV,3,3,12,09,45,045,50,10,45,045,50,11,45,045,50,12,45,045,50*71
$GPRMC,113419.08,A,5200.3702,N,422.2630,E,-1.9,198.9,121223,0.0,E,A*1d
$GPVTG,198.9,T,0.0,M,-1.9,N,-3.6,K*4a
$GPGGA,113419.08,5200.3702,N,00422.2630,E,12,12,7.0,1.1,M,0.0,M,0.0,0000*41
$GPGSA,A,3,01,02,03,04,05,06,07,08,09,10,11,12,7.2,7.0,1.7*35
$GPGSV,3,1,12,01,45,045,50,02,45,045,50,03,45,045,50,04,45,045,50*7c
$GPGSV,3,2,12,05,45,045,50,06,45,045,50,07,45,045,50,08,45,045,50*77
$GPGSV,3,3,12,09,45,045,50,10,45,045,50,11,45,045,50,12,45,045,50*71
$GPRMC,113430.27,A,5200.3702,N,422.2629,E,-1.9,198.9,121223,0.0,E,A*13
$GPVTG,198.9,T,0.0,M,-1.9,N,-3.6,K*4a
$GPGGA,113430.27,5200.3702,N,00422.2629,E,12,12,7.0,1.1,M,0.0,M,0.0,0000*4f
$GPGSA,A,3,01,02,03,04,05,06,07,08,09,10,11,12,7.2,7.0,1.6*34
$GPGSV,3,1,12,01,45,045,50,02,45,045,50,03,45,045,50,04,45,045,50*7c
$GPGSV,3,2,12,05,45,045,50,06,45,045,50,07,45,045,50,08,45,045,50*77
$GPGSV,3,3,12,09,45,045,50,10,45,045,50,11,45,045,50,12,45,045,50*71
$GPRMC,113430.72,A,5200.3702,N,422.2639,E,-1.9,198.9,121223,0.0,E,A*12
$GPVTG,198.9,T,0.0,M,-1.9,N,-3.6,K*4a
$GPGGA,113430.72,5200.3702,N,00422.2639,E,12,12,7.0,1.1,M,0.0,M,0.0,0000*4e
$GPGSA,A,3,01,02,03,04,05,06,07,08,09,10,11,12,7.2,7.0,1.6*34
$GPGSV,3,1,12,01,45,045,50,02,45,045,50,03,45,045,50,04,45,045,50*7c
$GPGSV,3,2,12,05,45,045,50,06,45,045,50,07,45,045,50,08,45,045,50*77
$GPGSV,3,3,12,09,45,045,50,10,45,045,50,11,45,045,50,12,45,045,50*71
$GPRMC,113442.27,A,5200.3702,N,422.2635,E,-1.9,198.9,121223,0.0,E,A*1b
$GPVTG,198.9,T,0.0,M,-1.9,N,-3.6,K*4a
$GPGGA,113442.27,5200.3702,N,00422.2635,E,12,12,7.0,1.1,M,0.0,M,0.0,0000*47
$GPGSA,A,3,01,02,03,04,05,06,07,08,09,10,11,12,7.2,7.0,1.5*37
$GPGSV,3,1,12,01,45,045,50,02,45,045,50,03,45,045,50,04,45,045,50*7c
$GPGSV,3,2,12,05,45,045,50,06,45,045,50,07,45,045,50,08,45,045,50*77
$GPGSV,3,3,12,09,45,045,50,10,45,045,50,11,45,045,50,12,45,045,50*71
$GPRMC,113442.73,A,5200.3705,N,422.2596,E,-1.9,198.9,121223,0.0,E,A*17
$GPVTG,198.9,T,0.0,M,-1.9,N,-3.6,K*4a
$GPGGA,113442.73,5200.3705,N,00422.2596,E,12,12,7.0,1.1,M,0.0,M,0.0,0000*4b
$GPGSA,A,3,01,02,03,04,05,06,07,08,09,10,11,12,7.2,7.0,1.5*37
$GPGSV,3,1,12,01,45,045,50,02,45,045,50,03,45,045,50,04,45,045,50*7c
$GPGSV,3,2,12,05,45,045,50,06,45,045,50,07,45,045,50,08,45,045,50*77
$GPGSV,3,3,12,09,45,045,50,10,45,045,50,11,45,045,50,12,45,045,50*71
$GPRMC,113454.27,A,5200.3704,N,422.2607,E,-1.9,198.9,121223,0.0,E,A*1b
$GPVTG,198.9,T,0.0,M,-1.9,N,-3.6,K*4a
$GPGGA,113454.27,5200.3704,N,00422.2607,E,12,12,7.0,1.1,M,0.0,M,0.0,0000*47
$GPGSA,A,3,01,02,03,04,05,06,07,08,09,10,11,12,7.1,7.0,1.4*35
$GPGSV,3,1,12,01,45,045,50,02,45,045,50,03,45,045,50,04,45,045,50*7c
$GPGSV,3,2,12,05,45,045,50,06,45,045,50,07,45,045,50,08,45,045,50*77
$GPGSV,3,3,12,09,45,045,50,10,45,045,50,11,45,045,50,12,45,045,50*71
$GPRMC,113454.72,A,5200.3705,N,422.2628,E,-1.9,198.9,121223,0.0,E,A*17
$GPVTG,198.9,T,0.0,M,-1.9,N,-3.6,K*4a
$GPGGA,113454.72,5200.3705,N,00422.2628,E,12,12,7.0,1.1,M,0.0,M,0.0,0000*4b
$GPGSA,A,3,01,02,03,04,05,06,07,08,09,10,11,12,7.1,7.0,1.3*32
$GPGSV,3,1,12,01,45,045,50,02,45,045,50,03,45,045,50,04,45,045,50*7c
$GPGSV,3,2,12,05,45,045,50,06,45,045,50,07,45,045,50,08,45,045,50*77
$GPGSV,3,3,12,09,45,045,50,10,45,045,50,11,45,045,50,12,45,045,50*71
$GPRMC,113501.59,A,5200.3701,N,422.2637,E,-1.9,198.9,121223,0.0,E,A*15
$GPVTG,198.9,T,0.0,M,-1.9,N,-3.6,K*4a
$GPGGA,113501.59,5200.3701,N,00422.2637,E,12,12,7.0,1.1,M,0.0,M,0.0,0000*49
$GPGSA,A,3,01,02,03,04,05,06,07,08,09,10,11,12,7.1,7.0,1.3*32
$GPGSV,3,1,12,01,45,045,50,02,45,045,50,03,45,045,50,04,45,045,50*7c
$GPGSV,3,2,12,05,45,045,50,06,45,045,50,07,45,045,50,08,45,045,50*77
$GPGSV,3,3,12,09,45,045,50,10,45,045,50,11,45,045,50,12,45,045,50*71
$GPRMC,113501.77,A,5200.3700,N,422.2640,E,-1.9,198.9,121223,0.0,E,A*18
$GPVTG,198.9,T,0.0,M,-1.9,N,-3.6,K*4a
$GPGGA,113501.77,5200.3700,N,00422.2640,E,12,12,7.0,1.1,M,0.0,M,0.0,0000*44
$GPGSA,A,3,01,02,03,04,05,06,07,08,09,10,11,12,7.1,7.0,1.3*32
$GPGSV,3,1,12,01,45,045,50,02,45,045,50,03,45,045,50,04,45,045,50*7c
$GPGSV,3,2,12,05,45,045,50,06,45,045,50,07,45,045,50,08,45,045,50*77
$GPGSV,3,3,12,09,45,045,50,10,45,045,50,11,45,045,50,12,45,045,50*71
$GPRMC,113501.77,A,5200.3700,N,422.2641,E,-1.9,198.9,121223,0.0,E,A*19
$GPVTG,198.9,T,0.0,M,-1.9,N,-3.6,K*4a
$GPGGA,113501.77,5200.3700,N,00422.2641,E,12,12,7.0,1.1,M,0.0,M,0.0,0000*45
$GPGSA,A,3,01,02,03,04,05,06,07,08,09,10,11,12,7.1,7.0,1.2*33
$GPGSV,3,1,12,01,45,045,50,02,45,045,50,03,45,045,50,04,45,045,50*7c
$GPGSV,3,2,12,05,45,045,50,06,45,045,50,07,45,045,50,08,45,045,50*77
$GPGSV,3,3,12,09,45,045,50,10,45,045,50,11,45,045,50,12,45,045,50*71
$GPRMC,113507.79,A,5200.3700,N,422.2636,E,-1.9,198.9,121223,0.0,E,A*11
$GPVTG,198.9,T,0.0,M,-1.9,N,-3.6,K*4a
$GPGGA,113507.79,5200.3700,N,00422.2636,E,12,12,7.0,1.1,M,0.0,M,0.0,0000*4d
$GPGSA,A,3,01,02,03,04,05,06,07,08,09,10,11,12,7.1,7.0,1.2*33
$GPGSV,3,1,12,01,45,045,50,02,45,045,50,03,45,045,50,04,45,045,50*7c
$GPGSV,3,2,12,05,45,045,50,06,45,045,50,07,45,045,50,08,45,045,50*77
$GPGSV,3,3,12,09,45,045,50,10,45,045,50,11,45,045,50,12,45,045,50*71
$GPRMC,113508.29,A,5200.3712,N,422.2618,E,-1.9,198.9,121223,0.0,E,A*14
$GPVTG,198.9,T,0.0,M,-1.9,N,-3.6,K*4a
$GPGGA,113508.29,5200.3712,N,00422.2618,E,12,12,7.0,1.1,M,0.0,M,0.0,0000*48
$GPGSA,A,3,01,02,03,04,05,06,07,08,09,10,11,12,7.1,7.0,1.2*33
$GPGSV,3,1,12,01,45,045,50,02,45,045,50,03,45,045,50,04,45,045,50*7c
$GPGSV,3,2,12,05,45,045,50,06,45,045,50,07,45,045,50,08,45,045,50*77
$GPGSV,3,3,12,09,45,045,50,10,45,045,50,11,45,045,50,12,45,045,50*71
$GPRMC,113519.99,A,5200.3708,N,422.2621,E,-1.9,198.9,121223,0.0,E,A*1e
$GPVTG,198.9,T,0.0,M,-1.9,N,-3.6,K*4a
$GPGGA,113519.99,5200.3708,N,00422.2621,E,12,12,7.0,1.1,M,0.0,M,0.0,0000*42
$GPGSA,A,3,01,02,03,04,05,06,07,08,09,10,11,12,7.1,7.0,1.2*33
$GPGSV,3,1,12,01,45,045,50,02,45,045,50,03,45,045,50,04,45,045,50*7c
$GPGSV,3,2,12,05,45,045,50,06,45,045,50,07,45,045,50,08,45,045,50*77
$GPGSV,3,3,12,09,45,045,50,10,45,045,50,11,45,045,50,12,45,045,50*71
$GPRMC,113520.46,A,5200.3706,N,422.2616,E,-1.9,198.9,121223,0.0,E,A*1c
$GPVTG,198.9,T,0.0,M,-1.9,N,-3.6,K*4a
$GPGGA,113520.46,5200.3706,N,00422.2616,E,12,12,7.0,1.1,M,0.0,M,0.0,0000*40
$GPGSA,A,3,01,02,03,04,05,06,07,08,09,10,11,12,7.1,7.0,1.1*30
$GPGSV,3,1,12,01,45,045,50,02,45,045,50,03,45,045,50,04,45,045,50*7c
$GPGSV,3,2,12,05,45,045,50,06,45,045,50,07,45,045,50,08,45,045,50*77
$GPGSV,3,3,12,09,45,045,50,10,45,045,50,11,45,045,50,12,45,045,50*71
$GPRMC,113531.99,A,5200.3704,N,422.2620,E,-1.9,198.9,121223,0.0,E,A*19
$GPVTG,198.9,T,0.0,M,-1.9,N,-3.6,K*4a
$GPGGA,113531.99,5200.3704,N,00422.2620,E,12,12,7.0,1.1,M,0.0,M,0.0,0000*45
$GPGSA,A,3,01,02,03,04,05,06,07,08,09,10,11,12,7.1,7.0,1.1*30
$GPGSV,3,1,12,01,45,045,50,02,45,045,50,03,45,045,50,04,45,045,50*7c
$GPGSV,3,2,12,05,45,045,50,06,45,045,50,07,45,045,50,08,45,045,50*77
$GPGSV,3,3,12,09,45,045,50,10,45,045,50,11,45,045,50,12,45,045,50*71
$GPRMC,113532.45,A,5200.3704,N,422.2633,E,-1.9,198.9,121223,0.0,E,A*19
$GPVTG,198.9,T,0.0,M,-1.9,N,-3.6,K*4a
$GPGGA,113532.45,5200.3704,N,00422.2633,E,12,12,7.0,1.1,M,0.0,M,0.0,0000*45
$GPGSA,A,3,01,02,03,04,05,06,07,08,09,10,11,12,7.1,7.0,1.1*30
$GPGSV,3,1,12,01,45,045,50,02,45,045,50,03,45,045,50,04,45,045,50*7c
$GPGSV,3,2,12,05,45,045,50,06,45,045,50,07,45,045,50,08,45,045,50*77
$GPGSV,3,3,12,09,45,045,50,10,45,045,50,11,45,045,50,12,45,045,50*71
$GPRMC,113543.99,A,5200.3703,N,422.2631,E,-1.9,198.9,121223,0.0,E,A*1b
$GPVTG,198.9,T,0.0,M,-1.9,N,-3.6,K*4a
$GPGGA,113543.99,5200.3703,N,00422.2631,E,12,12,7.0,1.1,M,0.0,M,0.0,0000*47
$GPGSA,A,3,01,02,03,04,05,06,07,08,09,10,11,12,7.1,7.0,1.1*30
$GPGSV,3,1,12,01,45,045,50,02,45,045,50,03,45,045,50,04,45,045,50*7c
$GPGSV,3,2,12,05,45,045,50,06,45,045,50,07,45,045,50,08,45,045,50*77
$GPGSV,3,3,12,09,45,045,50,10,45,045,50,11,45,045,50,12,45,045,50*71
$GPRMC,113544.45,A,5200.3700,N,422.2632,E,-1.9,198.9,121223,0.0,E,A*1d
$GPVTG,198.9,T,0.0,M,-1.9,N,-3.6,K*4a
$GPGGA,113544.45,5200.3700,N,00422.2632,E,12,12,7.0,1.1,M,0.0,M,0.0,0000*41
$GPGSA,A,3,01,02,03,04,05,06,07,08,09,10,11,12,7.1,7.0,1.1*30
$GPGSV,3,1,12,01,45,045,50,02,45,045,50,03,45,045,50,04,45,045,50*7c
$GPGSV,3,2,12,05,45,045,50,06,45,045,50,07,45,045,50,08,45,045,50*77
$GPGSV,3,3,12,09,45,045,50,10,45,045,50,11,45,045,50,12,45,045,50*71
$GPRMC,113555.99,A,5200.3701,N,422.2630,E,-1.9,198.9,121223,0.0,E,A*1f
$GPVTG,198.9,T,0.0,M,-1.9,N,-3.6,K*4a
$GPGGA,113555.99,5200.3701,N,00422.2630,E,12,12,7.0,1.2,M,0.0,M,0.0,0000*40
$GPGSA,A,3,01,02,03,04,05,06,07,08,09,10,11,12,7.1,7.0,1.1*30
$GPGSV,3,1,12,01,45,045,50,02,45,045,50,03,45,045,50,04,45,045,50*7c
$GPGSV,3,2,12,05,45,045,50,06,45,045,50,07,45,045,50,08,45,045,50*77
$GPGSV,3,3,12,09,45,045,50,10,45,045,50,11,45,045,50,12,45,045,50*71
$GPRMC,113556.46,A,5200.3706,N,422.2593,E,-1.9,198.9,121223,0.0,E,A*13
$GPVTG,198.9,T,0.0,M,-1.9,N,-3.6,K*4a
$GPGGA,113556.46,5200.3706,N,00422.2593,E,12,12,7.0,1.2,M,0.0,M,0.0,0000*4c
$GPGSA,A,3,01,02,03,04,05,06,07,08,09,10,11,12,7.1,7.0,1.0*31
$GPGSV,3,1,12,01,45,045,50,02,45,045,50,03,45,045,50,04,45,045,50*7c
$GPGSV,3,2,12,05,45,045,50,06,45,045,50,07,45,045,50,08,45,045,50*77
$GPGSV,3,3,12,09,45,045,50,10,45,045,50,11,45,045,50,12,45,045,50*71
$GPRMC,113607.99,A,5200.3704,N,422.2605,E,-1.9,198.9,121223,0.0,E,A*18
$GPVTG,198.9,T,0.0,M,-1.9,N,-3.6,K*4a
$GPGGA,113607.99,5200.3704,N,00422.2605,E,12,12,7.0,1.2,M,0.0,M,0.0,0000*47
$GPGSA,A,3,01,02,03,04,05,06,07,08,09,10,11,12,7.1,7.0,1.0*31
$GPGSV,3,1,12,01,45,045,50,02,45,045,50,03,45,045,50,04,45,045,50*7c
$GPGSV,3,2,12,05,45,045,50,06,45,045,50,07,45,045,50,08,45,045,50*77
$GPGSV,3,3,12,09,45,045,50,10,45,045,50,11,45,045,50,12,45,045,50*71
$GPRMC,113608.45,A,5200.3700,N,422.2590,E,-1.9,198.9,121223,0.0,E,A*1d
$GPVTG,198.9,T,0.0,M,-1.9,N,-3.6,K*4a
$GPGGA,113608.45,5200.3700,N,00422.2590,E,12,12,7.0,1.2,M,0.0,M,0.0,0000*42
$GPGSA,A,3,01,02,03,04,05,06,07,08,09,10,11,12,7.1,7.0,1.0*31
$GPGSV,3,1,12,01,45,045,50,02,45,045,50,03,45,045,50,04,45,045,50*7c
$GPGSV,3,2,12,05,45,045,50,06,45,045,50,07,45,045,50,08,45,045,50*77
$GPGSV,3,3,12,09,45,045,50,10,45,045,50,11,45,045,50,12,45,045,50*71
$GPRMC,113619.99,A,5200.3701,N,422.2603,E,-1.9,198.9,121223,0.0,E,A*14
$GPVTG,198.9,T,0.0,M,-1.9,N,-3.6,K*4a
$GPGGA,113619.99,5200.3701,N,00422.2603,E,12,12,7.0,1.2,M,0.0,M,0.0,0000*4b
$GPGSA,A,3,01,02,03,04,05,06,07,08,09,10,11,12,7.1,7.0,1.0*31
$GPGSV,3,1,12,01,45,045,50,02,45,045,50,03,45,045,50,04,45,045,50*7c
$GPGSV,3,2,12,05,45,045,50,06,45,045,50,07,45,045,50,08,45,045,50*77
$GPGSV,3,3,12,09,45,045,50,10,45,045,50,11,45,045,50,12,45,045,50*71
$GPRMC,113620.46,A,5200.3700,N,422.2618,E,-1.9,198.9,121223,0.0,E,A*17
$GPVTG,198.9,T,0.0,M,-1.9,N,-3.6,K*4a
$GPGGA,113620.46,5200.3700,N,00422.2618,E,12,12,7.0,1.2,M,0.0,M,0.0,0000*48
$GPGSA,A,3,01,02,03,04,05,06,07,08,09,10,11,12,7.1,7.0,1.0*31
$GPGSV,3,1,12,01,45,045,50,02,45,045,50,03,45,045,50,04,45,045,50*7c
$GPGSV,3,2,12,05,45,045,50,06,45,045,50,07,45,045,50,08,45,045,50*77
$GPGSV,3,3,12,09,45,045,50,10,45,045,50,11,45,045,50,12,45,045,50*71
$GPRMC,113631.99,A,5200.3701,N,422.2621,E,-1.9,198.9,121223,0.0,E,A*1e
$GPVTG,198.9,T,0.0,M,-1.9,N,-3.6,K*4a
$GPGGA,113631.99,5200.3701,N,00422.2621,E,12,12,7.0,1.2,M,0.0,M,0.0,0000*41
$GPGSA,A,3,01,02,03,04,05,06,07,08,09,10,11,12,7.1,7.0,1.0*31
$GPGSV,3,1,12,01,45,045,50,02,45,045,50,03,45,045,50,04,45,045,50*7c
$GPGSV,3,2,12,05,45,045,50,06,45,045,50,07,45,045,50,08,45,045,50*77
$GPGSV,3,3,12,09,45,045,50,10,45,045,50,11,45,045,50,12,45,045,50*71
$GPRMC,113632.46,A,5200.3695,N,422.2609,E,-1.9,198.9,121223,0.0,E,A*19
$GPVTG,198.9,T,0.0,M,-1.9,N,-3.6,K*4a
$GPGGA,113632.46,5200.3695,N,00422.2609,E,12,12,7.0,1.2,M,0.0,M,0.0,0000*46
$GPGSA,A,3,01,02,03,04,05,06,07,08,09,10,11,12,7.1,7.0,1.0*31
$GPGSV,3,1,12,01,45,045,50,02,45,045,50,03,45,045,50,04,45,045,50*7c
$GPGSV,3,2,12,05,45,045,50,06,45,045,50,07,45,045,50,08,45,045,50*77
$GPGSV,3,3,12,09,45,045,50,10,45,045,50,11,45,045,50,12,45,045,50*71
$GPRMC,113643.99,A,5200.3697,N,422.2615,E,-1.9,198.9,121223,0.0,E,A*12
$GPVTG,198.9,T,0.0,M,-1.9,N,-3.6,K*4a
$GPGGA,113643.99,5200.3697,N,00422.2615,E,12,12,7.0,1.2,M,0.0,M,0.0,0000*4d
$GPGSA,A,3,01,02,03,04,05,06,07,08,09,10,11,12,7.1,7.0,0.9*39
$GPGSV,3,1,12,01,45,045,50,02,45,045,50,03,45,045,50,04,45,045,50*7c
$GPGSV,3,2,12,05,45,045,50,06,45,045,50,07,45,045,50,08,45,045,50*77
$GPGSV,3,3,12,09,45,045,50,10,45,045,50,11,45,045,50,12,45,045,50*71
$GPRMC,113644.47,A,5200.3702,N,422.2638,E,-1.9,198.9,121223,0.0,E,A*14
$GPVTG,198.9,T,0.0,M,-1.9,N,-3.6,K*4a
$GPGGA,113644.47,5200.3702,N,00422.2638,E,12,12,7.0,1.2,M,0.0,M,0.0,0000*4b
$GPGSA,A,3,01,02,03,04,05,06,07,08,09,10,11,12,7.1,7.0,0.9*39
$GPGSV,3,1,12,01,45,045,50,02,45,045,50,03,45,045,50,04,45,045,50*7c
$GPGSV,3,2,12,05,45,045,50,06,45,045,50,07,45,045,50,08,45,045,50*77
$GPGSV,3,3,12,09,45,045,50,10,45,045,50,11,45,045,50,12,45,045,50*71
$GPRMC,113655.99,A,5200.3702,N,422.2634,E,-1.9,198.9,121223,0.0,E,A*1b
$GPVTG,198.9,T,0.0,M,-1.9,N,-3.6,K*4a
$GPGGA,113655.99,5200.3702,N,00422.2634,E,12,12,7.0,1.2,M,0.0,M,0.0,0000*44
$GPGSA,A,3,01,02,03,04,05,06,07,08,09,10,11,12,7.1,7.0,0.9*39
$GPGSV,3,1,12,01,45,045,50,02,45,045,50,03,45,045,50,04,45,045,50*7c
$GPGSV,3,2,12,05,45,045,50,06,45,045,50,07,45,045,50,08,45,045,50*77
$GPGSV,3,3,12,09,45,045,50,10,45,045,50,11,45,045,50,12,45,045,50*71
$GPRMC,113656.46,A,5200.3698,N,422.2624,E,-1.9,198.9,121223,0.0,E,A*19
$GPVTG,198.9,T,0.0,M,-1.9,N,-3.6,K*4a
$GPGGA,113656.46,5200.3698,N,00422.2624,E,12,12,7.0,1.2,M,0.0,M,0.0,0000*46
$GPGSA,A,3,01,02,03,04,05,06,07,08,09,10,11,12,7.1,7.0,0.9*39
$GPGSV,3,1,12,01,45,045,50,02,45,045,50,03,45,045,50,04,45,045,50*7c
$GPGSV,3,2,12,05,45,045,50,06,45,045,50,07,45,045,50,08,45,045,50*77
$GPGSV,3,3,12,09,45,045,50,10,45,045,50,11,45,045,50,12,45,045,50*71
$GPRMC,113707.99,A,5200.3699,N,422.2625,E,-1.9,198.9,121223,0.0,E,A*1e
$GPVTG,198.9,T,0.0,M,-1.9,N,-3.6,K*4a
$GPGGA,113707.99,5200.3699,N,00422.2625,E,12,12,7.0,1.2,M,0.0,M,0.0,0000*41
$GPGSA,A,3,01,02,03,04,05,06,07,08,09,10,11,12,7.1,7.0,0.9*39
$GPGSV,3,1,12,01,45,045,50,02,45,045,50,03,45,045,50,04,45,045,50*7c
$GPGSV,3,2,12,05,45,045,50,06,45,045,50,07,45,045,50,08,45,045,50*77
$GPGSV,3,3,12,09,45,045,50,10,45,045,50,11,45,045,50,12,45,045,50*71
$GPRMC,113708.47,A,5200.3701,N,422.2620,E,-1.9,198.9,121223,0.0,E,A*17
$GPVTG,198.9,T,0.0,M,-1.9,N,-3.6,K*4a
$GPGGA,113708.47,5200.3701,N,00422.2620,E,12,12,7.0,1.2,M,0.0,M,0.0,0000*48
$GPGSA,A,3,01,02,03,04,05,06,07,08,09,10,11,12,7.1,7.0,0.9*39
$GPGSV,3,1,12,01,45,045,50,02,45,045,50,03,45,045,50,04,45,045,50*7c
$GPGSV,3,2,12,05,45,045,50,06,45,045,50,07,45,045,50,08,45,045,50*77
$GPGSV,3,3,12,09,45,045,50,10,45,045,50,11,45,045,50,12,45,045,50*71
$GPRMC,113719.99,A,5200.3701,N,422.2623,E,-1.9,198.9,121223,0.0,E,A*17
$GPVTG,198.9,T,0.0,M,-1.9,N,-3.6,K*4a
$GPGGA,113719.99,5200.3701,N,00422.2623,E,12,12,7.0,1.2,M,0.0,M,0.0,0000*48
$GPGSA,A,3,01,02,03,04,05,06,07,08,09,10,11,12,7.1,7.0,0.9*39
$GPGSV,3,1,12,01,45,045,50,02,45,045,50,03,45,045,50,04,45,045,50*7c
$GPGSV,3,2,12,05,45,045,50,06,45,045,50,07,45,045,50,08,45,045,50*77
$GPGSV,3,3,12,09,45,045,50,10,45,045,50,11,45,045,50,12,45,045,50*71
$GPRMC,113720.46,A,5200.3694,N,422.2620,E,-1.9,198.9,121223,0.0,E,A*11
$GPVTG,198.9,T,0.0,M,-1.9,N,-3.6,K*4a
$GPGGA,113720.46,5200.3694,N,00422.2620,E,12,12,7.0,1.2,M,0.0,M,0.0,0000*4e
$GPGSA,A,3,01,02,03,04,05,06,07,08,09,10,11,12,7.1,7.0,0.9*39
$GPGSV,3,1,12,01,45,045,50,02,45,045,50,03,45,045,50,04,45,045,50*7c
$GPGSV,3,2,12,05,45,045,50,06,45,045,50,07,45,045,50,08,45,045,50*77
$GPGSV,3,3,12,09,45,045,50,10,45,045,50,11,45,045,50,12,45,045,50*71
$GPRMC,113731.99,A,5200.3697,N,422.2622,E,-1.9,198.9,121223,0.0,E,A*12
$GPVTG,198.9,T,0.0,M,-1.9,N,-3.6,K*4a
$GPGGA,113731.99,5200.3697,N,00422.2622,E,12,12,7.0,1.2,M,0.0,M,0.0,0000*4d
$GPGSA,A,3,01,02,03,04,05,06,07,08,09,10,11,12,7.1,7.0,0.9*39
$GPGSV,3,1,12,01,45,045,50,02,45,045,50,03,45,045,50,04,45,045,50*7c
$GPGSV,3,2,12,05,45,045,50,06,45,045,50,07,45,045,50,08,45,045,50*77
$GPGSV,3,3,12,09,45,045,50,10,45,045,50,11,45,045,50,12,45,045,50*71
$GPRMC,113732.44,A,5200.3699,N,422.2569,E,-1.9,198.9,121223,0.0,E,A*13
$GPVTG,198.9,T,0.0,M,-1.9,N,-3.6,K*4a
$GPGGA,113732.44,5200.3699,N,00422.2569,E,12,12,7.0,1.2,M,0.0,M,0.0,0000*4c
$GPGSA,A,3,01,02,03,04,05,06,07,08,09,10,11,12,7.1,7.0,0.9*39
$GPGSV,3,1,12,01,45,045,50,02,45,045,50,03,45,045,50,04,45,045,50*7c
$GPGSV,3,2,12,05,45,045,50,06,45,045,50,07,45,045,50,08,45,045,50*77
$GPGSV,3,3,12,09,45,045,50,10,45,045,50,11,45,045,50,12,45,045,50*71
$GPRMC,113743.99,A,5200.3700,N,422.2589,E,-1.9,198.9,121223,0.0,E,A*1a
$GPVTG,198.9,T,0.0,M,-1.9,N,-3.6,K*4a
$GPGGA,113743.99,5200.3700,N,00422.2589,E,12,12,7.0,1.2,M,0.0,M,0.0,0000*45
$GPGSA,A,3,01,02,03,04,05,06,07,08,09,10,11,12,7.1,7.0,0.8*38
$GPGSV,3,1,12,01,45,045,50,02,45,045,50,03,45,045,50,04,45,045,50*7c
$GPGSV,3,2,12,05,45,045,50,06,45,045,50,07,45,045,50,08,45,045,50*77
$GPGSV,3,3,12,09,45,045,50,10,45,045,50,11,45,045,50,12,45,045,50*71
$GPRMC,113744.46,A,5200.3695,N,422.2616,E,-1.9,198.9,121223,0.0,E,A*17
$GPVTG,198.9,T,0.0,M,-1.9,N,-3.6,K*4a
$GPGGA,113744.46,5200.3695,N,00422.2616,E,12,12,7.0,1.2,M,0.0,M,0.0,0000*48
$GPGSA,A,3,01,02,03,04,05,06,07,08,09,10,11,12,7.0,7.0,0.8*39
$GPGSV,3,1,12,01,45,045,50,02,45,045,50,03,45,045,50,04,45,045,50*7c
$GPGSV,3,2,12,05,45,045,50,06,45,045,50,07,45,045,50,08,45,045,50*77
$GPGSV,3,3,12,09,45,045,50,10,45,045,50,11,45,045,50,12,45,045,50*71
$GPRMC,113755.99,A,5200.3697,N,422.2620,E,-1.9,198.9,121223,0.0,E,A*12
$GPVTG,198.9,T,0.0,M,-1.9,N,-3.6,K*4a
$GPGGA,113755.99,5200.3697,N,00422.2620,E,12,12,7.0,1.2,M,0.0,M,0.0,0000*4d
$GPGSA,A,3,01,02,03,04,05,06,07,08,09,10,11,12,7.0,7.0,0.8*39
$GPGSV,3,1,12,01,45,045,50,02,45,045,50,03,45,045,50,04,45,045,50*7c
$GPGSV,3,2,12,05,45,045,50,06,45,045,50,07,45,045,50,08,45,045,50*77
$GPGSV,3,3,12,09,45,045,50,10,45,045,50,11,45,045,50,12,45,045,50*71
$GPRMC,113756.47,A,5200.3700,N,422.2623,E,-1.9,198.9,121223,0.0,E,A*1e
$GPVTG,198.9,T,0.0,M,-1.9,N,-3.6,K*4a
$GPGGA,113756.47,5200.3700,N,00422.2623,E,12,12,7.0,1.2,M,0.0,M,0.0,0000*41
$GPGSA,A,3,01,02,03,04,05,06,07,08,09,10,11,12,7.0,7.0,0.8*39
$GPGSV,3,1,12,01,45,045,50,02,45,045,50,03,45,045,50,04,45,045,50*7c
$GPGSV,3,2,12,05,45,045,50,06,45,045,50,07,45,045,50,08,45,045,50*77
$GPGSV,3,3,12,09,45,045,50,10,45,045,50,11,45,045,50,12,45,045,50*71
$GPRMC,113808.21,A,5200.3700,N,422.2625,E,-1.9,198.9,121223,0.0,E,A*1c
$GPVTG,198.9,T,0.0,M,-1.9,N,-3.6,K*4a
$GPGGA,113808.21,5200.3700,N,00422.2625,E,12,12,7.0,1.2,M,0.0,M,0.0,0000*43
$GPGSA,A,3,01,02,03,04,05,06,07,08,09,10,11,12,7.0,7.0,0.8*39
$GPGSV,3,1,12,01,45,045,50,02,45,045,50,03,45,045,50,04,45,045,50*7c
$GPGSV,3,2,12,05,45,045,50,06,45,045,50,07,45,045,50,08,45,045,50*77
$GPGSV,3,3,12,09,45,045,50,10,45,045,50,11,45,045,50,12,45,045,50*71
$GPRMC,113808.67,A,5200.3703,N,422.2627,E,-1.9,198.9,121223,0.0,E,A*1f
$GPVTG,198.9,T,0.0,M,-1.9,N,-3.6,K*4a
$GPGGA,113808.67,5200.3703,N,00422.2627,E,12,12,7.0,1.2,M,0.0,M,0.0,0000*40
$GPGSA,A,3,01,02,03,04,05,06,07,08,09,10,11,12,7.0,7.0,0.8*39
$GPGSV,3,1,12,01,45,045,50,02,45,045,50,03,45,045,50,04,45,045,50*7c
$GPGSV,3,2,12,05,45,045,50,06,45,045,50,07,45,045,50,08,45,045,50*77
$GPGSV,3,3,12,09,45,045,50,10,45,045,50,11,45,045,50,12,45,045,50*71
$GPRMC,113820.21,A,5200.3702,N,422.2627,E,-1.9,198.9,121223,0.0,E,A*16
$GPVTG,198.9,T,0.0,M,-1.9,N,-3.6,K*4a
$GPGGA,113820.21,5200.3702,N,00422.2627,E,12,12,7.0,1.2,M,0.0,M,0.0,0000*49
$GPGSA,A,3,01,02,03,04,05,06,07,08,09,10,11,12,7.0,7.0,0.8*39
$GPGSV,3,1,12,01,45,045,50,02,45,045,50,03,45,045,50,04,45,045,50*7c
$GPGSV,3,2,12,05,45,045,50,06,45,045,50,07,45,045,50,08,45,045,50*77
$GPGSV,3,3,12,09,45,045,50,10,45,045,50,11,45,045,50,12,45,045,50*71
$GPRMC,113820.67,A,5200.3699,N,422.2634,E,-1.9,198.9,121223,0.0,E,A*15
$GPVTG,198.9,T,0.0,M,-1.9,N,-3.6,K*4a
$GPGGA,113820.67,5200.3699,N,00422.2634,E,12,12,7.0,1.2,M,0.0,M,0.0,0000*4a
$GPGSA,A,3,01,02,03,04,05,06,07,08,09,10,11,12,7.0,7.0,0.8*39
$GPGSV,3,1,12,01,45,045,50,02,45,045,50,03,45,045,50,04,45,045,50*7c
$GPGSV,3,2,12,05,45,045,50,06,45,045,50,07,45,045,50,08,45,045,50*77
$GPGSV,3,3,12,09,45,045,50,10,45,045,50,11,45,045,50,12,45,045,50*71
$GPRMC,113832.22,A,5200.3699,N,422.2631,E,-1.9,198.9,121223,0.0,E,A*12
$GPVTG,198.9,T,0.0,M,-1.9,N,-3.6,K*4a
$GPGGA,113832.22,5200.3699,N,00422.2631,E,12,12,7.0,1.2,M,0.0,M,0.0,0000*4d
$GPGSA,A,3,01,02,03,04,05,06,07,08,09,10,11,12,7.0,7.0,0.8*39
$GPGSV,3,1,12,01,45,045,50,02,45,045,50,03,45,045,50,04,45,045,50*7c
$GPGSV,3,2,12,05,45,045,50,06,45,045,50,07,45,045,50,08,45,045,50*77
$GPGSV,3,3,12,09,45,045,50,10,45,045,50,11,45,045,50,12,45,045,50*71
$GPRMC,113832.65,A,5200.3701,N,422.2621,E,-1.9,198.9,121223,0.0,E,A*10
$GPVTG,198.9,T,0.0,M,-1.9,N,-3.6,K*4a
$GPGGA,113832.65,5200.3701,N,00422.2621,E,12,12,7.0,1.2,M,0.0,M,0.0,0000*4f
$GPGSA,A,3,01,02,03,04,05,06,07,08,09,10,11,12,7.0,7.0,0.8*39
$GPGSV,3,1,12,01,45,045,50,02,45,045,50,03,45,045,50,04,45,045,50*7c
$GPGSV,3,2,12,05,45,045,50,06,45,045,50,07,45,045,50,08,45,045,50*77
$GPGSV,3,3,12,09,45,045,50,10,45,045,50,11,45,045,50,12,45,045,50*71
$GPRMC,113844.22,A,5200.3701,N,422.2623,E,-1.9,198.9,121223,0.0,E,A*10
$GPVTG,198.9,T,0.0,M,-1.9,N,-3.6,K*4a
$GPGGA,113844.22,5200.3701,N,00422.2623,E,12,12,7.0,1.2,M,0.0,M,0.0,0000*4f
$GPGSA,A,3,01,02,03,04,05,06,07,08,09,10,11,12,7.0,7.0,0.8*39
$GPGSV,3,1,12,01,45,045,50,02,45,045,50,03,45,045,50,04,45,045,50*7c
$GPGSV,3,2,12,05,45,045,50,06,45,045,50,07,45,045,50,08,45,045,50*77
$GPGSV,3,3,12,09,45,045,50,10,45,045,50,11,45,045,50,12,45,045,50*71
$GPRMC,113844.67,A,5200.3696,N,422.2575,E,-1.9,198.9,121223,0.0,E,A*1e
$GPVTG,198.9,T,0.0,M,-1.9,N,-3.6,K*4a
$GPGGA,113844.67,5200.3696,N,00422.2575,E,12,12,7.0,1.2,M,0.0,M,0.0,0000*41
$GPGSA,A,3,01,02,03,04,05,06,07,08,09,10,11,12,7.0,7.0,0.8*39
$GPGSV,3,1,12,01,45,045,50,02,45,045,50,03,45,045,50,04,45,045,50*7c
$GPGSV,3,2,12,05,45,045,50,06,45,045,50,07,45,045,50,08,45,045,50*77
$GPGSV,3,3,12,09,45,045,50,10,45,045,50,11,45,045,50,12,45,045,50*71
$GPRMC,113856.22,A,5200.3698,N,422.2594,E,-1.9,198.9,121223,0.0,E,A*1d
$GPVTG,198.9,T,0.0,M,-1.9,N,-3.6,K*4a
$GPGGA,113856.22,5200.3698,N,00422.2594,E,12,12,7.0,1.2,M,0.0,M,0.0,0000*42
$GPGSA,A,3,01,02,03,04,05,06,07,08,09,10,11,12,7.0,7.0,0.8*39
$GPGSV,3,1,12,01,45,045,50,02,45,045,50,03,45,045,50,04,45,045,50*7c
$GPGSV,3,2,12,05,45,045,50,06,45,045,50,07,45,045,50,08,45,045,50*77
$GPGSV,3,3,12,09,45,045,50,10,45,045,50,11,45,045,50,12,45,045,50*71
$GPRMC,113856.67,A,5200.3698,N,422.2627,E,-1.9,198.9,121223,0.0,E,A*17
$GPVTG,198.9,T,0.0,M,-1.9,N,-3.6,K*4a
$GPGGA,113856.67,5200.3698,N,00422.2627,E,12,12,7.0,1.2,M,0.0,M,0.0,0000*48
$GPGSA,A,3,01,02,03,04,05,06,07,08,09,10,11,12,7.0,7.0,0.8*39
$GPGSV,3,1,12,01,45,045,50,02,45,045,50,03,45,045,50,04,45,045,50*7c
$GPGSV,3,2,12,05,45,045,50,06,45,045,50,07,45,045,50,08,45,045,50*77
$GPGSV,3,3,12,09,45,045,50,10,45,045,50,11,45,045,50,12,45,045,50*71
$GPRMC,113908.22,A,5200.3699,N,422.2627,E,-1.9,198.9,121223,0.0,E,A*1d
$GPVTG,198.9,T,0.0,M,-1.9,N,-3.6,K*4a
$GPGGA,113908.22,5200.3699,N,00422.2627,E,12,12,7.0,1.2,M,0.0,M,0.0,0000*42
$GPGSA,A,3,01,02,03,04,05,06,07,08,09,10,11,12,7.0,7.0,0.7*36
$GPGSV,3,1,12,01,45,045,50,02,45,045,50,03,45,045,50,04,45,045,50*7c
$GPGSV,3,2,12,05,45,045,50,06,45,045,50,07,45,045,50,08,45,045,50*77
$GPGSV,3,3,12,09,45,045,50,10,45,045,50,11,45,045,50,12,45,045,50*71
$GPRMC,113908.66,A,5200.3706,N,422.2645,E,-1.9,198.9,121223,0.0,E,A*1e
$GPVTG,198.9,T,0.0,M,-1.9,N,-3.6,K*4a
$GPGGA,113908.66,5200.3706,N,00422.2645,E,12,12,7.0,1.2,M,0.0,M,0.0,0000*41
$GPGSA,A,3,01,02,03,04,05,06,07,08,09,10,11,12,7.0,7.0,0.7*36
$GPGSV,3,1,12,01,45,045,50,02,45,045,50,03,45,045,50,04,45,045,50*7c
$GPGSV,3,2,12,05,45,045,50,06,45,045,50,07,45,045,50,08,45,045,50*77
$GPGSV,3,3,12,09,45,045,50,10,45,045,50,11,45,045,50,12,45,045,50*71
$GPRMC,113920.22,A,5200.3704,N,422.2638,E,-1.9,198.9,121223,0.0,E,A*1c
$GPVTG,198.9,T,0.0,M,-1.9,N,-3.6,K*4a
$GPGGA,113920.22,5200.3704,N,00422.2638,E,12,12,7.0,1.2,M,0.0,M,0.0,0000*43
$GPGSA,A,3,01,02,03,04,05,06,07,08,09,10,11,12,7.0,7.0,0.7*36
$GPGSV,3,1,12,01,45,045,50,02,45,045,50,03,45,045,50,04,45,045,50*7c
$GPGSV,3,2,12,05,45,045,50,06,45,045,50,07,45,045,50,08,45,045,50*77
$GPGSV,3,3,12,09,45,045,50,10,45,045,50,11,45,045,50,12,45,045,50*71
$GPRMC,113920.67,A,5200.3694,N,422.2625,E,-1.9,198.9,121223,0.0,E,A*19
$GPVTG,198.9,T,0.0,M,-1.9,N,-3.6,K*4a
$GPGGA,113920.67,5200.3694,N,00422.2625,E,12,12,7.0,1.2,M,0.0,M,0.0,0000*46
$GPGSA,A,3,01,02,03,04,05,06,07,08,09,10,11,12,7.0,7.0,0.7*36
$GPGSV,3,1,12,01,45,045,50,02,45,045,50,03,45,045,50,04,45,045,50*7c
$GPGSV,3,2,12,05,45,045,50,06,45,045,50,07,45,045,50,08,45,045,50*77
$GPGSV,3,3,12,09,45,045,50,10,45,045,50,11,45,045,50,12,45,045,50*71
$GPRMC,113932.22,A,5200.3697,N,422.2626,E,-1.9,198.9,121223,0.0,E,A*1b
$GPVTG,198.9,T,0.0,M,-1.9,N,-3.6,K*4a
$GPGGA,113932.22,5200.3697,N,00422.2626,E,12,12,7.0,1.2,M,0.0,M,0.0,0000*44
$GPGSA,A,3,01,02,03,04,05,06,07,08,09,10,11,12,7.0,7.0,0.7*36
$GPGSV,3,1,12,01,45,045,50,02,45,045,50,03,45,045,50,04,45,045,50*7c
$GPGSV,3,2,12,05,45,045,50,06,45,045,50,07,45,045,50,08,45,045,50*77
$GPGSV,3,3,12,09,45,045,50,10,45,045,50,11,45,045,50,12,45,045,50*71
$GPRMC,113932.69,A,5200.3699,N,422.2622,E,-1.9,198.9,121223,0.0,E,A*1e
$GPVTG,198.9,T,0.0,M,-1.9,N,-3.6,K*4a
$GPGGA,113932.69,5200.3699,N,00422.2622,E,12,12,7.0,1.2,M,0.0,M,0.0,0000*41
$GPGSA,A,3,01,02,03,04,05,06,07,08,09,10,11,12,7.0,7.0,0.7*36
$GPGSV,3,1,12,01,45,045,50,02,45,045,50,03,45,045,50,04,45,045,50*7c
$GPGSV,3,2,12,05,45,045,50,06,45,045,50,07,45,045,50,08,45,045,50*77
$GPGSV,3,3,12,09,45,045,50,10,45,045,50,11,45,045,50,12,45,045,50*71
$GPRMC,113944.22,A,5200.3700,N,422.2624,E,-1.9,198.9,121223,0.0,E,A*17
$GPVTG,198.9,T,0.0,M,-1.9,N,-3.6,K*4a
$GPGGA,113944.22,5200.3700,N,00422.2624,E,12,12,7.0,1.2,M,0.0,M,0.0,0000*48
$GPGSA,A,3,01,02,03,04,05,06,07,08,09,10,11,12,7.0,7.0,0.7*36
$GPGSV,3,1,12,01,45,045,50,02,45,045,50,03,45,045,50,04,45,045,50*7c
$GPGSV,3,2,12,05,45,045,50,06,45,045,50,07,45,045,50,08,45,045,50*77
$GPGSV,3,3,12,09,45,045,50,10,45,045,50,11,45,045,50,12,45,045,50*71
$GPRMC,113944.70,A,5200.3698,N,422.2626,E,-1.9,198.9,121223,0.0,E,A*12
$GPVTG,198.9,T,0.0,M,-1.9,N,-3.6,K*4a
$GPGGA,113944.70,5200.3698,N,00422.2626,E,12,12,7.0,1.2,M,0.0,M,0.0,0000*4d
$GPGSA,A,3,01,02,03,04,05,06,07,08,09,10,11,12,7.0,7.0,0.7*36
$GPGSV,3,1,12,01,45,045,50,02,45,045,50,03,45,045,50,04,45,045,50*7c
$GPGSV,3,2,12,05,45,045,50,06,45,045,50,07,45,045,50,08,45,045,50*77
$GPGSV,3,3,12,09,45,045,50,10,45,045,50,11,45,045,50,12,45,045,50*71
$GPRMC,113956.22,A,5200.3699,N,422.2627,E,-1.9,198.9,121223,0.0,E,A*16
$GPVTG,198.9,T,0.0,M,-1.9,N,-3.6,K*4a
$GPGGA,113956.22,5200.3699,N,00422.2627,E,12,12,7.0,1.2,M,0.0,M,0.0,0000*49
$GPGSA,A,3,01,02,03,04,05,06,07,08,09,10,11,12,7.0,7.0,0.7*36
$GPGSV,3,1,12,01,45,045,50,02,45,045,50,03,45,045,50,04,45,045,50*7c
$GPGSV,3,2,12,05,45,045,50,06,45,045,50,07,45,045,50,08,45,045,50*77
$GPGSV,3,3,12,09,45,045,50,10,45,045,50,11,45,045,50,12,45,045,50*71
$GPRMC,113956.68,A,5200.3692,N,422.2606,E,-1.9,198.9,121223,0.0,E,A*10
$GPVTG,198.9,T,0.0,M,-1.9,N,-3.6,K*4a
$GPGGA,113956.68,5200.3692,N,00422.2606,E,12,12,7.0,1.2,M,0.0,M,0.0,0000*4f
$GPGSA,A,3,01,02,03,04,05,06,07,08,09,10,11,12,7.0,7.0,0.7*36
$GPGSV,3,1,12,01,45,045,50,02,45,045,50,03,45,045,50,04,45,045,50*7c
$GPGSV,3,2,12,05,45,045,50,06,45,045,50,07,45,045,50,08,45,045,50*77
$GPGSV,3,3,12,09,45,045,50,10,45,045,50,11,45,045,50,12,45,045,50*71
$GPRMC,114008.22,A,5200.3695,N,422.2614,E,-1.9,198.9,121223,0.0,E,A*1f
$GPVTG,198.9,T,0.0,M,-1.9,N,-3.6,K*4a
$GPGGA,114008.22,5200.3695,N,00422.2614,E,12,12,7.0,1.2,M,0.0,M,0.0,0000*40
$GPGSA,A,3,01,02,03,04,05,06,07,08,09,10,11,12,7.0,7.0,0.7*36
$GPGSV,3,1,12,01,45,045,50,02,45,045,50,03,45,045,50,04,45,045,50*7c
$GPGSV,3,2,12,05,45,045,50,06,45,045,50,07,45,045,50,08,45,045,50*77
$GPGSV,3,3,12,09,45,045,50,10,45,045,50,11,45,045,50,12,45,045,50*71
$GPRMC,114008.67,A,5200.3702,N,422.2607,E,-1.9,198.9,121223,0.0,E,A*13
$GPVTG,198.9,T,0.0,M,-1.9,N,-3.6,K*4a
$GPGGA,114008.67,5200.3702,N,00422.2607,E,12,12,7.0,1.2,M,0.0,M,0.0,0000*4c
$GPGSA,A,3,01,02,03,04,05,06,07,08,09,10,11,12,7.0,7.0,0.7*36
$GPGSV,3,1,12,01,45,045,50,02,45,045,50,03,45,045,50,04,45,045,50*7c
$GPGSV,3,2,12,05,45,045,50,06,45,045,50,07,45,045,50,08,45,045,50*77
$GPGSV,3,3,12,09,45,045,50,10,45,045,50,11,45,045,50,12,45,045,50*71
$GPRMC,114020.22,A,5200.3702,N,422.2614,E,-1.9,198.9,121223,0.0,E,A*1a
$GPVTG,198.9,T,0.0,M,-1.9,N,-3.6,K*4a
$GPGGA,114020.22,5200.3702,N,00422.2614,E,12,12,7.0,1.2,M,0.0,M,0.0,0000*45
$GPGSA,A,3,01,02,03,04,05,06,07,08,09,10,11,12,7.0,7.0,0.7*36
$GPGSV,3,1,12,01,45,045,50,02,45,045,50,03,45,045,50,04,45,045,50*7c
$GPGSV,3,2,12,05,45,045,50,06,45,045,50,07,45,045,50,08,45,045,50*77
$GPGSV,3,3,12,09,45,045,50,10,45,045,50,11,45,045,50,12,45,045,50*71
$GPRMC,114020.68,A,5200.3701,N,422.2632,E,-1.9,198.9,121223,0.0,E,A*13
$GPVTG,198.9,T,0.0,M,-1.9,N,-3.6,K*4a
$GPGGA,114020.68,5200.3701,N,00422.2632,E,12,12,7.0,1.2,M,0.0,M,0.0,0000*4c
$GPGSA,A,3,01,02,03,04,05,06,07,08,09,10,11,12,7.0,7.0,0.7*36
$GPGSV,3,1,12,01,45,045,50,02,45,045,50,03,45,045,50,04,45,045,50*7c
$GPGSV,3,2,12,05,45,045,50,06,45,045,50,07,45,045,50,08,45,045,50*77
$GPGSV,3,3,12,09,45,045,50,10,45,045,50,11,45,045,50,12,45,045,50*71
$GPRMC,114032.22,A,5200.3701,N,422.2630,E,-1.9,198.9,121223,0.0,E,A*1c
$GPVTG,198.9,T,0.0,M,-1.9,N,-3.6,K*4a
$GPGGA,114032.22,5200.3701,N,00422.2630,E,12,12,7.0,1.2,M,0.0,M,0.0,0000*43
$GPGSA,A,3,01,02,03,04,05,06,07,08,09,10,11,12,7.0,7.0,0.7*36
$GPGSV,3,1,12,01,45,045,50,02,45,045,50,03,45,045,50,04,45,045,50*7c
$GPGSV,3,2,12,05,45,045,50,06,45,045,50,07,45,045,50,08,45,045,50*77
$GPGSV,3,3,12,09,45,045,50,10,45,045,50,11,45,045,50,12,45,045,50*71
$GPRMC,114032.67,A,5200.3699,N,422.2590,E,-1.9,198.9,121223,0.0,E,A*14
$GPVTG,198.9,T,0.0,M,-1.9,N,-3.6,K*4a
$GPGGA,114032.67,5200.3699,N,00422.2590,E,12,12,7.0,1.2,M,0.0,M,0.0,0000*4b
$GPGSA,A,3,01,02,03,04,05,06,07,08,09,10,11,12,7.0,7.0,0.7*36
$GPGSV,3,1,12,01,45,045,50,02,45,045,50,03,45,045,50,04,45,045,50*7c
$GPGSV,3,2,12,05,45,045,50,06,45,045,50,07,45,045,50,08,45,045,50*77
$GPGSV,3,3,12,09,45,045,50,10,45,045,50,11,45,045,50,12,45,045,50*71
$GPRMC,114044.22,A,5200.3700,N,422.2603,E,-1.9,198.9,121223,0.0,E,A*1c
$GPVTG,198.9,T,0.0,M,-1.9,N,-3.6,K*4a
$GPGGA,114044.22,5200.3700,N,00422.2603,E,12,12,7.0,1.2,M,0.0,M,0.0,0000*43
$GPGSA,A,3,01,02,03,04,05,06,07,08,09,10,11,12,7.0,7.0,0.7*36
$GPGSV,3,1,12,01,45,045,50,02,45,045,50,03,45,045,50,04,45,045,50*7c
$GPGSV,3,2,12,05,45,045,50,06,45,045,50,07,45,045,50,08,45,045,50*77
$GPGSV,3,3,12,09,45,045,50,10,45,045,50,11,45,045,50,12,45,045,50*71
$GPRMC,114044.68,A,5200.3680,N,422.2586,E,-1.9,198.9,121223,0.0,E,A*15
$GPVTG,198.9,T,0.0,M,-1.9,N,-3.6,K*4a
$GPGGA,114044.68,5200.3680,N,00422.2586,E,12,12,7.0,1.2,M,0.0,M,0.0,0000*4a
$GPGSA,A,3,01,02,03,04,05,06,07,08,09,10,11,12,7.0,7.0,0.7*36
$GPGSV,3,1,12,01,45,045,50,02,45,045,50,03,45,045,50,04,45,045,50*7c
$GPGSV,3,2,12,05,45,045,50,06,45,045,50,07,45,045,50,08,45,045,50*77
$GPGSV,3,3,12,09,45,045,50,10,45,045,50,11,45,045,50,12,45,045,50*71
$GPRMC,114056.22,A,5200.3688,N,422.2601,E,-1.9,198.9,121223,0.0,E,A*1c
$GPVTG,198.9,T,0.0,M,-1.9,N,-3.6,K*4a
$GPGGA,114056.22,5200.3688,N,00422.2601,E,12,12,7.0,1.2,M,0.0,M,0.0,0000*43
$GPGSA,A,3,01,02,03,04,05,06,07,08,09,10,11,12,7.0,7.0,0.7*36
$GPGSV,3,1,12,01,45,045,50,02,45,045,50,03,45,045,50,04,45,045,50*7c
$GPGSV,3,2,12,05,45,045,50,06,45,045,50,07,45,045,50,08,45,045,50*77
$GPGSV,3,3,12,09,45,045,50,10,45,045,50,11,45,045,50,12,45,045,50*71
$GPRMC,114056.67,A,5200.3699,N,422.2615,E,-1.9,198.9,121223,0.0,E,A*18
$GPVTG,198.9,T,0.0,M,-1.9,N,-3.6,K*4a
$GPGGA,114056.67,5200.3699,N,00422.2615,E,12,12,7.0,1.2,M,0.0,M,0.0,0000*47
$GPGSA,A,3,01,02,03,04,05,06,07,08,09,10,11,12,7.0,7.0,0.7*36
$GPGSV,3,1,12,01,45,045,50,02,45,045,50,03,45,045,50,04,45,045,50*7c
$GPGSV,3,2,12,05,45,045,50,06,45,045,50,07,45,045,50,08,45,045,50*77
$GPGSV,3,3,12,09,45,045,50,10,45,045,50,11,45,045,50,12,45,045,50*71
$GPRMC,114108.44,A,5200.3700,N,422.2619,E,-1.9,198.9,121223,0.0,E,A*1e
$GPVTG,198.9,T,0.0,M,-1.9,N,-3.6,K*4a
$GPGGA,114108.44,5200.3700,N,00422.2619,E,12,12,7.0,1.2,M,0.0,M,0.0,0000*41
$GPGSA,A,3,01,02,03,04,05,06,07,08,09,10,11,12,7.0,7.0,0.7*36
$GPGSV,3,1,12,01,45,045,50,02,45,045,50,03,45,045,50,04,45,045,50*7c
$GPGSV,3,2,12,05,45,045,50,06,45,045,50,07,45,045,50,08,45,045,50*77
$GPGSV,3,3,12,09,45,045,50,10,45,045,50,11,45,045,50,12,45,045,50*71
$GPRMC,114108.89,A,5200.3702,N,422.2622,E,-1.9,198.9,121223,0.0,E,A*15
$GPVTG,198.9,T,0.0,M,-1.9,N,-3.6,K*4a
$GPGGA,114108.89,5200.3702,N,00422.2622,E,12,12,7.0,1.2,M,0.0,M,0.0,0000*4a
$GPGSA,A,3,01,02,03,04,05,06,07,08,09,10,11,12,7.0,7.0,0.6*37
$GPGSV,3,1,12,01,45,045,50,02,45,045,50,03,45,045,50,04,45,045,50*7c
$GPGSV,3,2,12,05,45,045,50,06,45,045,50,07,45,045,50,08,45,045,50*77
$GPGSV,3,3,12,09,45,045,50,10,45,045,50,11,45,045,50,12,45,045,50*71
$GPRMC,114120.44,A,5200.3702,N,422.2624,E,-1.9,200.0,121223,0.0,E,A*13
$GPVTG,200.0,T,0.0,M,-1.9,N,-3.6,K*41
$GPGGA,114120.44,5200.3702,N,00422.2624,E,12,12,7.0,1.2,M,0.0,M,0.0,0000*47
$GPGSA,A,3,01,02,03,04,05,06,07,08,09,10,11,12,7.0,7.0,0.6*37
$GPGSV,3,1,12,01,45,045,50,02,45,045,50,03,45,045,50,04,45,045,50*7c
$GPGSV,3,2,12,05,45,045,50,06,45,045,50,07,45,045,50,08,45,045,50*77
$GPGSV,3,3,12,09,45,045,50,10,45,045,50,11,45,045,50,12,45,045,50*71
$GPRMC,114120.89,A,5200.3692,N,422.2618,E,-1.9,200.0,121223,0.0,E,A*15
$GPVTG,200.0,T,0.0,M,-1.9,N,-3.6,K*41
$GPGGA,114120.89,5200.3692,N,00422.2618,E,12,12,7.0,1.2,M,0.0,M,0.0,0000*41
$GPGSA,A,3,01,02,03,04,05,06,07,08,09,10,11,12,7.0,7.0,0.6*37
$GPGSV,3,1,12,01,45,045,50,02,45,045,50,03,45,045,50,04,45,045,50*7c
$GPGSV,3,2,12,05,45,045,50,06,45,045,50,07,45,045,50,08,45,045,50*77
$GPGSV,3,3,12,09,45,045,50,10,45,045,50,11,45,045,50,12,45,045,50*71
$GPRMC,114132.45,A,5200.3695,N,422.2621,E,-1.9,200.0,121223,0.0,E,A*1b
$GPVTG,200.0,T,0.0,M,-1.9,N,-3.6,K*41
$GPGGA,114132.45,5200.3695,N,00422.2621,E,12,12,7.0,1.3,M,0.0,M,0.0,0000*4e
$GPGSA,A,3,01,02,03,04,05,06,07,08,09,10,11,12,7.0,7.0,0.6*37
$GPGSV,3,1,12,01,45,045,50,02,45,045,50,03,45,045,50,04,45,045,50*7c
$GPGSV,3,2,12,05,45,045,50,06,45,045,50,07,45,045,50,08,45,045,50*77
$GPGSV,3,3,12,09,45,045,50,10,45,045,50,11,45,045,50,12,45,045,50*71
$GPRMC,114132.91,A,5200.3701,N,422.2628,E,-1.9,200.0,121223,0.0,E,A*17
$GPVTG,200.0,T,0.0,M,-1.9,N,-3.6,K*41
$GPGGA,114132.91,5200.3701,N,00422.2628,E,12,12,7.0,1.2,M,0.0,M,0.0,0000*43
$GPGSA,A,3,01,02,03,04,05,06,07,08,09,10,11,12,7.0,7.0,0.6*37
$GPGSV,3,1,12,01,45,045,50,02,45,045,50,03,45,045,50,04,45,045,50*7c
$GPGSV,3,2,12,05,45,045,50,06,45,045,50,07,45,045,50,08,45,045,50*77
$GPGSV,3,3,12,09,45,045,50,10,45,045,50,11,45,045,50,12,45,045,50*71
$GPRMC,114144.44,A,5200.3701,N,422.2628,E,-1.9,200.0,121223,0.0,E,A*1e
$GPVTG,200.0,T,0.0,M,-1.9,N,-3.6,K*41
$GPGGA,114144.44,5200.3701,N,00422.2628,E,12,12,7.0,1.3,M,0.0,M,0.0,0000*4b
$GPGSA,A,3,01,02,03,04,05,06,07,08,09,10,11,12,7.0,7.0,0.6*37
$GPGSV,3,1,12,01,45,045,50,02,45,045,50,03,45,045,50,04,45,045,50*7c
$GPGSV,3,2,12,05,45,045,50,06,45,045,50,07,45,045,50,08,45,045,50*77
$GPGSV,3,3,12,09,45,045,50,10,45,045,50,11,45,045,50,12,45,045,50*71
$GPRMC,114144.91,A,5200.3691,N,422.2576,E,-1.9,200.0,121223,0.0,E,A*16
$GPVTG,200.0,T,0.0,M,-1.9,N,-3.6,K*41
$GPGGA,114144.91,5200.3691,N,00422.2576,E,12,12,7.0,1.3,M,0.0,M,0.0,0000*43
$GPGSA,A,3,01,02,03,04,05,06,07,08,09,10,11,12,7.0,7.0,0.6*37
$GPGSV,3,1,12,01,45,045,50,02,45,045,50,03,45,045,50,04,45,045,50*7c
$GPGSV,3,2,12,05,45,045,50,06,45,045,50,07,45,045,50,08,45,045,50*77
$GPGSV,3,3,12,09,45,045,50,10,45,045,50,11,45,045,50,12,45,045,50*71
$GPRMC,114156.45,A,5200.3695,N,422.2594,E,-1.9,200.0,121223,0.0,E,A*14
$GPVTG,200.0,T,0.0,M,-1.9,N,-3.6,K*41
$GPGGA,114156.45,5200.3695,N,00422.2594,E,12,12,7.0,1.3,M,0.0,M,0.0,0000*41
$GPGSA,A,3,01,02,03,04,05,06,07,08,09,10,11,12,7.0,7.0,0.6*37
$GPGSV,3,1,12,01,45,045,50,02,45,045,50,03,45,045,50,04,45,045,50*7c
$GPGSV,3,2,12,05,45,045,50,06,45,045,50,07,45,045,50,08,45,045,50*77
$GPGSV,3,3,12,09,45,045,50,10,45,045,50,11,45,045,50,12,45,045,50*71
$GPRMC,114156.92,A,5200.3699,N,422.2628,E,-1.9,200.0,121223,0.0,E,A*16
$GPVTG,200.0,T,0.0,M,-1.9,N,-3.6,K*41
$GPGGA,114156.92,5200.3699,N,00422.2628,E,12,12,7.0,1.3,M,0.0,M,0.0,0000*43
$GPGSA,A,3,01,02,03,04,05,06,07,08,09,10,11,12,7.0,7.0,0.6*37
$GPGSV,3,1,12,01,45,045,50,02,45,045,50,03,45,045,50,04,45,045,50*7c
$GPGSV,3,2,12,05,45,045,50,06,45,045,50,07,45,045,50,08,45,045,50*77
$GPGSV,3,3,12,09,45,045,50,10,45,045,50,11,45,045,50,12,45,045,50*71
$GPRMC,114208.44,A,5200.3699,N,422.2627,E,-1.9,200.0,121223,0.0,E,A*1a
$GPVTG,200.0,T,0.0,M,-1.9,N,-3.6,K*41
$GPGGA,114208.44,5200.3699,N,00422.2627,E,12,12,7.0,1.3,M,0.0,M,0.0,0000*4f
$GPGSA,A,3,01,02,03,04,05,06,07,08,09,10,11,12,7.0,7.0,0.6*37
$GPGSV,3,1,12,01,45,045,50,02,45,045,50,03,45,045,50,04,45,045,50*7c
$GPGSV,3,2,12,05,45,045,50,06,45,045,50,07,45,045,50,08,45,045,50*77
$GPGSV,3,3,12,09,45,045,50,10,45,045,50,11,45,045,50,12,45,045,50*71
$GPRMC,114208.91,A,5200.3703,N,422.2630,E,-1.9,200.0,121223,0.0,E,A*16
$GPVTG,200.0,T,0.0,M,-1.9,N,-3.6,K*41
$GPGGA,114208.91,5200.3703,N,00422.2630,E,12,12,7.0,1.3,M,0.0,M,0.0,0000*43
$GPGSA,A,3,01,02,03,04,05,06,07,08,09,10,11,12,7.0,7.0,0.6*37
$GPGSV,3,1,12,01,45,045,50,02,45,045,50,03,45,045,50,04,45,045,50*7c
$GPGSV,3,2,12,05,45,045,50,06,45,045,50,07,45,045,50,08,45,045,50*77
$GPGSV,3,3,12,09,45,045,50,10,45,045,50,11,45,045,50,12,45,045,50*71
$GPRMC,114220.44,A,5200.3702,N,422.2629,E,-1.9,200.0,121223,0.0,E,A*1d
$GPVTG,200.0,T,0.0,M,-1.9,N,-3.6,K*41
$GPGGA,114220.44,5200.3702,N,00422.2629,E,12,12,7.0,1.3,M,0.0,M,0.0,0000*48
$GPGSA,A,3,01,02,03,04,05,06,07,08,09,10,11,12,7.0,7.0,0.6*37
$GPGSV,3,1,12,01,45,045,50,02,45,045,50,03,45,045,50,04,45,045,50*7c
$GPGSV,3,2,12,05,45,045,50,06,45,045,50,07,45,045,50,08,45,045,50*77
$GPGSV,3,3,12,09,45,045,50,10,45,045,50,11,45,045,50,12,45,045,50*71
$GPRMC,114220.90,A,5200.3700,N,422.2637,E,-1.9,200.0,121223,0.0,E,A*19
$GPVTG,200.0,T,0.0,M,-1.9,N,-3.6,K*41
$GPGGA,114220.90,5200.3700,N,00422.2637,E,12,12,7.0,1.3,M,0.0,M,0.0,0000*4c
$GPGSA,A,3,01,02,03,04,05,06,07,08,09,10,11,12,7.0,7.0,0.6*37
$GPGSV,3,1,12,01,45,045,50,02,45,045,50,03,45,045,50,04,45,045,50*7c
$GPGSV,3,2,12,05,45,045,50,06,45,045,50,07,45,045,50,08,45,045,50*77
$GPGSV,3,3,12,09,45,045,50,10,45,045,50,11,45,045,50,12,45,045,50*71
$GPRMC,114232.44,A,5200.3700,N,422.2633,E,-1.9,200.0,121223,0.0,E,A*17
$GPVTG,200.0,T,0.0,M,-1.9,N,-3.6,K*41
$GPGGA,114232.44,5200.3700,N,00422.2633,E,12,12,7.0,1.3,M,0.0,M,0.0,0000*42
$GPGSA,A,3,01,02,03,04,05,06,07,08,09,10,11,12,7.0,7.0,0.6*37
$GPGSV,3,1,12,01,45,045,50,02,45,045,50,03,45,045,50,04,45,045,50*7c
$GPGSV,3,2,12,05,45,045,50,06,45,045,50,07,45,045,50,08,45,045,50*77
$GPGSV,3,3,12,09,45,045,50,10,45,045,50,11,45,045,50,12,45,045,50*71
$GPRMC,114232.91,A,5200.3700,N,422.2617,E,-1.9,200.0,121223,0.0,E,A*19
$GPVTG,200.0,T,0.0,M,-1.9,N,-3.6,K*41
$GPGGA,114232.91,5200.3700,N,00422.2617,E,12,12,7.0,1.3,M,0.0,M,0.0,0000*4c
$GPGSA,A,3,01,02,03,04,05,06,07,08,09,10,11,12,7.0,7.0,0.6*37
$GPGSV,3,1,12,01,45,045,50,02,45,045,50,03,45,045,50,04,45,045,50*7c
$GPGSV,3,2,12,05,45,045,50,06,45,045,50,07,45,045,50,08,45,045,50*77
$GPGSV,3,3,12,09,45,045,50,10,45,045,50,11,45,045,50,12,45,045,50*71
$GPRMC,114244.45,A,5200.3700,N,422.2620,E,-1.9,200.0,121223,0.0,E,A*15
$GPVTG,200.0,T,0.0,M,-1.9,N,-3.6,K*41
$GPGGA,114244.45,5200.3700,N,00422.2620,E,12,12,7.0,1.3,M,0.0,M,0.0,0000*40
$GPGSA,A,3,01,02,03,04,05,06,07,08,09,10,11,12,7.0,7.0,0.6*37
$GPGSV,3,1,12,01,45,045,50,02,45,045,50,03,45,045,50,04,45,045,50*7c
$GPGSV,3,2,12,05,45,045,50,06,45,045,50,07,45,045,50,08,45,045,50*77
$GPGSV,3,3,12,09,45,045,50,10,45,045,50,11,45,045,50,12,45,045,50*71
$GPRMC,114244.92,A,5200.3699,N,422.2610,E,-1.9,200.0,121223,0.0,E,A*1d
$GPVTG,200.0,T,0.0,M,-1.9,N,-3.6,K*41
$GPGGA,114244.92,5200.3699,N,00422.2610,E,12,12,7.0,1.3,M,0.0,M,0.0,0000*48
$GPGSA,A,3,01,02,03,04,05,06,07,08,09,10,11,12,7.0,7.0,0.6*37
$GPGSV,3,1,12,01,45,045,50,02,45,045,50,03,45,045,50,04,45,045,50*7c
$GPGSV,3,2,12,05,45,045,50,06,45,045,50,07,45,045,50,08,45,045,50*77
$GPGSV,3,3,12,09,45,045,50,10,45,045,50,11,45,045,50,12,45,045,50*71
$GPRMC,114256.45,A,5200.3700,N,422.2616,E,-1.9,200.0,121223,0.0,E,A*13
$GPVTG,200.0,T,0.0,M,-1.9,N,-3.6,K*41
$GPGGA,114256.45,5200.3700,N,00422.2616,E,12,12,7.0,1.3,M,0.0,M,0.0,0000*46
$GPGSA,A,3,01,02,03,04,05,06,07,08,09,10,11,12,7.0,7.0,0.6*37
$GPGSV,3,1,12,01,45,045,50,02,45,045,50,03,45,045,50,04,45,045,50*7c
$GPGSV,3,2,12,05,45,045,50,06,45,045,50,07,45,045,50,08,45,045,50*77
$GPGSV,3,3,12,09,45,045,50,10,45,045,50,11,45,045,50,12,45,045,50*71
$GPRMC,114256.91,A,5200.3702,N,422.2630,E,-1.9,200.0,121223,0.0,E,A*1c
$GPVTG,200.0,T,0.0,M,-1.9,N,-3.6,K*41
$GPGGA,114256.91,5200.3702,N,00422.2630,E,12,12,7.0,1.3,M,0.0,M,0.0,0000*49
$GPGSA,A,3,01,02,03,04,05,06,07,08,09,10,11,12,7.0,7.0,0.6*37
$GPGSV,3,1,12,01,45,045,50,02,45,045,50,03,45,045,50,04,45,045,50*7c
$GPGSV,3,2,12,05,45,045,50,06,45,045,50,07,45,045,50,08,45,045,50*77
$GPGSV,3,3,12,09,45,045,50,10,45,045,50,11,45,045,50,12,45,045,50*71
$GPRMC,114308.45,A,5200.3701,N,422.2629,E,-1.9,200.0,121223,0.0,E,A*14
$GPVTG,200.0,T,0.0,M,-1.9,N,-3.6,K*41
$GPGGA,114308.45,5200.3701,N,00422.2629,E,12,12,7.0,1.3,M,0.0,M,0.0,0000*41
$GPGSA,A,3,01,02,03,04,05,06,07,08,09,10,11,12,7.0,7.0,0.6*37
$GPGSV,3,1,12,01,45,045,50,02,45,045,50,03,45,045,50,04,45,045,50*7c
$GPGSV,3,2,12,05,45,045,50,06,45,045,50,07,45,045,50,08,45,045,50*77
$GPGSV,3,3,12,09,45,045,50,10,45,045,50,11,45,045,50,12,45,045,50*71
$GPRMC,114308.91,A,5200.3700,N,422.2613,E,-1.9,200.0,121223,0.0,E,A*15
$GPVTG,200.0,T,0.0,M,-1.9,N,-3.6,K*41
$GPGGA,114308.91,5200.3700,N,00422.2613,E,12,12,7.0,1.3,M,0.0,M,0.0,0000*40
$GPGSA,A,3,01,02,03,04,05,06,07,08,09,10,11,12,7.0,7.0,0.6*37
$GPGSV,3,1,12,01,45,045,50,02,45,045,50,03,45,045,50,04,45,045,50*7c
$GPGSV,3,2,12,05,45,045,50,06,45,045,50,07,45,045,50,08,45,045,50*77
$GPGSV,3,3,12,09,45,045,50,10,45,045,50,11,45,045,50,12,45,045,50*71
$GPRMC,114320.45,A,5200.3700,N,422.2618,E,-1.9,200.0,121223,0.0,E,A*1d
$GPVTG,200.0,T,0.0,M,-1.9,N,-3.6,K*41
$GPGGA,114320.45,5200.3700,N,00422.2618,E,12,12,7.0,1.3,M,0.0,M,0.0,0000*48
$GPGSA,A,3,01,02,03,04,05,06,07,08,09,10,11,12,7.0,7.0,0.6*37
$GPGSV,3,1,12,01,45,045,50,02,45,045,50,03,45,045,50,04,45,045,50*7c
$GPGSV,3,2,12,05,45,045,50,06,45,045,50,07,45,045,50,08,45,045,50*77
$GPGSV,3,3,12,09,45,045,50,10,45,045,50,11,45,045,50,12,45,045,50*71
$GPRMC,114320.92,A,5200.3698,N,422.2627,E,-1.9,200.0,121223,0.0,E,A*1b
$GPVTG,200.0,T,0.0,M,-1.9,N,-3.6,K*41
$GPGGA,114320.92,5200.3698,N,00422.2627,E,12,12,7.0,1.3,M,0.0,M,0.0,0000*4e
$GPGSA,A,3,01,02,03,04,05,06,07,08,09,10,11,12,7.0,7.0,0.6*37
$GPGSV,3,1,12,01,45,045,50,02,45,045,50,03,45,045,50,04,45,045,50*7c
$GPGSV,3,2,12,05,45,045,50,06,45,045,50,07,45,045,50,08,45,045,50*77
$GPGSV,3,3,12,09,45,045,50,10,45,045,50,11,45,045,50,12,45,045,50*71
$GPRMC,114332.45,A,5200.3699,N,422.2627,E,-1.9,200.0,121223,0.0,E,A*13
$GPVTG,200.0,T,0.0,M,-1.9,N,-3.6,K*41
$GPGGA,114332.45,5200.3699,N,00422.2627,E,12,12,7.0,1.3,M,0.0,M,0.0,0000*46
$GPGSA,A,3,01,02,03,04,05,06,07,08,09,10,11,12,7.0,7.0,0.6*37
$GPGSV,3,1,12,01,45,045,50,02,45,045,50,03,45,045,50,04,45,045,50*7c
$GPGSV,3,2,12,05,45,045,50,06,45,045,50,07,45,045,50,08,45,045,50*77
$GPGSV,3,3,12,09,45,045,50,10,45,045,50,11,45,045,50,12,45,045,50*71
$GPRMC,114332.91,A,5200.3697,N,422.2623,E,-1.9,200.0,121223,0.0,E,A*10
$GPVTG,200.0,T,0.0,M,-1.9,N,-3.6,K*41
$GPGGA,114332.91,5200.3697,N,00422.2623,E,12,12,7.0,1.3,M,0.0,M,0.0,0000*45
$GPGSA,A,3,01,02,03,04,05,06,07,08,09,10,11,12,7.0,7.0,0.6*37
$GPGSV,3,1,12,01,45,045,50,02,45,045,50,03,45,045,50,04,45,045,50*7c
$GPGSV,3,2,12,05,45,045,50,06,45,045,50,07,45,045,50,08,45,045,50*77
$GPGSV,3,3,12,09,45,045,50,10,45,045,50,11,45,045,50,12,45,045,50*71
$GPRMC,114344.45,A,5200.3699,N,422.2624,E,-1.9,200.0,121223,0.0,E,A*11
$GPVTG,200.0,T,0.0,M,-1.9,N,-3.6,K*41
$GPGGA,114344.45,5200.3699,N,00422.2624,E,12,12,7.0,1.3,M,0.0,M,0.0,0000*44
$GPGSA,A,3,01,02,03,04,05,06,07,08,09,10,11,12,7.0,7.0,0.6*37
$GPGSV,3,1,12,01,45,045,50,02,45,045,50,03,45,045,50,04,45,045,50*7c
$GPGSV,3,2,12,05,45,045,50,06,45,045,50,07,45,045,50,08,45,045,50*77
$GPGSV,3,3,12,09,45,045,50,10,45,045,50,11,45,045,50,12,45,045,50*71
$GPRMC,114344.90,A,5200.3698,N,422.2608,E,-1.9,200.0,121223,0.0,E,A*16
$GPVTG,200.0,T,0.0,M,-1.9,N,-3.6,K*41
$GPGGA,114344.90,5200.3698,N,00422.2608,E,12,12,7.0,1.3,M,0.0,M,0.0,0000*43
$GPGSA,A,3,01,02,03,04,05,06,07,08,09,10,11,12,7.0,7.0,0.6*37
$GPGSV,3,1,12,01,45,045,50,02,45,045,50,03,45,045,50,04,45,045,50*7c
$GPGSV,3,2,12,05,45,045,50,06,45,045,50,07,45,045,50,08,45,045,50*77
$GPGSV,3,3,12,09,45,045,50,10,45,045,50,11,45,045,50,12,45,045,50*71
$GPRMC,114356.44,A,5200.3699,N,422.2614,E,-1.9,200.0,121223,0.0,E,A*10
$GPVTG,200.0,T,0.0,M,-1.9,N,-3.6,K*41
$GPGGA,114356.44,5200.3699,N,00422.2614,E,12,12,7.0,1.3,M,0.0,M,0.0,0000*45
$GPGSA,A,3,01,02,03,04,05,06,07,08,09,10,11,12,7.0,7.0,0.6*37
$GPGSV,3,1,12,01,45,045,50,02,45,045,50,03,45,045,50,04,45,045,50*7c
$GPGSV,3,2,12,05,45,045,50,06,45,045,50,07,45,045,50,08,45,045,50*77
$GPGSV,3,3,12,09,45,045,50,10,45,045,50,11,45,045,50,12,45,045,50*71
$GPRMC,114356.90,A,5200.3697,N,422.2615,E,-1.9,200.0,121223,0.0,E,A*16
$GPVTG,200.0,T,0.0,M,-1.9,N,-3.6,K*41
$GPGGA,114356.90,5200.3697,N,00422.2615,E,12,12,7.0,1.3,M,0.0,M,0.0,0000*43
$GPGSA,A,3,01,02,03,04,05,06,07,08,09,10,11,12,7.0,7.0,0.6*37
$GPGSV,3,1,12,01,45,045,50,02,45,045,50,03,45,045,50,04,45,045,50*7c
$GPGSV,3,2,12,05,45,045,50,06,45,045,50,07,45,045,50,08,45,045,50*77
$GPGSV,3,3,12,09,45,045,50,10,45,045,50,11,45,045,50,12,45,045,50*71
$GPRMC,114408.66,A,5200.3698,N,422.2619,E,-1.9,200.0,121223,0.0,E,A*10
$GPVTG,200.0,T,0.0,M,-1.9,N,-3.6,K*41
$GPGGA,114408.66,5200.3698,N,00422.2619,E,12,12,7.0,1.3,M,0.0,M,0.0,0000*45
$GPGSA,A,3,01,02,03,04,05,06,07,08,09,10,11,12,7.0,7.0,0.6*37
$GPGSV,3,1,12,01,45,045,50,02,45,045,50,03,45,045,50,04,45,045,50*7c
$GPGSV,3,2,12,05,45,045,50,06,45,045,50,07,45,045,50,08,45,045,50*77
$GPGSV,3,3,12,09,45,045,50,10,45,045,50,11,45,045,50,12,45,045,50*71
$GPRMC,114409.12,A,5200.3704,N,422.2629,E,-1.9,200.0,121223,0.0,E,A*15
$GPVTG,200.0,T,0.0,M,-1.9,N,-3.6,K*41
$GPGGA,114409.12,5200.3704,N,00422.2629,E,12,12,7.0,1.3,M,0.0,M,0.0,0000*40
$GPGSA,A,3,01,02,03,04,05,06,07,08,09,10,11,12,7.0,7.0,0.6*37
$GPGSV,3,1,12,01,45,045,50,02,45,045,50,03,45,045,50,04,45,045,50*7c
$GPGSV,3,2,12,05,45,045,50,06,45,045,50,07,45,045,50,08,45,045,50*77
$GPGSV,3,3,12,09,45,045,50,10,45,045,50,11,45,045,50,12,45,045,50*71
$GPRMC,114420.67,A,5200.3703,N,422.2628,E,-1.9,200.0,121223,0.0,E,A*1a
$GPVTG,200.0,T,0.0,M,-1.9,N,-3.6,K*41
$GPGGA,114420.67,5200.3703,N,00422.2628,E,12,12,7.0,1.3,M,0.0,M,0.0,0000*4f
$GPGSA,A,3,01,02,03,04,05,06,07,08,09,10,11,12,7.0,7.0,0.6*37
$GPGSV,3,1,12,01,45,045,50,02,45,045,50,03,45,045,50,04,45,045,50*7c
$GPGSV,3,2,12,05,45,045,50,06,45,045,50,07,45,045,50,08,45,045,50*77
$GPGSV,3,3,12,09,45,045,50,10,45,045,50,11,45,045,50,12,45,045,50*71
$GPRMC,114421.13,A,5200.3711,N,422.2626,E,-1.9,200.0,121223,0.0,E,A*15
$GPVTG,200.0,T,0.0,M,-1.9,N,-3.6,K*41
$GPGGA,114421.13,5200.3711,N,00422.2626,E,12,12,7.0,1.3,M,0.0,M,0.0,0000*40
$GPGSA,A,3,01,02,03,04,05,06,07,08,09,10,11,12,7.0,7.0,0.6*37
$GPGSV,3,1,12,01,45,045,50,02,45,045,50,03,45,045,50,04,45,045,50*7c
$GPGSV,3,2,12,05,45,045,50,06,45,045,50,07,45,045,50,08,45,045,50*77
$GPGSV,3,3,12,09,45,045,50,10,45,045,50,11,45,045,50,12,45,045,50*71
$GPRMC,114432.67,A,5200.3707,N,422.2626,E,-1.9,200.0,121223,0.0,E,A*13
$GPVTG,200.0,T,0.0,M,-1.9,N,-3.6,K*41
$GPGGA,114432.67,5200.3707,N,00422.2626,E,12,12,7.0,1.3,M,0.0,M,0.0,0000*46
$GPGSA,A,3,01,02,03,04,05,06,07,08,09,10,11,12,7.0,7.0,0.6*37
$GPGSV,3,1,12,01,45,045,50,02,45,045,50,03,45,045,50,04,45,045,50*7c
$GPGSV,3,2,12,05,45,045,50,06,45,045,50,07,45,045,50,08,45,045,50*77
$GPGSV,3,3,12,09,45,045,50,10,45,045,50,11,45,045,50,12,45,045,50*71
$GPRMC,114433.12,A,5200.3704,N,422.2638,E,-1.9,200.0,121223,0.0,E,A*1c
$GPVTG,200.0,T,0.0,M,-1.9,N,-3.6,K*41
$GPGGA,114433.12,5200.3704,N,00422.2638,E,12,12,7.0,1.3,M,0.0,M,0.0,0000*49
$GPGSA,A,3,01,02,03,04,05,06,07,08,09,10,11,12,7.0,7.0,0.5*34
$GPGSV,3,1,12,01,45,045,50,02,45,045,50,03,45,045,50,04,45,045,50*7c
$GPGSV,3,2,12,05,45,045,50,06,45,045,50,07,45,045,50,08,45,045,50*77
$GPGSV,3,3,12,09,45,045,50,10,45,045,50,11,45,045,50,12,45,045,50*71
$GPRMC,114444.67,A,5200.3703,N,422.2634,E,-1.9,200.0,121223,0.0,E,A*15
$GPVTG,200.0,T,0.0,M,-1.9,N,-3.6,K*41
$GPGGA,114444.67,5200.3703,N,00422.2634,E,12,12,7.0,1.3,M,0.0,M,0.0,0000*40
$GPGSA,A,3,01,02,03,04,05,06,07,08,09,10,11,12,7.0,7.0,0.5*34
$GPGSV,3,1,12,01,45,045,50,02,45,045,50,03,45,045,50,04,45,045,50*7c
$GPGSV,3,2,12,05,45,045,50,06,45,045,50,07,45,045,50,08,45,045,50*77
$GPGSV,3,3,12,09,45,045,50,10,45,045,50,11,45,045,50,12,45,045,50*71
$GPRMC,114445.10,A,5200.3701,N,422.2635,E,-1.9,200.0,121223,0.0,E,A*17
$GPVTG,200.0,T,0.0,M,-1.9,N,-3.6,K*41
$GPGGA,114445.10,5200.3701,N,00422.2635,E,12,12,7.0,1.3,M,0.0,M,0.0,0000*42
$GPGSA,A,3,01,02,03,04,05,06,07,08,09,10,11,12,7.0,7.0,0.5*34
$GPGSV,3,1,12,01,45,045,50,02,45,045,50,03,45,045,50,04,45,045,50*7c
$GPGSV,3,2,12,05,45,045,50,06,45,045,50,07,45,045,50,08,45,045,50*77
$GPGSV,3,3,12,09,45,045,50,10,45,045,50,11,45,045,50,12,45,045,50*71
$GPRMC,114456.67,A,5200.3701,N,422.2632,E,-1.9,200.0,121223,0.0,E,A*12
$GPVTG,200.0,T,0.0,M,-1.9,N,-3.6,K*41
$GPGGA,114456.67,5200.3701,N,00422.2632,E,12,12,7.0,1.3,M,0.0,M,0.0,0000*47
$GPGSA,A,3,01,02,03,04,05,06,07,08,09,10,11,12,7.0,7.0,0.5*34
$GPGSV,3,1,12,01,45,045,50,02,45,045,50,03,45,045,50,04,45,045,50*7c
$GPGSV,3,2,12,05,45,045,50,06,45,045,50,07,45,045,50,08,45,045,50*77
$GPGSV,3,3,12,09,45,045,50,10,45,045,50,11,45,045,50,12,45,045,50*71
$GPRMC,114457.12,A,5200.3695,N,422.2622,E,-1.9,200.0,121223,0.0,E,A*1c
$GPVTG,200.0,T,0.0,M,-1.9,N,-3.6,K*41
$GPGGA,114457.12,5200.3695,N,00422.2622,E,12,12,7.0,1.3,M,0.0,M,0.0,0000*49
$GPGSA,A,3,01,02,03,04,05,06,07,08,09,10,11,12,7.0,7.0,0.5*34
$GPGSV,3,1,12,01,45,045,50,02,45,045,50,03,45,045,50,04,45,045,50*7c
$GPGSV,3,2,12,05,45,045,50,06,45,045,50,07,45,045,50,08,45,045,50*77
$GPGSV,3,3,12,09,45,045,50,10,45,045,50,11,45,045,50,12,45,045,50*71
$GPRMC,114508.67,A,5200.3697,N,422.2623,E,-1.9,200.0,121223,0.0,E,A*16
$GPVTG,200.0,T,0.0,M,-1.9,N,-3.6,K*41
$GPGGA,114508.67,5200.3697,N,00422.2623,E,12,12,7.0,1.3,M,0.0,M,0.0,0000*43
$GPGSA,A,3,01,02,03,04,05,06,07,08,09,10,11,12,7.0,7.0,0.5*34
$GPGSV,3,1,12,01,45,045,50,02,45,045,50,03,45,045,50,04,45,045,50*7c
$GPGSV,3,2,12,05,45,045,50,06,45,045,50,07,45,045,50,08,45,045,50*77
$GPGSV,3,3,12,09,45,045,50,10,45,045,50,11,45,045,50,12,45,045,50*71
$GPRMC,114509.13,A,5200.3698,N,422.2620,E,-1.9,200.0,121223,0.0,E,A*18
$GPVTG,200.0,T,0.0,M,-1.9,N,-3.6,K*41
$GPGGA,114509.13,5200.3698,N,00422.2620,E,12,12,7.0,1.3,M,0.0,M,0.0,0000*4d
$GPGSA,A,3,01,02,03,04,05,06,07,08,09,10,11,12,7.0,7.0,0.5*34
$GPGSV,3,1,12,01,45,045,50,02,45,045,50,03,45,045,50,04,45,045,50*7c
$GPGSV,3,2,12,05,45,045,50,06,45,045,50,07,45,045,50,08,45,045,50*77
$GPGSV,3,3,12,09,45,045,50,10,45,045,50,11,45,045,50,12,45,045,50*71
$GPRMC,114520.67,A,5200.3699,N,422.2623,E,-1.9,200.0,121223,0.0,E,A*12
$GPVTG,200.0,T,0.0,M,-1.9,N,-3.6,K*41
$GPGGA,114520.67,5200.3699,N,00422.2623,E,12,12,7.0,1.3,M,0.0,M,0.0,0000*47
$GPGSA,A,3,01,02,03,04,05,06,07,08,09,10,11,12,7.0,7.0,0.5*34
$GPGSV,3,1,12,01,45,045,50,02,45,045,50,03,45,045,50,04,45,045,50*7c
$GPGSV,3,2,12,05,45,045,50,06,45,045,50,07,45,045,50,08,45,045,50*77
$GPGSV,3,3,12,09,45,045,50,10,45,045,50,11,45,045,50,12,45,045,50*71
$GPRMC,114521.13,A,5200.3699,N,422.2633,E,-1.9,200.0,121223,0.0,E,A*11
$GPVTG,200.0,T,0.0,M,-1.9,N,-3.6,K*41
$GPGGA,114521.13,5200.3699,N,00422.2633,E,12,12,7.0,1.3,M,0.0,M,0.0,0000*44
$GPGSA,A,3,01,02,03,04,05,06,07,08,09,10,11,12,7.0,7.0,0.5*34
$GPGSV,3,1,12,01,45,045,50,02,45,045,50,03,45,045,50,04,45,045,50*7c
$GPGSV,3,2,12,05,45,045,50,06,45,045,50,07,45,045,50,08,45,045,50*77
$GPGSV,3,3,12,09,45,045,50,10,45,045,50,11,45,045,50,12,45,045,50*71
$GPRMC,114532.67,A,5200.3700,N,422.2631,E,-1.9,200.0,121223,0.0,E,A*13
$GPVTG,200.0,T,0.0,M,-1.9,N,-3.6,K*41
$GPGGA,114532.67,5200.3700,N,00422.2631,E,12,12,7.0,1.3,M,0.0,M,0.0,0000*46
$GPGSA,A,3,01,02,03,04,05,06,07,08,09,10,11,12,7.0,7.0,0.5*34
$GPGSV,3,1,12,01,45,045,50,02,45,045,50,03,45,045,50,04,45,045,50*7c
$GPGSV,3,2,12,05,45,045,50,06,45,045,50,07,45,045,50,08,45,045,50*77
$GPGSV,3,3,12,09,45,045,50,10,45,045,50,11,45,045,50,12,45,045,50*71
$GPRMC,114533.12,A,5200.3698,N,422.2627,E,-1.9,200.0,121223,0.0,E,A*17
$GPVTG,200.0,T,0.0,M,-1.9,N,-3.6,K*41
$GPGGA,114533.12,5200.3698,N,00422.2627,E,12,12,7.0,1.3,M,0.0,M,0.0,0000*42
$GPGSA,A,3,01,02,03,04,05,06,07,08,09,10,11,12,7.0,7.0,0.5*34
$GPGSV,3,1,12,01,45,045,50,02,45,045,50,03,45,045,50,04,45,045,50*7c
$GPGSV,3,2,12,05,45,045,50,06,45,045,50,07,45,045,50,08,45,045,50*77
$GPGSV,3,3,12,09,45,045,50,10,45,045,50,11,45,045,50,12,45,045,50*71
$GPRMC,114544.67,A,5200.3699,N,422.2627,E,-1.9,200.0,121223,0.0,E,A*14
$GPVTG,200.0,T,0.0,M,-1.9,N,-3.6,K*41
$GPGGA,114544.67,5200.3699,N,00422.2627,E,12,12,7.0,1.3,M,0.0,M,0.0,0000*41
$GPGSA,A,3,01,02,03,04,05,06,07,08,09,10,11,12,7.0,7.0,0.5*34
$GPGSV,3,1,12,01,45,045,50,02,45,045,50,03,45,045,50,04,45,045,50*7c
$GPGSV,3,2,12,05,45,045,50,06,45,045,50,07,45,045,50,08,45,045,50*77
$GPGSV,3,3,12,09,45,045,50,10,45,045,50,11,45,045,50,12,45,045,50*71
$GPRMC,114545.13,A,5200.3705,N,422.2648,E,-1.9,200.0,121223,0.0,E,A*1b
$GPVTG,200.0,T,0.0,M,-1.9,N,-3.6,K*41
$GPGGA,114545.13,5200.3705,N,00422.2648,E,12,12,7.0,1.3,M,0.0,M,0.0,0000*4e
$GPGSA,A,3,01,02,03,04,05,06,07,08,09,10,11,12,7.0,7.0,0.5*34
$GPGSV,3,1,12,01,45,045,50,02,45,045,50,03,45,045,50,04,45,045,50*7c
$GPGSV,3,2,12,05,45,045,50,06,45,045,50,07,45,045,50,08,45,045,50*77
$GPGSV,3,3,12,09,45,045,50,10,45,045,50,11,45,045,50,12,45,045,50*71
$GPRMC,114556.67,A,5200.3704,N,422.2641,E,-1.9,200.0,121223,0.0,E,A*12
$GPVTG,200.0,T,0.0,M,-1.9,N,-3.6,K*41
$GPGGA,114556.67,5200.3704,N,00422.2641,E,12,12,7.0,1.3,M,0.0,M,0.0,0000*47
$GPGSA,A,3,01,02,03,04,05,06,07,08,09,10,11,12,7.0,7.0,0.5*34
$GPGSV,3,1,12,01,45,045,50,02,45,045,50,03,45,045,50,04,45,045,50*7c
$GPGSV,3,2,12,05,45,045,50,06,45,045,50,07,45,045,50,08,45,045,50*77
$GPGSV,3,3,12,09,45,045,50,10,45,045,50,11,45,045,50,12,45,045,50*71
$GPRMC,114557.13,A,5200.3701,N,422.2634,E,-1.9,200.0,121223,0.0,E,A*17
$GPVTG,200.0,T,0.0,M,-1.9,N,-3.6,K*41
$GPGGA,114557.13,5200.3701,N,00422.2634,E,12,12,7.0,1.3,M,0.0,M,0.0,0000*42
$GPGSA,A,3,01,02,03,04,05,06,07,08,09,10,11,12,7.0,7.0,0.5*34
$GPGSV,3,1,12,01,45,045,50,02,45,045,50,03,45,045,50,04,45,045,50*7c
$GPGSV,3,2,12,05,45,045,50,06,45,045,50,07,45,045,50,08,45,045,50*77
$GPGSV,3,3,12,09,45,045,50,10,45,045,50,11,45,045,50,12,45,045,50*71
$GPRMC,114608.67,A,5200.3701,N,422.2631,E,-1.9,200.0,121223,0.0,E,A*18
$GPVTG,200.0,T,0.0,M,-1.9,N,-3.6,K*41
$GPGGA,114608.67,5200.3701,N,00422.2631,E,12,12,7.0,1.3,M,0.0,M,0.0,0000*4d
$GPGSA,A,3,01,02,03,04,05,06,07,08,09,10,11,12,7.0,7.0,0.5*34
$GPGSV,3,1,12,01,45,045,50,02,45,045,50,03,45,045,50,04,45,045,50*7c
$GPGSV,3,2,12,05,45,045,50,06,45,045,50,07,45,045,50,08,45,045,50*77
$GPGSV,3,3,12,09,45,045,50,10,45,045,50,11,45,045,50,12,45,045,50*71
$GPRMC,114609.12,A,5200.3703,N,422.2629,E,-1.9,200.0,121223,0.0,E,A*10
$GPVTG,200.0,T,0.0,M,-1.9,N,-3.6,K*41
$GPGGA,114609.12,5200.3703,N,00422.2629,E,12,12,7.0,1.3,M,0.0,M,0.0,0000*45
$GPGSA,A,3,01,02,03,04,05,06,07,08,09,10,11,12,7.0,7.0,0.5*34
$GPGSV,3,1,12,01,45,045,50,02,45,045,50,03,45,045,50,04,45,045,50*7c
$GPGSV,3,2,12,05,45,045,50,06,45,045,50,07,45,045,50,08,45,045,50*77
$GPGSV,3,3,12,09,45,045,50,10,45,045,50,11,45,045,50,12,45,045,50*71
$GPRMC,114620.67,A,5200.3702,N,422.2628,E,-1.9,200.0,121223,0.0,E,A*19
$GPVTG,200.0,T,0.0,M,-1.9,N,-3.6,K*41
$GPGGA,114620.67,5200.3702,N,00422.2628,E,12,12,7.0,1.3,M,0.0,M,0.0,0000*4c
$GPGSA,A,3,01,02,03,04,05,06,07,08,09,10,11,12,7.0,7.0,0.5*34
