$GPGSA,A,3,01,02,03,04,05,06,07,08,09,10,11,12,12.2,11.5,3.9*3f
$GPGSV,3,1,12,01,45,045,50,02,45,045,50,03,45,045,50,04,45,045,50*7c
$GPGSV,3,2,12,05,45,045,50,06,45,045,50,07,45,045,50,08,45,045,50*77
$GPGSV,3,3,12,09,45,045,50,10,45,045,50,11,45,045,50,12,45,045,50*71
$GPRMC,122406.81,A,5200.3683,N,422.2425,E,-1.9,8.3,111223,0.0,E,A*1f
$GPVTG,8.3,T,0.0,M,-1.9,N,-3.6,K*48
$GPGGA,122406.81,5200.3683,N,00422.2425,E,12,12,11.5,0.7,M,0.0,M,0.0,0000*77
$GPGSA,A,3,01,02,03,04,05,06,07,08,09,10,11,12,7.8,7.0,3.3*39
$GPGSV,3,1,12,01,45,045,50,02,45,045,50,03,45,045,50,04,45,045,50*7c
$GPGSV,3,2,12,05,45,045,50,06,45,045,50,07,45,045,50,08,45,045,50*77
$GPGSV,3,3,12,09,45,045,50,10,45,045,50,11,45,045,50,12,45,045,50*71
$GPRMC,122407.26,A,5200.3673,N,422.2410,E,-1.9,10.8,111223,0.0,E,A*28
$GPVTG,10.8,T,0.0,M,-1.9,N,-3.6,K*7a
$GPGGA,122407.26,5200.3673,N,00422.2410,E,12,12,7.0,0.7,M,0.0,M,0.0,0000*40
$GPGSA,A,3,01,02,03,04,05,06,07,08,09,10,11,12,12.1,11.4,3.9*3d
$GPGSV,3,1,12,01,45,045,50,02,45,045,50,03,45,045,50,04,45,045,50*7c
$GPGSV,3,2,12,05,45,045,50,06,45,045,50,07,45,045,50,08,45,045,50*77
$GPGSV,3,3,12,09,45,045,50,10,45,045,50,11,45,045,50,12,45,045,50*71
$GPRMC,122413.27,A,5200.3684,N,422.2468,E,-1.9,6.2,111223,0.0,E,A*16
$GPVTG,6.2,T,0.0,M,-1.9,N,-3.6,K*47
$GPGGA,122413.27,5200.3684,N,00422.2468,E,12,12,11.4,0.7,M,0.0,M,0.0,0000*70
$GPGSA,A,3,01,02,03,04,05,06,07,08,09,10,11,12,7.8,7.0,3.4*3e
$GPGSV,3,1,12,01,45,045,50,02,45,045,50,03,45,045,50,04,45,045,50*7c
$GPGSV,3,2,12,05,45,045,50,06,45,045,50,07,45,045,50,08,45,045,50*77
$GPGSV,3,3,12,09,45,045,50,10,45,045,50,11,45,045,50,12,45,045,50*71
$GPRMC,122413.76,A,5200.3696,N,422.2427,E,-1.9,6.2,111223,0.0,E,A*1a
$GPVTG,6.2,T,0.0,M,-1.9,N,-3.6,K*47
$GPGGA,122413.76,5200.3696,N,00422.2427,E,12,12,7.0,0.7,M,0.0,M,0.0,0000*4f
$GPGSA,A,3,01,02,03,04,05,06,07,08,09,10,11,12,8.7,7.9,3.6*35
$GPGSV,3,1,12,01,45,045,50,02,45,045,50,03,45,045,50,04,45,045,50*7c
$GPGSV,3,2,12,05,45,045,50,06,45,045,50,07,45,045,50,08,45,045,50*77
$GPGSV,3,3,12,09,45,045,50,10,45,045,50,11,45,045,50,12,45,045,50*71
$GPRMC,122419.78,A,5200.3699,N,422.2449,E,-1.9,87.7,111223,0.0,E,A*25
$GPVTG,87.7,T,0.0,M,-1.9,N,-3.6,K*7b
$GPGGA,122419.78,5200.3699,N,00422.2449,E,12,12,7.9,0.7,M,0.0,M,0.0,0000*45
$GPGSA,A,3,01,02,03,04,05,06,07,08,09,10,11,12,7.7,7.0,3.2*37
$GPGSV,3,1,12,01,45,045,50,02,45,045,50,03,45,045,50,04,45,045,50*7c
$GPGSV,3,2,12,05,45,045,50,06,45,045,50,07,45,045,50,08,45,045,50*77
$GPGSV,3,3,12,09,45,045,50,10,45,045,50,11,45,045,50,12,45,045,50*71
$GPRMC,122420.25,A,5200.3685,N,422.2427,E,-1.9,94.1,111223,0.0,E,A*26
$GPVTG,94.1,T,0.0,M,-1.9,N,-3.6,K*7f
$GPGGA,122420.25,5200.3685,N,00422.2427,E,12,12,7.0,0.7,M,0.0,M,0.0,0000*4b
$GPGSA,A,3,01,02,03,04,05,06,07,08,09,10,11,12,9.3,8.5,3.8*3d
$GPGSV,3,1,12,01,45,045,50,02,45,045,50,03,45,045,50,04,45,045,50*7c
$GPGSV,3,2,12,05,45,045,50,06,45,045,50,07,45,045,50,08,45,045,50*77
$GPGSV,3,3,12,09,45,045,50,10,45,045,50,11,45,045,50,12,45,045,50*71
$GPRMC,122426.27,A,5200.3687,N,422.2445,E,-1.9,94.1,111223,0.0,E,A*24
$GPVTG,94.1,T,0.0,M,-1.9,N,-3.6,K*7f
$GPGGA,122426.27,5200.3687,N,00422.2445,E,12,12,8.5,0.7,M,0.0,M,0.0,0000*43
$GPGSA,A,3,01,02,03,04,05,06,07,08,09,10,11,12,7.7,7.0,3.3*36
$GPGSV,3,1,12,01,45,045,50,02,45,045,50,03,45,045,50,04,45,045,50*7c
$GPGSV,3,2,12,05,45,045,50,06,45,045,50,07,45,045,50,08,45,045,50*77
$GPGSV,3,3,12,09,45,045,50,10,45,045,50,11,45,045,50,12,45,045,50*71
$GPRMC,122426.76,A,5200.3686,N,422.2422,E,-1.9,94.1,111223,0.0,E,A*20
$GPVTG,94.1,T,0.0,M,-1.9,N,-3.6,K*7f
$GPGGA,122426.76,5200.3686,N,00422.2422,E,12,12,7.0,0.7,M,0.0,M,0.0,0000*4d
$GPGSA,A,3,01,02,03,04,05,06,07,08,09,10,11,12,8.1,7.0,4.0*3b
$GPGSV,3,1,12,01,45,045,50,02,45,045,50,03,45,045,50,04,45,045,50*7c
$GPGSV,3,2,12,05,45,045,50,06,45,045,50,07,45,045,50,08,45,045,50*77
$GPGSV,3,3,12,09,45,045,50,10,45,045,50,11,45,045,50,12,45,045,50*71
$GPRMC,122433.53,A,5200.3666,N,422.2528,E,-1.9,353.3,111223,0.0,E,A*1c
$GPVTG,353.3,T,0.0,M,-1.9,N,-3.6,K*45
$GPGGA,122433.53,5200.3666,N,00422.2528,E,12,12,7.0,0.7,M,0.0,M,0.0,0000*4b
$GPGSA,A,3,01,02,03,04,05,06,07,08,09,10,11,12,8.2,7.3,3.7*3b
$GPGSV,3,1,12,01,45,045,50,02,45,045,50,03,45,045,50,04,45,045,50*7c
$GPGSV,3,2,12,05,45,045,50,06,45,045,50,07,45,045,50,08,45,045,50*77
$GPGSV,3,3,12,09,45,045,50,10,45,045,50,11,45,045,50,12,45,045,50*71
$GPRMC,122445.54,A,5200.3668,N,422.2541,E,-1.9,353.3,111223,0.0,E,A*1b
$GPVTG,353.3,T,0.0,M,-1.9,N,-3.6,K*45
$GPGGA,122445.54,5200.3668,N,00422.2541,E,12,12,7.3,0.9,M,0.0,M,0.0,0000*41
$GPGSA,A,3,01,02,03,04,05,06,07,08,09,10,11,12,8.0,7.3,3.1*3f
$GPGSV,3,1,12,01,45,045,50,02,45,045,50,03,45,045,50,04,45,045,50*7c
$GPGSV,3,2,12,05,45,045,50,06,45,045,50,07,45,045,50,08,45,045,50*77
$GPGSV,3,3,12,09,45,045,50,10,45,045,50,11,45,045,50,12,45,045,50*71
$GPRMC,122446.02,A,5200.3672,N,422.2546,E,-1.9,353.3,111223,0.0,E,A*17
$GPVTG,353.3,T,0.0,M,-1.9,N,-3.6,K*45
$GPGGA,122446.02,5200.3672,N,00422.2546,E,12,12,7.3,1.0,M,0.0,M,0.0,0000*45
$GPGSA,A,3,01,02,03,04,05,06,07,08,09,10,11,12,7.9,7.3,2.8*31
$GPGSV,3,1,12,01,45,045,50,02,45,045,50,03,45,045,50,04,45,045,50*7c
$GPGSV,3,2,12,05,45,045,50,06,45,045,50,07,45,045,50,08,45,045,50*77
$GPGSV,3,3,12,09,45,045,50,10,45,045,50,11,45,045,50,12,45,045,50*71
$GPRMC,122457.54,A,5200.3675,N,422.2551,E,-1.9,353.3,111223,0.0,E,A*15
$GPVTG,353.3,T,0.0,M,-1.9,N,-3.6,K*45
$GPGGA,122457.54,5200.3675,N,00422.2551,E,12,12,7.3,1.1,M,0.0,M,0.0,0000*46
$GPGSA,A,3,01,02,03,04,05,06,07,08,09,10,11,12,7.4,7.0,2.5*32
$GPGSV,3,1,12,01,45,045,50,02,45,045,50,03,45,045,50,04,45,045,50*7c
$GPGSV,3,2,12,05,45,045,50,06,45,045,50,07,45,045,50,08,45,045,50*77
$GPGSV,3,3,12,09,45,045,50,10,45,045,50,11,45,045,50,12,45,045,50*71
$GPRMC,122458.01,A,5200.3697,N,422.2447,E,-1.9,353.3,111223,0.0,E,A*10
$GPVTG,353.3,T,0.0,M,-1.9,N,-3.6,K*45
$GPGGA,122458.01,5200.3697,N,00422.2447,E,12,12,7.0,1.0,M,0.0,M,0.0,0000*41
$GPGSA,A,3,01,02,03,04,05,06,07,08,09,10,11,12,7.4,7.0,2.3*34
$GPGSV,3,1,12,01,45,045,50,02,45,045,50,03,45,045,50,04,45,045,50*7c
$GPGSV,3,2,12,05,45,045,50,06,45,045,50,07,45,045,50,08,45,045,50*77
$GPGSV,3,3,12,09,45,045,50,10,45,045,50,11,45,045,50,12,45,045,50*71
$GPRMC,122509.54,A,5200.3698,N,422.2459,E,-1.9,353.3,111223,0.0,E,A*15
$GPVTG,353.3,T,0.0,M,-1.9,N,-3.6,K*45
$GPGGA,122509.54,5200.3698,N,00422.2459,E,12,12,7.0,1.0,M,0.0,M,0.0,0000*44
$GPGSA,A,3,01,02,03,04,05,06,07,08,09,10,11,12,7.3,7.0,2.2*32
$GPGSV,3,1,12,01,45,045,50,02,45,045,50,03,45,045,50,04,45,045,50*7c
$GPGSV,3,2,12,05,45,045,50,06,45,045,50,07,45,045,50,08,45,045,50*77
$GPGSV,3,3,12,09,45,045,50,10,45,045,50,11,45,045,50,12,45,045,50*71
$GPRMC,122510.00,A,5200.3703,N,422.2423,E,-1.9,353.3,111223,0.0,E,A*12
$GPVTG,353.3,T,0.0,M,-1.9,N,-3.6,K*45
$GPGGA,122510.00,5200.3703,N,00422.2423,E,12,12,7.0,1.0,M,0.0,M,0.0,0000*43
$GPGSA,A,3,01,02,03,04,05,06,07,08,09,10,11,12,7.3,7.0,2.0*30
$GPGSV,3,1,12,01,45,045,50,02,45,045,50,03,45,045,50,04,45,045,50*7c
$GPGSV,3,2,12,05,45,045,50,06,45,045,50,07,45,045,50,08,45,045,50*77
$GPGSV,3,3,12,09,45,045,50,10,45,045,50,11,45,045,50,12,45,045,50*71
$GPRMC,122521.54,A,5200.3703,N,422.2437,E,-1.9,353.3,111223,0.0,E,A*14
$GPVTG,353.3,T,0.0,M,-1.9,N,-3.6,K*45
$GPGGA,122521.54,5200.3703,N,00422.2437,E,12,12,7.0,1.0,M,0.0,M,0.0,0000*45
$GPGSA,A,3,01,02,03,04,05,06,07,08,09,10,11,12,7.3,7.0,1.9*3a
$GPGSV,3,1,12,01,45,045,50,02,45,045,50,03,45,045,50,04,45,045,50*7c
$GPGSV,3,2,12,05,45,045,50,06,45,045,50,07,45,045,50,08,45,045,50*77
$GPGSV,3,3,12,09,45,045,50,10,45,045,50,11,45,045,50,12,45,045,50*71
$GPRMC,122522.00,A,5200.3695,N,422.2419,E,-1.9,353.3,111223,0.0,E,A*14
$GPVTG,353.3,T,0.0,M,-1.9,N,-3.6,K*45
$GPGGA,122522.00,5200.3695,N,00422.2419,E,12,12,7.0,1.0,M,0.0,M,0.0,0000*45
$GPGSA,A,3,01,02,03,04,05,06,07,08,09,10,11,12,7.2,7.0,1.8*3a
$GPGSV,3,1,12,01,45,045,50,02,45,045,50,03,45,045,50,04,45,045,50*7c
$GPGSV,3,2,12,05,45,045,50,06,45,045,50,07,45,045,50,08,45,045,50*77
$GPGSV,3,3,12,09,45,045,50,10,45,045,50,11,45,045,50,12,45,045,50*71
$GPRMC,122533.53,A,5200.3696,N,422.2433,E,-1.9,353.3,111223,0.0,E,A*19
$GPVTG,353.3,T,0.0,M,-1.9,N,-3.6,K*45
$GPGGA,122533.53,5200.3696,N,00422.2433,E,12,12,7.0,1.0,M,0.0,M,0.0,0000*48
$GPGSA,A,3,01,02,03,04,05,06,07,08,09,10,11,12,7.2,7.0,1.8*3a
$GPGSV,3,1,12,01,45,045,50,02,45,045,50,03,45,045,50,04,45,045,50*7c
$GPGSV,3,2,12,05,45,045,50,06,45,045,50,07,45,045,50,08,45,045,50*77
$GPGSV,3,3,12,09,45,045,50,10,45,045,50,11,45,045,50,12,45,045,50*71
$GPRMC,122533.99,A,5200.3700,N,422.2419,E,-1.9,353.3,111223,0.0,E,A*19
$GPVTG,353.3,T,0.0,M,-1.9,N,-3.6,K*45
$GPGGA,122533.99,5200.3700,N,00422.2419,E,12,12,7.0,1.0,M,0.0,M,0.0,0000*48
$GPGSA,A,3,01,02,03,04,05,06,07,08,09,10,11,12,7.2,7.0,1.7*35
$GPGSV,3,1,12,01,45,045,50,02,45,045,50,03,45,045,50,04,45,045,50*7c
$GPGSV,3,2,12,05,45,045,50,06,45,045,50,07,45,045,50,08,45,045,50*77
$GPGSV,3,3,12,09,45,045,50,10,45,045,50,11,45,045,50,12,45,045,50*71
$GPRMC,122545.53,A,5200.3701,N,422.2433,E,-1.9,353.3,111223,0.0,E,A*17
$GPVTG,353.3,T,0.0,M,-1.9,N,-3.6,K*45
$GPGGA,122545.53,5200.3701,N,00422.2433,E,12,12,7.0,1.0,M,0.0,M,0.0,0000*46
$GPGSA,A,3,01,02,03,04,05,06,07,08,09,10,11,12,7.2,7.0,1.6*34
$GPGSV,3,1,12,01,45,045,50,02,45,045,50,03,45,045,50,04,45,045,50*7c
$GPGSV,3,2,12,05,45,045,50,06,45,045,50,07,45,045,50,08,45,045,50*77
$GPGSV,3,3,12,09,45,045,50,10,45,045,50,11,45,045,50,12,45,045,50*71
$GPRMC,122545.99,A,5200.3695,N,422.2446,E,-1.9,353.3,111223,0.0,E,A*1f
$GPVTG,353.3,T,0.0,M,-1.9,N,-3.6,K*45
$GPGGA,122545.99,5200.3695,N,00422.2446,E,12,12,7.0,1.0,M,0.0,M,0.0,0000*4e
$GPGSA,A,3,01,02,03,04,05,06,07,08,09,10,11,12,7.2,7.0,1.6*34
$GPGSV,3,1,12,01,45,045,50,02,45,045,50,03,45,045,50,04,45,045,50*7c
$GPGSV,3,2,12,05,45,045,50,06,45,045,50,07,45,045,50,08,45,045,50*77
$GPGSV,3,3,12,09,45,045,50,10,45,045,50,11,45,045,50,12,45,045,50*71
$GPRMC,122557.53,A,5200.3696,N,422.2457,E,-1.9,353.3,111223,0.0,E,A*19
$GPVTG,353.3,T,0.0,M,-1.9,N,-3.6,K*45
$GPGGA,122557.53,5200.3696,N,00422.2457,E,12,12,7.0,1.0,M,0.0,M,0.0,0000*48
$GPGSA,A,3,01,02,03,04,05,06,07,08,09,10,11,12,7.2,7.0,1.5*37
$GPGSV,3,1,12,01,45,045,50,02,45,045,50,03,45,045,50,04,45,045,50*7c
$GPGSV,3,2,12,05,45,045,50,06,45,045,50,07,45,045,50,08,45,045,50*77
$GPGSV,3,3,12,09,45,045,50,10,45,045,50,11,45,045,50,12,45,045,50*71
$GPRMC,122558.00,A,5200.3688,N,422.2418,E,-1.9,353.3,111223,0.0,E,A*14
$GPVTG,353.3,T,0.0,M,-1.9,N,-3.6,K*45
$GPGGA,122558.00,5200.3688,N,00422.2418,E,12,12,7.0,1.0,M,0.0,M,0.0,0000*45
$GPGSA,A,3,01,02,03,04,05,06,07,08,09,10,11,12,7.2,7.0,1.5*37
$GPGSV,3,1,12,01,45,045,50,02,45,045,50,03,45,045,50,04,45,045,50*7c
$GPGSV,3,2,12,05,45,045,50,06,45,045,50,07,45,045,50,08,45,045,50*77
$GPGSV,3,3,12,09,45,045,50,10,45,045,50,11,45,045,50,12,45,045,50*71
$GPRMC,122609.53,A,5200.3690,N,422.2432,E,-1.9,353.3,111223,0.0,E,A*14
$GPVTG,353.3,T,0.0,M,-1.9,N,-3.6,K*45
$GPGGA,122609.53,5200.3690,N,00422.2432,E,12,12,7.0,1.0,M,0.0,M,0.0,0000*45
$GPGSA,A,3,01,02,03,04,05,06,07,08,09,10,11,12,7.1,7.0,1.4*35
$GPGSV,3,1,12,01,45,045,50,02,45,045,50,03,45,045,50,04,45,045,50*7c
$GPGSV,3,2,12,05,45,045,50,06,45,045,50,07,45,045,50,08,45,045,50*77
$GPGSV,3,3,12,09,45,045,50,10,45,045,50,11,45,045,50,12,45,045,50*71
$GPRMC,122609.99,A,5200.3688,N,422.2419,E,-1.9,353.3,111223,0.0,E,A*12
$GPVTG,353.3,T,0.0,M,-1.9,N,-3.6,K*45
$GPGGA,122609.99,5200.3688,N,00422.2419,E,12,12,7.0,1.0,M,0.0,M,0.0,0000*43
$GPGSA,A,3,01,02,03,04,05,06,07,08,09,10,11,12,13.9,13.4,3.4*3b
$GPGSV,3,1,12,01,45,045,50,02,45,045,50,03,45,045,50,04,45,045,50*7c
$GPGSV,3,2,12,05,45,045,50,06,45,045,50,07,45,045,50,08,45,045,50*77
$GPGSV,3,3,12,09,45,045,50,10,45,045,50,11,45,045,50,12,45,045,50*71
$GPRMC,122618.95,A,5200.3692,N,422.2461,E,-1.9,93.5,111223,0.0,E,A*23
$GPVTG,93.5,T,0.0,M,-1.9,N,-3.6,K*7c
$GPGGA,122618.95,5200.3692,N,00422.2461,E,12,12,13.4,0.9,M,0.0,M,0.0,0000*72
$GPGSA,A,3,01,02,03,04,05,06,07,08,09,10,11,12,7.6,7.0,3.1*35
$GPGSV,3,1,12,01,45,045,50,02,45,045,50,03,45,045,50,04,45,045,50*7c
$GPGSV,3,2,12,05,45,045,50,06,45,045,50,07,45,045,50,08,45,045,50*77
$GPGSV,3,3,12,09,45,045,50,10,45,045,50,11,45,045,50,12,45,045,50*71
$GPRMC,122619.41,A,5200.3659,N,422.2407,E,-1.9,93.5,111223,0.0,E,A*2c
$GPVTG,93.5,T,0.0,M,-1.9,N,-3.6,K*7c
$GPGGA,122619.41,5200.3659,N,00422.2407,E,12,12,7.0,0.8,M,0.0,M,0.0,0000*4d
$GPGSA,A,3,01,02,03,04,05,06,07,08,09,10,11,12,7.5,7.0,2.7*31
$GPGSV,3,1,12,01,45,045,50,02,45,045,50,03,45,045,50,04,45,045,50*7c
$GPGSV,3,2,12,05,45,045,50,06,45,045,50,07,45,045,50,08,45,045,50*77
$GPGSV,3,3,12,09,45,045,50,10,45,045,50,11,45,045,50,12,45,045,50*71
$GPRMC,122622.78,A,5200.3656,N,422.2397,E,-1.9,93.5,111223,0.0,E,A*2f
$GPVTG,93.5,T,0.0,M,-1.9,N,-3.6,K*7c
$GPGGA,122622.78,5200.3656,N,00422.2397,E,12,12,7.0,0.8,M,0.0,M,0.0,0000*4e
$GPGSA,A,3,01,02,03,04,05,06,07,08,09,10,11,12,7.4,7.0,2.5*32
$GPGSV,3,1,12,01,45,045,50,02,45,045,50,03,45,045,50,04,45,045,50*7c
$GPGSV,3,2,12,05,45,045,50,06,45,045,50,07,45,045,50,08,45,045,50*77
$GPGSV,3,3,12,09,45,045,50,10,45,045,50,11,45,045,50,12,45,045,50*71
$GPRMC,122630.54,A,5200.3660,N,422.2413,E,-1.9,93.5,111223,0.0,E,A*2c
$GPVTG,93.5,T,0.0,M,-1.9,N,-3.6,K*7c
$GPGGA,122630.54,5200.3660,N,00422.2413,E,12,12,7.0,0.9,M,0.0,M,0.0,0000*4c
$GPGSA,A,3,01,02,03,04,05,06,07,08,09,10,11,12,7.4,7.0,2.3*34
$GPGSV,3,1,12,01,45,045,50,02,45,045,50,03,45,045,50,04,45,045,50*7c
$GPGSV,3,2,12,05,45,045,50,06,45,045,50,07,45,045,50,08,45,045,50*77
$GPGSV,3,3,12,09,45,045,50,10,45,045,50,11,45,045,50,12,45,045,50*71
$GPRMC,122631.01,A,5200.3678,N,422.2416,E,-1.9,93.5,111223,0.0,E,A*21
$GPVTG,93.5,T,0.0,M,-1.9,N,-3.6,K*7c
$GPGGA,122631.01,5200.3678,N,00422.2416,E,12,12,7.0,0.9,M,0.0,M,0.0,0000*41
$GPGSA,A,3,01,02,03,04,05,06,07,08,09,10,11,12,7.3,7.0,2.1*31
$GPGSV,3,1,12,01,45,045,50,02,45,045,50,03,45,045,50,04,45,045,50*7c
$GPGSV,3,2,12,05,45,045,50,06,45,045,50,07,45,045,50,08,45,045,50*77
$GPGSV,3,3,12,09,45,045,50,10,45,045,50,11,45,045,50,12,45,045,50*71
$GPRMC,122642.53,A,5200.3680,N,422.2430,E,-1.9,93.5,111223,0.0,E,A*21
$GPVTG,93.5,T,0.0,M,-1.9,N,-3.6,K*7c
$GPGGA,122642.53,5200.3680,N,00422.2430,E,12,12,7.0,0.9,M,0.0,M,0.0,0000*41
$GPGSA,A,3,01,02,03,04,05,06,07,08,09,10,11,12,7.3,7.0,2.0*30
$GPGSV,3,1,12,01,45,045,50,02,45,045,50,03,45,045,50,04,45,045,50*7c
$GPGSV,3,2,12,05,45,045,50,06,45,045,50,07,45,045,50,08,45,045,50*77
$GPGSV,3,3,12,09,45,045,50,10,45,045,50,11,45,045,50,12,45,045,50*71
$GPRMC,122643.00,A,5200.3672,N,422.2404,E,-1.9,93.5,111223,0.0,E,A*2c
$GPVTG,93.5,T,0.0,M,-1.9,N,-3.6,K*7c
$GPGGA,122643.00,5200.3672,N,00422.2404,E,12,12,7.0,0.9,M,0.0,M,0.0,0000*4c
$GPGSA,A,3,01,02,03,04,05,06,07,08,09,10,11,12,7.3,7.0,1.9*3a
$GPGSV,3,1,12,01,45,045,50,02,45,045,50,03,45,045,50,04,45,045,50*7c
$GPGSV,3,2,12,05,45,045,50,06,45,045,50,07,45,045,50,08,45,045,50*77
$GPGSV,3,3,12,09,45,045,50,10,45,045,50,11,45,045,50,12,45,045,50*71
$GPRMC,122654.77,A,5200.3675,N,422.2418,E,-1.9,93.5,111223,0.0,E,A*20
$GPVTG,93.5,T,0.0,M,-1.9,N,-3.6,K*7c
$GPGGA,122654.77,5200.3675,N,00422.2418,E,12,12,7.0,0.9,M,0.0,M,0.0,0000*40
$GPGSA,A,3,01,02,03,04,05,06,07,08,09,10,11,12,7.2,7.0,1.8*3a
$GPGSV,3,1,12,01,45,045,50,02,45,045,50,03,45,045,50,04,45,045,50*7c
$GPGSV,3,2,12,05,45,045,50,06,45,045,50,07,45,045,50,08,45,045,50*77
$GPGSV,3,3,12,09,45,045,50,10,45,045,50,11,45,045,50,12,45,045,50*71
$GPRMC,122655.23,A,5200.3679,N,422.2412,E,-1.9,93.5,111223,0.0,E,A*26
$GPVTG,93.5,T,0.0,M,-1.9,N,-3.6,K*7c
$GPGGA,122655.23,5200.3679,N,00422.2412,E,12,12,7.0,0.9,M,0.0,M,0.0,0000*46
$GPGSA,A,3,01,02,03,04,05,06,07,08,09,10,11,12,7.2,7.0,1.7*35
$GPGSV,3,1,12,01,45,045,50,02,45,045,50,03,45,045,50,04,45,045,50*7c
$GPGSV,3,2,12,05,45,045,50,06,45,045,50,07,45,045,50,08,45,045,50*77
$GPGSV,3,3,12,09,45,045,50,10,45,045,50,11,45,045,50,12,45,045,50*71
$GPRMC,122706.77,A,5200.3681,N,422.2426,E,-1.9,93.5,111223,0.0,E,A*20
$GPVTG,93.5,T,0.0,M,-1.9,N,-3.6,K*7c
$GPGGA,122706.77,5200.3681,N,00422.2426,E,12,12,7.0,0.9,M,0.0,M,0.0,0000*40
$GPGSA,A,3,01,02,03,04,05,06,07,08,09,10,11,12,7.2,7.0,1.7*35
$GPGSV,3,1,12,01,45,045,50,02,45,045,50,03,45,045,50,04,45,045,50*7c
$GPGSV,3,2,12,05,45,045,50,06,45,045,50,07,45,045,50,08,45,045,50*77
$GPGSV,3,3,12,09,45,045,50,10,45,045,50,11,45,045,50,12,45,045,50*71
$GPRMC,122707.26,A,5200.3679,N,422.2409,E,-1.9,93.5,111223,0.0,E,A*2f
$GPVTG,93.5,T,0.0,M,-1.9,N,-3.6,K*7c
$GPGGA,122707.26,5200.3679,N,00422.2409,E,12,12,7.0,0.9,M,0.0,M,0.0,0000*4f
$GPGSA,A,3,01,02,03,04,05,06,07,08,09,10,11,12,7.2,7.0,1.6*34
$GPGSV,3,1,12,01,45,045,50,02,45,045,50,03,45,045,50,04,45,045,50*7c
$GPGSV,3,2,12,05,45,045,50,06,45,045,50,07,45,045,50,08,45,045,50*77
$GPGSV,3,3,12,09,45,045,50,10,45,045,50,11,45,045,50,12,45,045,50*71
$GPRMC,122718.77,A,5200.3681,N,422.2423,E,-1.9,93.5,111223,0.0,E,A*2a
$GPVTG,93.5,T,0.0,M,-1.9,N,-3.6,K*7c
$GPGGA,122718.77,5200.3681,N,00422.2423,E,12,12,7.0,1.0,M,0.0,M,0.0,0000*42
$GPGSA,A,3,01,02,03,04,05,06,07,08,09,10,11,12,7.2,7.0,1.6*34
$GPGSV,3,1,12,01,45,045,50,02,45,045,50,03,45,045,50,04,45,045,50*7c
$GPGSV,3,2,12,05,45,045,50,06,45,045,50,07,45,045,50,08,45,045,50*77
$GPGSV,3,3,12,09,45,045,50,10,45,045,50,11,45,045,50,12,45,045,50*71
$GPRMC,122719.21,A,5200.3696,N,422.2432,E,-1.9,93.5,111223,0.0,E,A*2e
$GPVTG,93.5,T,0.0,M,-1.9,N,-3.6,K*7c
$GPGGA,122719.21,5200.3696,N,00422.2432,E,12,12,7.0,1.0,M,0.0,M,0.0,0000*46
$GPGSA,A,3,01,02,03,04,05,06,07,08,09,10,11,12,7.2,7.0,1.5*37
$GPGSV,3,1,12,01,45,045,50,02,45,045,50,03,45,045,50,04,45,045,50*7c
$GPGSV,3,2,12,05,45,045,50,06,45,045,50,07,45,045,50,08,45,045,50*77
$GPGSV,3,3,12,09,45,045,50,10,45,045,50,11,45,045,50,12,45,045,50*71
$GPRMC,122730.77,A,5200.3697,N,422.2444,E,-1.9,93.5,111223,0.0,E,A*26
$GPVTG,93.5,T,0.0,M,-1.9,N,-3.6,K*7c
$GPGGA,122730.77,5200.3697,N,00422.2444,E,12,12,7.0,1.0,M,0.0,M,0.0,0000*4e
$GPGSA,A,3,01,02,03,04,05,06,07,08,09,10,11,12,7.2,7.0,1.5*37
$GPGSV,3,1,12,01,45,045,50,02,45,045,50,03,45,045,50,04,45,045,50*7c
$GPGSV,3,2,12,05,45,045,50,06,45,045,50,07,45,045,50,08,45,045,50*77
$GPGSV,3,3,12,09,45,045,50,10,45,045,50,11,45,045,50,12,45,045,50*71
$GPRMC,122731.23,A,5200.3690,N,422.2419,E,-1.9,93.5,111223,0.0,E,A*29
$GPVTG,93.5,T,0.0,M,-1.9,N,-3.6,K*7c
$GPGGA,122731.23,5200.3690,N,00422.2419,E,12,12,7.0,1.0,M,0.0,M,0.0,0000*41
$GPGSA,A,3,01,02,03,04,05,06,07,08,09,10,11,12,7.1,7.0,1.4*35
$GPGSV,3,1,12,01,45,045,50,02,45,045,50,03,45,045,50,04,45,045,50*7c
$GPGSV,3,2,12,05,45,045,50,06,45,045,50,07,45,045,50,08,45,045,50*77
$GPGSV,3,3,12,09,45,045,50,10,45,045,50,11,45,045,50,12,45,045,50*71
$GPRMC,122742.78,A,5200.3691,N,422.2432,E,-1.9,93.5,111223,0.0,E,A*2b
$GPVTG,93.5,T,0.0,M,-1.9,N,-3.6,K*7c
$GPGGA,122742.78,5200.3691,N,00422.2432,E,12,12,7.0,1.0,M,0.0,M,0.0,0000*43
$GPGSA,A,3,01,02,03,04,05,06,07,08,09,10,11,12,7.1,7.0,1.4*35
$GPGSV,3,1,12,01,45,045,50,02,45,045,50,03,45,045,50,04,45,045,50*7c
$GPGSV,3,2,12,05,45,045,50,06,45,045,50,07,45,045,50,08,45,045,50*77
$GPGSV,3,3,12,09,45,045,50,10,45,045,50,11,45,045,50,12,45,045,50*71
$GPRMC,122743.23,A,5200.3687,N,422.2415,E,-1.9,93.5,111223,0.0,E,A*26
$GPVTG,93.5,T,0.0,M,-1.9,N,-3.6,K*7c
$GPGGA,122743.23,5200.3687,N,00422.2415,E,12,12,7.0,1.0,M,0.0,M,0.0,0000*4e
$GPGSA,A,3,01,02,03,04,05,06,07,08,09,10,11,12,7.1,7.0,1.3*32
$GPGSV,3,1,12,01,45,045,50,02,45,045,50,03,45,045,50,04,45,045,50*7c
$GPGSV,3,2,12,05,45,045,50,06,45,045,50,07,45,045,50,08,45,045,50*77
$GPGSV,3,3,12,09,45,045,50,10,45,045,50,11,45,045,50,12,45,045,50*71
$GPRMC,122754.77,A,5200.3689,N,422.2429,E,-1.9,93.5,111223,0.0,E,A*20
$GPVTG,93.5,T,0.0,M,-1.9,N,-3.6,K*7c
$GPGGA,122754.77,5200.3689,N,00422.2429,E,12,12,7.0,1.0,M,0.0,M,0.0,0000*48
$GPGSA,A,3,01,02,03,04,05,06,07,08,09,10,11,12,7.1,7.0,1.3*32
$GPGSV,3,1,12,01,45,045,50,02,45,045,50,03,45,045,50,04,45,045,50*7c
$GPGSV,3,2,12,05,45,045,50,06,45,045,50,07,45,045,50,08,45,045,50*77
$GPGSV,3,3,12,09,45,045,50,10,45,045,50,11,45,045,50,12,45,045,50*71
$GPRMC,122755.19,A,5200.3678,N,422.2411,E,-1.9,93.5,111223,0.0,E,A*2c
$GPVTG,93.5,T,0.0,M,-1.9,N,-3.6,K*7c
$GPGGA,122755.19,5200.3678,N,00422.2411,E,12,12,7.0,1.0,M,0.0,M,0.0,0000*44
$GPGSA,A,3,01,02,03,04,05,06,07,08,09,10,11,12,7.1,7.0,1.3*32
$GPGSV,3,1,12,01,45,045,50,02,45,045,50,03,45,045,50,04,45,045,50*7c
$GPGSV,3,2,12,05,45,045,50,06,45,045,50,07,45,045,50,08,45,045,50*77
$GPGSV,3,3,12,09,45,045,50,10,45,045,50,11,45,045,50,12,45,045,50*71
$GPRMC,122806.77,A,5200.3680,N,422.2425,E,-1.9,93.5,111223,0.0,E,A*2d
$GPVTG,93.5,T,0.0,M,-1.9,N,-3.6,K*7c
$GPGGA,122806.77,5200.3680,N,00422.2425,E,12,12,7.0,1.0,M,0.0,M,0.0,0000*45
$GPGSA,A,3,01,02,03,04,05,06,07,08,09,10,11,12,7.1,7.0,1.3*32
$GPGSV,3,1,12,01,45,045,50,02,45,045,50,03,45,045,50,04,45,045,50*7c
$GPGSV,3,2,12,05,45,045,50,06,45,045,50,07,45,045,50,08,45,045,50*77
$GPGSV,3,3,12,09,45,045,50,10,45,045,50,11,45,045,50,12,45,045,50*71
$GPRMC,122807.18,A,5200.3674,N,422.2413,E,-1.9,93.5,111223,0.0,E,A*2b
$GPVTG,93.5,T,0.0,M,-1.9,N,-3.6,K*7c
$GPGGA,122807.18,5200.3674,N,00422.2413,E,12,12,7.0,1.0,M,0.0,M,0.0,0000*43
$GPGSA,A,3,01,02,03,04,05,06,07,08,09,10,11,12,7.1,7.0,1.2*33
$GPGSV,3,1,12,01,45,045,50,02,45,045,50,03,45,045,50,04,45,045,50*7c
$GPGSV,3,2,12,05,45,045,50,06,45,045,50,07,45,045,50,08,45,045,50*77
$GPGSV,3,3,12,09,45,045,50,10,45,045,50,11,45,045,50,12,45,045,50*71
$GPRMC,122818.77,A,5200.3677,N,422.2427,E,-1.9,93.5,111223,0.0,E,A*28
$GPVTG,93.5,T,0.0,M,-1.9,N,-3.6,K*7c
$GPGGA,122818.77,5200.3677,N,00422.2427,E,12,12,7.0,1.0,M,0.0,M,0.0,0000*40
$GPGSA,A,3,01,02,03,04,05,06,07,08,09,10,11,12,7.1,7.0,1.2*33
$GPGSV,3,1,12,01,45,045,50,02,45,045,50,03,45,045,50,04,45,045,50*7c
$GPGSV,3,2,12,05,45,045,50,06,45,045,50,07,45,045,50,08,45,045,50*77
$GPGSV,3,3,12,09,45,045,50,10,45,045,50,11,45,045,50,12,45,045,50*71
$GPRMC,122819.24,A,5200.3677,N,422.2407,E,-1.9,93.5,111223,0.0,E,A*2d
$GPVTG,93.5,T,0.0,M,-1.9,N,-3.6,K*7c
$GPGGA,122819.24,5200.3677,N,00422.2407,E,12,12,7.0,1.0,M,0.0,M,0.0,0000*45
$GPGSA,A,3,01,02,03,04,05,06,07,08,09,10,11,12,7.1,7.0,1.2*33
$GPGSV,3,1,12,01,45,045,50,02,45,045,50,03,45,045,50,04,45,045,50*7c
$GPGSV,3,2,12,05,45,045,50,06,45,045,50,07,45,045,50,08,45,045,50*77
$GPGSV,3,3,12,09,45,045,50,10,45,045,50,11,45,045,50,12,45,045,50*71
$GPRMC,122830.77,A,5200.3679,N,422.2422,E,-1.9,93.5,111223,0.0,E,A*29
$GPVTG,93.5,T,0.0,M,-1.9,N,-3.6,K*7c
$GPGGA,122830.77,5200.3679,N,00422.2422,E,12,12,7.0,1.0,M,0.0,M,0.0,0000*41
$GPGSA,A,3,01,02,03,04,05,06,07,08,09,10,11,12,7.1,7.0,1.2*33
$GPGSV,3,1,12,01,45,045,50,02,45,045,50,03,45,045,50,04,45,045,50*7c
$GPGSV,3,2,12,05,45,045,50,06,45,045,50,07,45,045,50,08,45,045,50*77
$GPGSV,3,3,12,09,45,045,50,10,45,045,50,11,45,045,50,12,45,045,50*71
$GPRMC,122831.24,A,5200.3678,N,422.2420,E,-1.9,93.5,111223,0.0,E,A*2d
$GPVTG,93.5,T,0.0,M,-1.9,N,-3.6,K*7c
$GPGGA,122831.24,5200.3678,N,00422.2420,E,12,12,7.0,1.0,M,0.0,M,0.0,0000*45
$GPGSA,A,3,01,02,03,04,05,06,07,08,09,10,11,12,7.1,7.0,1.1*30
$GPGSV,3,1,12,01,45,045,50,02,45,045,50,03,45,045,50,04,45,045,50*7c
$GPGSV,3,2,12,05,45,045,50,06,45,045,50,07,45,045,50,08,45,045,50*77
$GPGSV,3,3,12,09,45,045,50,10,45,045,50,11,45,045,50,12,45,045,50*71
$GPRMC,122842.79,A,5200.3681,N,422.2433,E,-1.9,93.5,111223,0.0,E,A*25
$GPVTG,93.5,T,0.0,M,-1.9,N,-3.6,K*7c
$GPGGA,122842.79,5200.3681,N,00422.2433,E,12,12,7.0,1.0,M,0.0,M,0.0,0000*4d
$GPGSA,A,3,01,02,03,04,05,06,07,08,09,10,11,12,7.1,7.0,1.1*30
$GPGSV,3,1,12,01,45,045,50,02,45,045,50,03,45,045,50,04,45,045,50*7c
$GPGSV,3,2,12,05,45,045,50,06,45,045,50,07,45,045,50,08,45,045,50*77
$GPGSV,3,3,12,09,45,045,50,10,45,045,50,11,45,045,50,12,45,045,50*71
$GPRMC,122843.27,A,5200.3690,N,422.2427,E,-1.9,93.5,111223,0.0,E,A*2a
$GPVTG,93.5,T,0.0,M,-1.9,N,-3.6,K*7c
$GPGGA,122843.27,5200.3690,N,00422.2427,E,12,12,7.0,1.0,M,0.0,M,0.0,0000*42
$GPGSA,A,3,01,02,03,04,05,06,07,08,09,10,11,12,7.1,7.0,1.1*30
$GPGSV,3,1,12,01,45,045,50,02,45,045,50,03,45,045,50,04,45,045,50*7c
$GPGSV,3,2,12,05,45,045,50,06,45,045,50,07,45,045,50,08,45,045,50*77
$GPGSV,3,3,12,09,45,045,50,10,45,045,50,11,45,045,50,12,45,045,50*71
$GPRMC,122854.77,A,5200.3691,N,422.2440,E,-1.9,93.5,111223,0.0,E,A*29
$GPVTG,93.5,T,0.0,M,-1.9,N,-3.6,K*7c
$GPGGA,122854.77,5200.3691,N,00422.2440,E,12,12,7.0,1.0,M,0.0,M,0.0,0000*41
$GPGSA,A,3,01,02,03,04,05,06,07,08,09,10,11,12,7.1,7.0,1.1*30
$GPGSV,3,1,12,01,45,045,50,02,45,045,50,03,45,045,50,04,45,045,50*7c
$GPGSV,3,2,12,05,45,045,50,06,45,045,50,07,45,045,50,08,45,045,50*77
$GPGSV,3,3,12,09,45,045,50,10,45,045,50,11,45,045,50,12,45,045,50*71
$GPRMC,122855.23,A,5200.3676,N,422.2436,E,-1.9,93.5,111223,0.0,E,A*21
$GPVTG,93.5,T,0.0,M,-1.9,N,-3.6,K*7c
$GPGGA,122855.23,5200.3676,N,00422.2436,E,12,12,7.0,1.0,M,0.0,M,0.0,0000*49
$GPGSA,A,3,01,02,03,04,05,06,07,08,09,10,11,12,7.1,7.0,1.1*30
$GPGSV,3,1,12,01,45,045,50,02,45,045,50,03,45,045,50,04,45,045,50*7c
$GPGSV,3,2,12,05,45,045,50,06,45,045,50,07,45,045,50,08,45,045,50*77
$GPGSV,3,3,12,09,45,045,50,10,45,045,50,11,45,045,50,12,45,045,50*71
$GPRMC,122906.77,A,5200.3679,N,422.2448,E,-1.9,93.5,111223,0.0,E,A*21
$GPVTG,93.5,T,0.0,M,-1.9,N,-3.6,K*7c
$GPGGA,122906.77,5200.3679,N,00422.2448,E,12,12,7.0,1.0,M,0.0,M,0.0,0000*49
$GPGSA,A,3,01,02,03,04,05,06,07,08,09,10,11,12,7.1,7.0,1.0*31
$GPGSV,3,1,12,01,45,045,50,02,45,045,50,03,45,045,50,04,45,045,50*7c
$GPGSV,3,2,12,05,45,045,50,06,45,045,50,07,45,045,50,08,45,045,50*77
$GPGSV,3,3,12,09,45,045,50,10,45,045,50,11,45,045,50,12,45,045,50*71
$GPRMC,122907.23,A,5200.3683,N,422.2429,E,-1.9,93.5,111223,0.0,E,A*23
$GPVTG,93.5,T,0.0,M,-1.9,N,-3.6,K*7c
$GPGGA,122907.23,5200.3683,N,00422.2429,E,12,12,7.0,1.0,M,0.0,M,0.0,0000*4b
$GPGSA,A,3,01,02,03,04,05,06,07,08,09,10,11,12,7.1,7.0,1.0*31
$GPGSV,3,1,12,01,45,045,50,02,45,045,50,03,45,045,50,04,45,045,50*7c
$GPGSV,3,2,12,05,45,045,50,06,45,045,50,07,45,045,50,08,45,045,50*77
$GPGSV,3,3,12,09,45,045,50,10,45,045,50,11,45,045,50,12,45,045,50*71
$GPRMC,122918.77,A,5200.3685,N,422.2442,E,-1.9,93.5,111223,0.0,E,A*27
$GPVTG,93.5,T,0.0,M,-1.9,N,-3.6,K*7c
$GPGGA,122918.77,5200.3685,N,00422.2442,E,12,12,7.0,1.0,M,0.0,M,0.0,0000*4f
$GPGSA,A,3,01,02,03,04,05,06,07,08,09,10,11,12,7.1,7.0,1.0*31
$GPGSV,3,1,12,01,45,045,50,02,45,045,50,03,45,045,50,04,45,045,50*7c
$GPGSV,3,2,12,05,45,045,50,06,45,045,50,07,45,045,50,08,45,045,50*77
$GPGSV,3,3,12,09,45,045,50,10,45,045,50,11,45,045,50,12,45,045,50*71
$GPRMC,122919.22,A,5200.3691,N,422.2407,E,-1.9,93.5,111223,0.0,E,A*22
$GPVTG,93.5,T,0.0,M,-1.9,N,-3.6,K*7c
$GPGGA,122919.22,5200.3691,N,00422.2407,E,12,12,7.0,1.0,M,0.0,M,0.0,0000*4a
$GPGSA,A,3,01,02,03,04,05,06,07,08,09,10,11,12,7.1,7.0,1.0*31
$GPGSV,3,1,12,01,45,045,50,02,45,045,50,03,45,045,50,04,45,045,50*7c
$GPGSV,3,2,12,05,45,045,50,06,45,045,50,07,45,045,50,08,45,045,50*77
$GPGSV,3,3,12,09,45,045,50,10,45,045,50,11,45,045,50,12,45,045,50*71
$GPRMC,122930.77,A,5200.3693,N,422.2421,E,-1.9,93.5,111223,0.0,E,A*2f
$GPVTG,93.5,T,0.0,M,-1.9,N,-3.6,K*7c
$GPGGA,122930.77,5200.3693,N,00422.2421,E,12,12,7.0,1.0,M,0.0,M,0.0,0000*47
$GPGSA,A,3,01,02,03,04,05,06,07,08,09,10,11,12,7.1,7.0,1.0*31
$GPGSV,3,1,12,01,45,045,50,02,45,045,50,03,45,045,50,04,45,045,50*7c
$GPGSV,3,2,12,05,45,045,50,06,45,045,50,07,45,045,50,08,45,045,50*77
$GPGSV,3,3,12,09,45,045,50,10,45,045,50,11,45,045,50,12,45,045,50*71
$GPRMC,122931.24,A,5200.3690,N,422.2412,E,-1.9,93.5,111223,0.0,E,A*2b
$GPVTG,93.5,T,0.0,M,-1.9,N,-3.6,K*7c
$GPGGA,122931.24,5200.3690,N,00422.2412,E,12,12,7.0,1.0,M,0.0,M,0.0,0000*43
$GPGSA,A,3,01,02,03,04,05,06,07,08,09,10,11,12,7.1,7.0,1.0*31
$GPGSV,3,1,12,01,45,045,50,02,45,045,50,03,45,045,50,04,45,045,50*7c
$GPGSV,3,2,12,05,45,045,50,06,45,045,50,07,45,045,50,08,45,045,50*77
$GPGSV,3,3,12,09,45,045,50,10,45,045,50,11,45,045,50,12,45,045,50*71
$GPRMC,122942.77,A,5200.3692,N,422.2426,E,-1.9,93.5,111223,0.0,E,A*2c
$GPVTG,93.5,T,0.0,M,-1.9,N,-3.6,K*7c
$GPGGA,122942.77,5200.3692,N,00422.2426,E,12,12,7.0,1.0,M,0.0,M,0.0,0000*44
$GPGSA,A,3,01,02,03,04,05,06,07,08,09,10,11,12,7.1,7.0,1.0*31
$GPGSV,3,1,12,01,45,045,50,02,45,045,50,03,45,045,50,04,45,045,50*7c
$GPGSV,3,2,12,05,45,045,50,06,45,045,50,07,45,045,50,08,45,045,50*77
$GPGSV,3,3,12,09,45,045,50,10,45,045,50,11,45,045,50,12,45,045,50*71
$GPRMC,122943.23,A,5200.3680,N,422.2402,E,-1.9,93.5,111223,0.0,E,A*29
$GPVTG,93.5,T,0.0,M,-1.9,N,-3.6,K*7c
$GPGGA,122943.23,5200.3680,N,00422.2402,E,12,12,7.0,1.0,M,0.0,M,0.0,0000*41
$GPGSA,A,3,01,02,03,04,05,06,07,08,09,10,11,12,8.5,8.0,3.0*37
$GPGSV,3,1,12,01,45,045,50,02,45,045,50,03,45,045,50,04,45,045,50*7c
$GPGSV,3,2,12,05,45,045,50,06,45,045,50,07,45,045,50,08,45,045,50*77
$GPGSV,3,3,12,09,45,045,50,10,45,045,50,11,45,045,50,12,45,045,50*71
$GPRMC,122954.60,A,5200.3683,N,422.2421,E,-1.9,92.4,111223,0.0,E,A*2a
$GPVTG,92.4,T,0.0,M,-1.9,N,-3.6,K*7c
$GPGGA,122954.60,5200.3683,N,00422.2421,E,12,12,8.0,0.9,M,0.0,M,0.0,0000*45
$GPGSA,A,3,01,02,03,04,05,06,07,08,09,10,11,12,7.5,7.0,2.7*31
$GPGSV,3,1,12,01,45,045,50,02,45,045,50,03,45,045,50,04,45,045,50*7c
$GPGSV,3,2,12,05,45,045,50,06,45,045,50,07,45,045,50,08,45,045,50*77
$GPGSV,3,3,12,09,45,045,50,10,45,045,50,11,45,045,50,12,45,045,50*71
$GPRMC,122955.07,A,5200.3680,N,422.2413,E,-1.9,92.4,111223,0.0,E,A*28
$GPVTG,92.4,T,0.0,M,-1.9,N,-3.6,K*7c
$GPGGA,122955.07,5200.3680,N,00422.2413,E,12,12,7.0,0.8,M,0.0,M,0.0,0000*49
$GPGSA,A,3,01,02,03,04,05,06,07,08,09,10,11,12,7.4,7.0,2.5*32
$GPGSV,3,1,12,01,45,045,50,02,45,045,50,03,45,045,50,04,45,045,50*7c
$GPGSV,3,2,12,05,45,045,50,06,45,045,50,07,45,045,50,08,45,045,50*77
$GPGSV,3,3,12,09,45,045,50,10,45,045,50,11,45,045,50,12,45,045,50*71
$GPRMC,123007.00,A,5200.3682,N,422.2427,E,-1.9,92.4,111223,0.0,E,A*25
$GPVTG,92.4,T,0.0,M,-1.9,N,-3.6,K*7c
$GPGGA,123007.00,5200.3682,N,00422.2427,E,12,12,7.0,0.9,M,0.0,M,0.0,0000*45
$GPGSA,A,3,01,02,03,04,05,06,07,08,09,10,11,12,7.4,7.0,2.3*34
$GPGSV,3,1,12,01,45,045,50,02,45,045,50,03,45,045,50,04,45,045,50*7c
$GPGSV,3,2,12,05,45,045,50,06,45,045,50,07,45,045,50,08,45,045,50*77
$GPGSV,3,3,12,09,45,045,50,10,45,045,50,11,45,045,50,12,45,045,50*71
$GPRMC,123007.45,A,5200.3668,N,422.2428,E,-1.9,92.4,111223,0.0,E,A*2f
$GPVTG,92.4,T,0.0,M,-1.9,N,-3.6,K*7c
$GPGGA,123007.45,5200.3668,N,00422.2428,E,12,12,7.0,0.9,M,0.0,M,0.0,0000*4f
$GPGSA,A,3,01,02,03,04,05,06,07,08,09,10,11,12,7.3,7.0,2.1*31
$GPGSV,3,1,12,01,45,045,50,02,45,045,50,03,45,045,50,04,45,045,50*7c
$GPGSV,3,2,12,05,45,045,50,06,45,045,50,07,45,045,50,08,45,045,50*77
$GPGSV,3,3,12,09,45,045,50,10,45,045,50,11,45,045,50,12,45,045,50*71
$GPRMC,123019.00,A,5200.3671,N,422.2441,E,-1.9,92.4,111223,0.0,E,A*26
$GPVTG,92.4,T,0.0,M,-1.9,N,-3.6,K*7c
$GPGGA,123019.00,5200.3671,N,00422.2441,E,12,12,7.0,1.0,M,0.0,M,0.0,0000*4e
$GPGSA,A,3,01,02,03,04,05,06,07,08,09,10,11,12,7.3,7.0,2.0*30
$GPGSV,3,1,12,01,45,045,50,02,45,045,50,03,45,045,50,04,45,045,50*7c
$GPGSV,3,2,12,05,45,045,50,06,45,045,50,07,45,045,50,08,45,045,50*77
$GPGSV,3,3,12,09,45,045,50,10,45,045,50,11,45,045,50,12,45,045,50*71
$GPRMC,123019.44,A,5200.3683,N,422.2403,E,-1.9,92.4,111223,0.0,E,A*2d
$GPVTG,92.4,T,0.0,M,-1.9,N,-3.6,K*7c
$GPGGA,123019.44,5200.3683,N,00422.2403,E,12,12,7.0,0.9,M,0.0,M,0.0,0000*4d
$GPGSA,A,3,01,02,03,04,05,06,07,08,09,10,11,12,7.3,7.0,1.9*3a
$GPGSV,3,1,12,01,45,045,50,02,45,045,50,03,45,045,50,04,45,045,50*7c
$GPGSV,3,2,12,05,45,045,50,06,45,045,50,07,45,045,50,08,45,045,50*77
$GPGSV,3,3,12,09,45,045,50,10,45,045,50,11,45,045,50,12,45,045,50*71
$GPRMC,123031.00,A,5200.3685,N,422.2418,E,-1.9,92.4,111223,0.0,E,A*2b
$GPVTG,92.4,T,0.0,M,-1.9,N,-3.6,K*7c
$GPGGA,123031.00,5200.3685,N,00422.2418,E,12,12,7.0,1.0,M,0.0,M,0.0,0000*43
$GPGSA,A,3,01,02,03,04,05,06,07,08,09,10,11,12,7.2,7.0,1.8*3a
$GPGSV,3,1,12,01,45,045,50,02,45,045,50,03,45,045,50,04,45,045,50*7c
$GPGSV,3,2,12,05,45,045,50,06,45,045,50,07,45,045,50,08,45,045,50*77
$GPGSV,3,3,12,09,45,045,50,10,45,045,50,11,45,045,50,12,45,045,50*71
$GPRMC,123031.46,A,5200.3668,N,422.2413,E,-1.9,92.4,111223,0.0,E,A*21
$GPVTG,92.4,T,0.0,M,-1.9,N,-3.6,K*7c
$GPGGA,123031.46,5200.3668,N,00422.2413,E,12,12,7.0,0.9,M,0.0,M,0.0,0000*41
$GPGSA,A,3,01,02,03,04,05,06,07,08,09,10,11,12,7.2,7.0,1.7*35
$GPGSV,3,1,12,01,45,045,50,02,45,045,50,03,45,045,50,04,45,045,50*7c
$GPGSV,3,2,12,05,45,045,50,06,45,045,50,07,45,045,50,08,45,045,50*77
$GPGSV,3,3,12,09,45,045,50,10,45,045,50,11,45,045,50,12,45,045,50*71
$GPRMC,123043.00,A,5200.3671,N,422.2427,E,-1.9,92.4,111223,0.0,E,A*29
$GPVTG,92.4,T,0.0,M,-1.9,N,-3.6,K*7c
$GPGGA,123043.00,5200.3671,N,00422.2427,E,12,12,7.0,1.0,M,0.0,M,0.0,0000*41
$GPGSA,A,3,01,02,03,04,05,06,07,08,09,10,11,12,7.2,7.0,1.7*35
$GPGSV,3,1,12,01,45,045,50,02,45,045,50,03,45,045,50,04,45,045,50*7c
$GPGSV,3,2,12,05,45,045,50,06,45,045,50,07,45,045,50,08,45,045,50*77
$GPGSV,3,3,12,09,45,045,50,10,45,045,50,11,45,045,50,12,45,045,50*71
$GPRMC,123043.46,A,5200.3690,N,422.2418,E,-1.9,92.4,111223,0.0,E,A*28
$GPVTG,92.4,T,0.0,M,-1.9,N,-3.6,K*7c
$GPGGA,123043.46,5200.3690,N,00422.2418,E,12,12,7.0,1.0,M,0.0,M,0.0,0000*40
$GPGSA,A,3,01,02,03,04,05,06,07,08,09,10,11,12,7.2,7.0,1.6*34
$GPGSV,3,1,12,01,45,045,50,02,45,045,50,03,45,045,50,04,45,045,50*7c
$GPGSV,3,2,12,05,45,045,50,06,45,045,50,07,45,045,50,08,45,045,50*77
$GPGSV,3,3,12,09,45,045,50,10,45,045,50,11,45,045,50,12,45,045,50*71
$GPRMC,123055.00,A,5200.3691,N,422.2431,E,-1.9,92.4,111223,0.0,E,A*27
$GPVTG,92.4,T,0.0,M,-1.9,N,-3.6,K*7c
$GPGGA,123055.00,5200.3691,N,00422.2431,E,12,12,7.0,1.0,M,0.0,M,0.0,0000*4f
$GPGSA,A,3,01,02,03,04,05,06,07,08,09,10,11,12,7.2,7.0,1.6*34
$GPGSV,3,1,12,01,45,045,50,02,45,045,50,03,45,045,50,04,45,045,50*7c
$GPGSV,3,2,12,05,45,045,50,06,45,045,50,07,45,045,50,08,45,045,50*77
$GPGSV,3,3,12,09,45,045,50,10,45,045,50,11,45,045,50,12,45,045,50*71
$GPRMC,123055.44,A,5200.3683,N,422.2417,E,-1.9,92.4,111223,0.0,E,A*20
$GPVTG,92.4,T,0.0,M,-1.9,N,-3.6,K*7c
$GPGGA,123055.44,5200.3683,N,00422.2417,E,12,12,7.0,1.0,M,0.0,M,0.0,0000*48
$GPGSA,A,3,01,02,03,04,05,06,07,08,09,10,11,12,7.2,7.0,1.5*37
$GPGSV,3,1,12,01,45,045,50,02,45,045,50,03,45,045,50,04,45,045,50*7c
$GPGSV,3,2,12,05,45,045,50,06,45,045,50,07,45,045,50,08,45,045,50*77
$GPGSV,3,3,12,09,45,045,50,10,45,045,50,11,45,045,50,12,45,045,50*71
$GPRMC,123107.00,A,5200.3685,N,422.2431,E,-1.9,92.4,111223,0.0,E,A*24
$GPVTG,92.4,T,0.0,M,-1.9,N,-3.6,K*7c
$GPGGA,123107.00,5200.3685,N,00422.2431,E,12,12,7.0,1.0,M,0.0,M,0.0,0000*4c
$GPGSA,A,3,01,02,03,04,05,06,07,08,09,10,11,12,7.2,7.0,1.5*37
$GPGSV,3,1,12,01,45,045,50,02,45,045,50,03,45,045,50,04,45,045,50*7c
$GPGSV,3,2,12,05,45,045,50,06,45,045,50,07,45,045,50,08,45,045,50*77
$GPGSV,3,3,12,09,45,045,50,10,45,045,50,11,45,045,50,12,45,045,50*71
$GPRMC,123107.44,A,5200.3686,N,422.2426,E,-1.9,92.4,111223,0.0,E,A*21
$GPVTG,92.4,T,0.0,M,-1.9,N,-3.6,K*7c
$GPGGA,123107.44,5200.3686,N,00422.2426,E,12,12,7.0,1.0,M,0.0,M,0.0,0000*49
$GPGSA,A,3,01,02,03,04,05,06,07,08,09,10,11,12,7.1,7.0,1.4*35
$GPGSV,3,1,12,01,45,045,50,02,45,045,50,03,45,045,50,04,45,045,50*7c
$GPGSV,3,2,12,05,45,045,50,06,45,045,50,07,45,045,50,08,45,045,50*77
$GPGSV,3,3,12,09,45,045,50,10,45,045,50,11,45,045,50,12,45,045,50*71
$GPRMC,123119.00,A,5200.3687,N,422.2439,E,-1.9,92.4,111223,0.0,E,A*21
$GPVTG,92.4,T,0.0,M,-1.9,N,-3.6,K*7c
$GPGGA,123119.00,5200.3687,N,00422.2439,E,12,12,7.0,1.0,M,0.0,M,0.0,0000*49
$GPGSA,A,3,01,02,03,04,05,06,07,08,09,10,11,12,7.1,7.0,1.4*35
$GPGSV,3,1,12,01,45,045,50,02,45,045,50,03,45,045,50,04,45,045,50*7c
$GPGSV,3,2,12,05,45,045,50,06,45,045,50,07,45,045,50,08,45,045,50*77
$GPGSV,3,3,12,09,45,045,50,10,45,045,50,11,45,045,50,12,45,045,50*71
$GPRMC,123119.42,A,5200.3710,N,422.2425,E,-1.9,92.4,111223,0.0,E,A*25
$GPVTG,92.4,T,0.0,M,-1.9,N,-3.6,K*7c
$GPGGA,123119.42,5200.3710,N,00422.2425,E,12,12,7.0,1.0,M,0.0,M,0.0,0000*4d
$GPGSA,A,3,01,02,03,04,05,06,07,08,09,10,11,12,7.1,7.0,1.3*32
$GPGSV,3,1,12,01,45,045,50,02,45,045,50,03,45,045,50,04,45,045,50*7c
$GPGSV,3,2,12,05,45,045,50,06,45,045,50,07,45,045,50,08,45,045,50*77
$GPGSV,3,3,12,09,45,045,50,10,45,045,50,11,45,045,50,12,45,045,50*71
$GPRMC,123131.00,A,5200.3710,N,422.2438,E,-1.9,92.4,111223,0.0,E,A*25
$GPVTG,92.4,T,0.0,M,-1.9,N,-3.6,K*7c
$GPGGA,123131.00,5200.3710,N,00422.2438,E,12,12,7.0,1.0,M,0.0,M,0.0,0000*4d
$GPGSA,A,3,01,02,03,04,05,06,07,08,09,10,11,12,7.1,7.0,1.3*32
$GPGSV,3,1,12,01,45,045,50,02,45,045,50,03,45,045,50,04,45,045,50*7c
$GPGSV,3,2,12,05,45,045,50,06,45,045,50,07,45,045,50,08,45,045,50*77
$GPGSV,3,3,12,09,45,045,50,10,45,045,50,11,45,045,50,12,45,045,50*71
$GPRMC,123131.44,A,5200.3682,N,422.2429,E,-1.9,92.4,111223,0.0,E,A*2f
$GPVTG,92.4,T,0.0,M,-1.9,N,-3.6,K*7c
$GPGGA,123131.44,5200.3682,N,00422.2429,E,12,12,7.0,1.0,M,0.0,M,0.0,0000*47
$GPGSA,A,3,01,02,03,04,05,06,07,08,09,10,11,12,7.1,7.0,1.3*32
$GPGSV,3,1,12,01,45,045,50,02,45,045,50,03,45,045,50,04,45,045,50*7c
$GPGSV,3,2,12,05,45,045,50,06,45,045,50,07,45,045,50,08,45,045,50*77
$GPGSV,3,3,12,09,45,045,50,10,45,045,50,11,45,045,50,12,45,045,50*71
$GPRMC,123143.00,A,5200.3684,N,422.2442,E,-1.9,92.4,111223,0.0,E,A*21
$GPVTG,92.4,T,0.0,M,-1.9,N,-3.6,K*7c
$GPGGA,123143.00,5200.3684,N,00422.2442,E,12,12,7.0,1.0,M,0.0,M,0.0,0000*49
$GPGSA,A,3,01,02,03,04,05,06,07,08,09,10,11,12,7.1,7.0,1.3*32
$GPGSV,3,1,12,01,45,045,50,02,45,045,50,03,45,045,50,04,45,045,50*7c
$GPGSV,3,2,12,05,45,045,50,06,45,045,50,07,45,045,50,08,45,045,50*77
$GPGSV,3,3,12,09,45,045,50,10,45,045,50,11,45,045,50,12,45,045,50*71
$GPRMC,123143.44,A,5200.3692,N,422.2416,E,-1.9,92.4,111223,0.0,E,A*27
$GPVTG,92.4,T,0.0,M,-1.9,N,-3.6,K*7c
$GPGGA,123143.44,5200.3692,N,00422.2416,E,12,12,7.0,1.0,M,0.0,M,0.0,0000*4f
$GPGSA,A,3,01,02,03,04,05,06,07,08,09,10,11,12,7.1,7.0,1.2*33
$GPGSV,3,1,12,01,45,045,50,02,45,045,50,03,45,045,50,04,45,045,50*7c
$GPGSV,3,2,12,05,45,045,50,06,45,045,50,07,45,045,50,08,45,045,50*77
$GPGSV,3,3,12,09,45,045,50,10,45,045,50,11,45,045,50,12,45,045,50*71
$GPRMC,123155.00,A,5200.3693,N,422.2430,E,-1.9,92.4,111223,0.0,E,A*25
$GPVTG,92.4,T,0.0,M,-1.9,N,-3.6,K*7c
$GPGGA,123155.00,5200.3693,N,00422.2430,E,12,12,7.0,1.0,M,0.0,M,0.0,0000*4d
$GPGSA,A,3,01,02,03,04,05,06,07,08,09,10,11,12,7.1,7.0,1.2*33
$GPGSV,3,1,12,01,45,045,50,02,45,045,50,03,45,045,50,04,45,045,50*7c
$GPGSV,3,2,12,05,45,045,50,06,45,045,50,07,45,045,50,08,45,045,50*77
$GPGSV,3,3,12,09,45,045,50,10,45,045,50,11,45,045,50,12,45,045,50*71
$GPRMC,123155.44,A,5200.3680,N,422.2427,E,-1.9,92.4,111223,0.0,E,A*21
$GPVTG,92.4,T,0.0,M,-1.9,N,-3.6,K*7c
$GPGGA,123155.44,5200.3680,N,00422.2427,E,12,12,7.0,1.0,M,0.0,M,0.0,0000*49
$GPGSA,A,3,01,02,03,04,05,06,07,08,09,10,11,12,7.1,7.0,1.2*33
$GPGSV,3,1,12,01,45,045,50,02,45,045,50,03,45,045,50,04,45,045,50*7c
$GPGSV,3,2,12,05,45,045,50,06,45,045,50,07,45,045,50,08,45,045,50*77
$GPGSV,3,3,12,09,45,045,50,10,45,045,50,11,45,045,50,12,45,045,50*71
$GPRMC,123207.00,A,5200.3682,N,422.2440,E,-1.9,92.4,111223,0.0,E,A*26
$GPVTG,92.4,T,0.0,M,-1.9,N,-3.6,K*7c
$GPGGA,123207.00,5200.3682,N,00422.2440,E,12,12,7.0,1.0,M,0.0,M,0.0,0000*4e
$GPGSA,A,3,01,02,03,04,05,06,07,08,09,10,11,12,7.1,7.0,1.2*33
$GPGSV,3,1,12,01,45,045,50,02,45,045,50,03,45,045,50,04,45,045,50*7c
$GPGSV,3,2,12,05,45,045,50,06,45,045,50,07,45,045,50,08,45,045,50*77
$GPGSV,3,3,12,09,45,045,50,10,45,045,50,11,45,045,50,12,45,045,50*71
$GPRMC,123207.46,A,5200.3693,N,422.2424,E,-1.9,92.4,111223,0.0,E,A*26
$GPVTG,92.4,T,0.0,M,-1.9,N,-3.6,K*7c
$GPGGA,123207.46,5200.3693,N,00422.2424,E,12,12,7.0,1.0,M,0.0,M,0.0,0000*4e
$GPGSA,A,3,01,02,03,04,05,06,07,08,09,10,11,12,7.1,7.0,1.1*30
$GPGSV,3,1,12,01,45,045,50,02,45,045,50,03,45,045,50,04,45,045,50*7c
$GPGSV,3,2,12,05,45,045,50,06,45,045,50,07,45,045,50,08,45,045,50*77
$GPGSV,3,3,12,09,45,045,50,10,45,045,50,11,45,045,50,12,45,045,50*71
$GPRMC,123219.00,A,5200.3694,N,422.2437,E,-1.9,92.4,111223,0.0,E,A*2e
$GPVTG,92.4,T,0.0,M,-1.9,N,-3.6,K*7c
$GPGGA,123219.00,5200.3694,N,00422.2437,E,12,12,7.0,1.0,M,0.0,M,0.0,0000*46
$GPGSA,A,3,01,02,03,04,05,06,07,08,09,10,11,12,7.1,7.0,1.1*30
$GPGSV,3,1,12,01,45,045,50,02,45,045,50,03,45,045,50,04,45,045,50*7c
$GPGSV,3,2,12,05,45,045,50,06,45,045,50,07,45,045,50,08,45,045,50*77
$GPGSV,3,3,12,09,45,045,50,10,45,045,50,11,45,045,50,12,45,045,50*71
$GPRMC,123219.44,A,5200.3678,N,422.2415,E,-1.9,92.4,111223,0.0,E,A*2c
$GPVTG,92.4,T,0.0,M,-1.9,N,-3.6,K*7c
$GPGGA,123219.44,5200.3678,N,00422.2415,E,12,12,7.0,1.0,M,0.0,M,0.0,0000*44
$GPGSA,A,3,01,02,03,04,05,06,07,08,09,10,11,12,7.1,7.0,1.1*30
$GPGSV,3,1,12,01,45,045,50,02,45,045,50,03,45,045,50,04,45,045,50*7c
$GPGSV,3,2,12,05,45,045,50,06,45,045,50,07,45,045,50,08,45,045,50*77
$GPGSV,3,3,12,09,45,045,50,10,45,045,50,11,45,045,50,12,45,045,50*71
$GPRMC,123231.00,A,5200.3681,N,422.2429,E,-1.9,92.4,111223,0.0,E,A*2f
$GPVTG,92.4,T,0.0,M,-1.9,N,-3.6,K*7c
$GPGGA,123231.00,5200.3681,N,00422.2429,E,12,12,7.0,1.0,M,0.0,M,0.0,0000*47
$GPGSA,A,3,01,02,03,04,05,06,07,08,09,10,11,12,7.1,7.0,1.1*30
$GPGSV,3,1,12,01,45,045,50,02,45,045,50,03,45,045,50,04,45,045,50*7c
$GPGSV,3,2,12,05,45,045,50,06,45,045,50,07,45,045,50,08,45,045,50*77
$GPGSV,3,3,12,09,45,045,50,10,45,045,50,11,45,045,50,12,45,045,50*71
$GPRMC,123231.45,A,5200.3693,N,422.2432,E,-1.9,88.9,111223,0.0,E,A*21
$GPVTG,88.9,T,0.0,M,-1.9,N,-3.6,K*7a
$GPGGA,123231.45,5200.3693,N,00422.2432,E,12,12,7.0,1.0,M,0.0,M,0.0,0000*4f
$GPGSA,A,3,01,02,03,04,05,06,07,08,09,10,11,12,8.3,7.8,3.0*36
$GPGSV,3,1,12,01,45,045,50,02,45,045,50,03,45,045,50,04,45,045,50*7c
$GPGSV,3,2,12,05,45,045,50,06,45,045,50,07,45,045,50,08,45,045,50*77
$GPGSV,3,3,12,09,45,045,50,10,45,045,50,11,45,045,50,12,45,045,50*71
$GPRMC,123237.53,A,5200.3694,N,422.2448,E,-1.9,88.9,111223,0.0,E,A*2a
$GPVTG,88.9,T,0.0,M,-1.9,N,-3.6,K*7a
$GPGGA,123237.53,5200.3694,N,00422.2448,E,12,12,7.8,0.9,M,0.0,M,0.0,0000*44
$GPGSA,A,3,01,02,03,04,05,06,07,08,09,10,11,12,7.5,7.0,2.7*31
$GPGSV,3,1,12,01,45,045,50,02,45,045,50,03,45,045,50,04,45,045,50*7c
$GPGSV,3,2,12,05,45,045,50,06,45,045,50,07,45,045,50,08,45,045,50*77
$GPGSV,3,3,12,09,45,045,50,10,45,045,50,11,45,045,50,12,45,045,50*71
$GPRMC,123237.95,A,5200.3686,N,422.2434,E,-1.9,88.9,111223,0.0,E,A*28
$GPVTG,88.9,T,0.0,M,-1.9,N,-3.6,K*7a
$GPGGA,123237.95,5200.3686,N,00422.2434,E,12,12,7.0,0.9,M,0.0,M,0.0,0000*4e
$GPGSA,A,3,01,02,03,04,05,06,07,08,09,10,11,12,7.4,7.0,2.4*33
$GPGSV,3,1,12,01,45,045,50,02,45,045,50,03,45,045,50,04,45,045,50*7c
$GPGSV,3,2,12,05,45,045,50,06,45,045,50,07,45,045,50,08,45,045,50*77
$GPGSV,3,3,12,09,45,045,50,10,45,045,50,11,45,045,50,12,45,045,50*71
$GPRMC,123249.00,A,5200.3688,N,422.2447,E,-1.9,88.9,111223,0.0,E,A*27
$GPVTG,88.9,T,0.0,M,-1.9,N,-3.6,K*7a
$GPGGA,123249.00,5200.3688,N,00422.2447,E,12,12,7.0,0.9,M,0.0,M,0.0,0000*41
$GPGSA,A,3,01,02,03,04,05,06,07,08,09,10,11,12,7.4,7.0,2.3*34
$GPGSV,3,1,12,01,45,045,50,02,45,045,50,03,45,045,50,04,45,045,50*7c
$GPGSV,3,2,12,05,45,045,50,06,45,045,50,07,45,045,50,08,45,045,50*77
$GPGSV,3,3,12,09,45,045,50,10,45,045,50,11,45,045,50,12,45,045,50*71
$GPRMC,123249.45,A,5200.3684,N,422.2415,E,-1.9,88.9,111223,0.0,E,A*2d
$GPVTG,88.9,T,0.0,M,-1.9,N,-3.6,K*7a
$GPGGA,123249.45,5200.3684,N,00422.2415,E,12,12,7.0,0.9,M,0.0,M,0.0,0000*4b
$GPGSA,A,3,01,02,03,04,05,06,07,08,09,10,11,12,7.3,7.0,2.1*31
$GPGSV,3,1,12,01,45,045,50,02,45,045,50,03,45,045,50,04,45,045,50*7c
$GPGSV,3,2,12,05,45,045,50,06,45,045,50,07,45,045,50,08,45,045,50*77
$GPGSV,3,3,12,09,45,045,50,10,45,045,50,11,45,045,50,12,45,045,50*71
$GPRMC,123301.24,A,5200.3686,N,422.2429,E,-1.9,88.9,111223,0.0,E,A*2a
$GPVTG,88.9,T,0.0,M,-1.9,N,-3.6,K*7a
$GPGGA,123301.24,5200.3686,N,00422.2429,E,12,12,7.0,0.9,M,0.0,M,0.0,0000*4c
$GPGSA,A,3,01,02,03,04,05,06,07,08,09,10,11,12,7.3,7.0,2.0*30
$GPGSV,3,1,12,01,45,045,50,02,45,045,50,03,45,045,50,04,45,045,50*7c
$GPGSV,3,2,12,05,45,045,50,06,45,045,50,07,45,045,50,08,45,045,50*77
$GPGSV,3,3,12,09,45,045,50,10,45,045,50,11,45,045,50,12,45,045,50*71
$GPRMC,123301.70,A,5200.3676,N,422.2422,E,-1.9,88.9,111223,0.0,E,A*2f
$GPVTG,88.9,T,0.0,M,-1.9,N,-3.6,K*7a
$GPGGA,123301.70,5200.3676,N,00422.2422,E,12,12,7.0,0.9,M,0.0,M,0.0,0000*49
$GPGSA,A,3,01,02,03,04,05,06,07,08,09,10,11,12,7.3,7.0,1.9*3a
$GPGSV,3,1,12,01,45,045,50,02,45,045,50,03,45,045,50,04,45,045,50*7c
$GPGSV,3,2,12,05,45,045,50,06,45,045,50,07,45,045,50,08,45,045,50*77
$GPGSV,3,3,12,09,45,045,50,10,45,045,50,11,45,045,50,12,45,045,50*71
$GPRMC,123313.24,A,5200.3678,N,422.2435,E,-1.9,88.9,111223,0.0,E,A*25
$GPVTG,88.9,T,0.0,M,-1.9,N,-3.6,K*7a
$GPGGA,123313.24,5200.3678,N,00422.2435,E,12,12,7.0,1.0,M,0.0,M,0.0,0000*4b
$GPGSA,A,3,01,02,03,04,05,06,07,08,09,10,11,12,7.2,7.0,1.8*3a
$GPGSV,3,1,12,01,45,045,50,02,45,045,50,03,45,045,50,04,45,045,50*7c
$GPGSV,3,2,12,05,45,045,50,06,45,045,50,07,45,045,50,08,45,045,50*77
$GPGSV,3,3,12,09,45,045,50,10,45,045,50,11,45,045,50,12,45,045,50*71
$GPRMC,123313.71,A,5200.3675,N,422.2409,E,-1.9,88.9,111223,0.0,E,A*27
$GPVTG,88.9,T,0.0,M,-1.9,N,-3.6,K*7a
$GPGGA,123313.71,5200.3675,N,00422.2409,E,12,12,7.0,0.9,M,0.0,M,0.0,0000*41
$GPGSA,A,3,01,02,03,04,05,06,07,08,09,10,11,12,7.2,7.0,1.7*35
$GPGSV,3,1,12,01,45,045,50,02,45,045,50,03,45,045,50,04,45,045,50*7c
$GPGSV,3,2,12,05,45,045,50,06,45,045,50,07,45,045,50,08,45,045,50*77
$GPGSV,3,3,12,09,45,045,50,10,45,045,50,11,45,045,50,12,45,045,50*71
$GPRMC,123325.24,A,5200.3678,N,422.2423,E,-1.9,88.9,111223,0.0,E,A*27
$GPVTG,88.9,T,0.0,M,-1.9,N,-3.6,K*7a
$GPGGA,123325.24,5200.3678,N,00422.2423,E,12,12,7.0,1.0,M,0.0,M,0.0,0000*49
$GPGSA,A,3,01,02,03,04,05,06,07,08,09,10,11,12,7.2,7.0,1.7*35
$GPGSV,3,1,12,01,45,045,50,02,45,045,50,03,45,045,50,04,45,045,50*7c
$GPGSV,3,2,12,05,45,045,50,06,45,045,50,07,45,045,50,08,45,045,50*77
$GPGSV,3,3,12,09,45,045,50,10,45,045,50,11,45,045,50,12,45,045,50*71
$GPRMC,123325.69,A,5200.3676,N,422.2413,E,-1.9,88.9,111223,0.0,E,A*23
$GPVTG,88.9,T,0.0,M,-1.9,N,-3.6,K*7a
$GPGGA,123325.69,5200.3676,N,00422.2413,E,12,12,7.0,0.9,M,0.0,M,0.0,0000*45
$GPGSA,A,3,01,02,03,04,05,06,07,08,09,10,11,12,7.2,7.0,1.6*34
$GPGSV,3,1,12,01,45,045,50,02,45,045,50,03,45,045,50,04,45,045,50*7c
$GPGSV,3,2,12,05,45,045,50,06,45,045,50,07,45,045,50,08,45,045,50*77
$GPGSV,3,3,12,09,45,045,50,10,45,045,50,11,45,045,50,12,45,045,50*71
$GPRMC,123337.24,A,5200.3678,N,422.2427,E,-1.9,88.9,111223,0.0,E,A*20
$GPVTG,88.9,T,0.0,M,-1.9,N,-3.6,K*7a
$GPGGA,123337.24,5200.3678,N,00422.2427,E,12,12,7.0,1.0,M,0.0,M,0.0,0000*4e
$GPGSA,A,3,01,02,03,04,05,06,07,08,09,10,11,12,7.2,7.0,1.5*37
$GPGSV,3,1,12,01,45,045,50,02,45,045,50,03,45,045,50,04,45,045,50*7c
$GPGSV,3,2,12,05,45,045,50,06,45,045,50,07,45,045,50,08,45,045,50*77
$GPGSV,3,3,12,09,45,045,50,10,45,045,50,11,45,045,50,12,45,045,50*71
$GPRMC,123337.70,A,5200.3668,N,422.2417,E,-1.9,88.9,111223,0.0,E,A*23
$GPVTG,88.9,T,0.0,M,-1.9,N,-3.6,K*7a
$GPGGA,123337.70,5200.3668,N,00422.2417,E,12,12,7.0,1.0,M,0.0,M,0.0,0000*4d
$GPGSA,A,3,01,02,03,04,05,06,07,08,09,10,11,12,7.2,7.0,1.5*37
$GPGSV,3,1,12,01,45,045,50,02,45,045,50,03,45,045,50,04,45,045,50*7c
$GPGSV,3,2,12,05,45,045,50,06,45,045,50,07,45,045,50,08,45,045,50*77
$GPGSV,3,3,12,09,45,045,50,10,45,045,50,11,45,045,50,12,45,045,50*71
$GPRMC,123349.24,A,5200.3671,N,422.2431,E,-1.9,88.9,111223,0.0,E,A*27
$GPVTG,88.9,T,0.0,M,-1.9,N,-3.6,K*7a
$GPGGA,123349.24,5200.3671,N,00422.2431,E,12,12,7.0,1.0,M,0.0,M,0.0,0000*49
$GPGSA,A,3,01,02,03,04,05,06,07,08,09,10,11,12,7.1,7.0,1.5*34
$GPGSV,3,1,12,01,45,045,50,02,45,045,50,03,45,045,50,04,45,045,50*7c
$GPGSV,3,2,12,05,45,045,50,06,45,045,50,07,45,045,50,08,45,045,50*77
$GPGSV,3,3,12,09,45,045,50,10,45,045,50,11,45,045,50,12,45,045,50*71
$GPRMC,123349.71,A,5200.3674,N,422.2405,E,-1.9,88.9,111223,0.0,E,A*25
$GPVTG,88.9,T,0.0,M,-1.9,N,-3.6,K*7a
$GPGGA,123349.71,5200.3674,N,00422.2405,E,12,12,7.0,1.0,M,0.0,M,0.0,0000*4b
$GPGSA,A,3,01,02,03,04,05,06,07,08,09,10,11,12,13.9,13.4,3.4*3b
$GPGSV,3,1,12,01,45,045,50,02,45,045,50,03,45,045,50,04,45,045,50*7c
$GPGSV,3,2,12,05,45,045,50,06,45,045,50,07,45,045,50,08,45,045,50*77
$GPGSV,3,3,12,09,45,045,50,10,45,045,50,11,45,045,50,12,45,045,50*71
$GPRMC,123400.11,A,5200.3682,N,422.2450,E,-1.9,88.2,111223,0.0,E,A*2b
$GPVTG,88.2,T,0.0,M,-1.9,N,-3.6,K*71
$GPGGA,123400.11,5200.3682,N,00422.2450,E,12,12,13.4,0.9,M,0.0,M,0.0,0000*77
$GPGSA,A,3,01,02,03,04,05,06,07,08,09,10,11,12,7.7,7.0,3.1*34
$GPGSV,3,1,12,01,45,045,50,02,45,045,50,03,45,045,50,04,45,045,50*7c
$GPGSV,3,2,12,05,45,045,50,06,45,045,50,07,45,045,50,08,45,045,50*77
$GPGSV,3,3,12,09,45,045,50,10,45,045,50,11,45,045,50,12,45,045,50*71
$GPRMC,123400.60,A,5200.3687,N,422.2409,E,-1.9,88.2,111223,0.0,E,A*24
$GPVTG,88.2,T,0.0,M,-1.9,N,-3.6,K*71
$GPGGA,123400.60,5200.3687,N,00422.2409,E,12,12,7.0,0.8,M,0.0,M,0.0,0000*48
$GPGSA,A,3,01,02,03,04,05,06,07,08,09,10,11,12,8.2,7.5,3.3*39
$GPGSV,3,1,12,01,45,045,50,02,45,045,50,03,45,045,50,04,45,045,50*7c
$GPGSV,3,2,12,05,45,045,50,06,45,045,50,07,45,045,50,08,45,045,50*77
$GPGSV,3,3,12,09,45,045,50,10,45,045,50,11,45,045,50,12,45,045,50*71
$GPRMC,123412.24,A,5200.3689,N,422.2428,E,-1.9,88.2,111223,0.0,E,A*2a
$GPVTG,88.2,T,0.0,M,-1.9,N,-3.6,K*71
$GPGGA,123412.24,5200.3689,N,00422.2428,E,12,12,7.5,1.0,M,0.0,M,0.0,0000*4a
$GPGSA,A,3,01,02,03,04,05,06,07,08,09,10,11,12,7.6,7.0,2.9*3c
$GPGSV,3,1,12,01,45,045,50,02,45,045,50,03,45,045,50,04,45,045,50*7c
$GPGSV,3,2,12,05,45,045,50,06,45,045,50,07,45,045,50,08,45,045,50*77
$GPGSV,3,3,12,09,45,045,50,10,45,045,50,11,45,045,50,12,45,045,50*71
$GPRMC,123412.69,A,5200.3666,N,422.2430,E,-1.9,88.2,111223,0.0,E,A*2b
$GPVTG,88.2,T,0.0,M,-1.9,N,-3.6,K*71
$GPGGA,123412.69,5200.3666,N,00422.2430,E,12,12,7.0,0.9,M,0.0,M,0.0,0000*46
$GPGSA,A,3,01,02,03,04,05,06,07,08,09,10,11,12,7.5,7.0,2.6*30
$GPGSV,3,1,12,01,45,045,50,02,45,045,50,03,45,045,50,04,45,045,50*7c
$GPGSV,3,2,12,05,45,045,50,06,45,045,50,07,45,045,50,08,45,045,50*77
$GPGSV,3,3,12,09,45,045,50,10,45,045,50,11,45,045,50,12,45,045,50*71
$GPRMC,123424.23,A,5200.3670,N,422.2443,E,-1.9,88.2,111223,0.0,E,A*23
$GPVTG,88.2,T,0.0,M,-1.9,N,-3.6,K*71
$GPGGA,123424.23,5200.3670,N,00422.2443,E,12,12,7.0,1.0,M,0.0,M,0.0,0000*46
$GPGSA,A,3,01,02,03,04,05,06,07,08,09,10,11,12,7.4,7.0,2.4*33
$GPGSV,3,1,12,01,45,045,50,02,45,045,50,03,45,045,50,04,45,045,50*7c
$GPGSV,3,2,12,05,45,045,50,06,45,045,50,07,45,045,50,08,45,045,50*77
$GPGSV,3,3,12,09,45,045,50,10,45,045,50,11,45,045,50,12,45,045,50*71
$GPRMC,123424.69,A,5200.3669,N,422.2407,E,-1.9,88.2,111223,0.0,E,A*25
$GPVTG,88.2,T,0.0,M,-1.9,N,-3.6,K*71
$GPGGA,123424.69,5200.3669,N,00422.2407,E,12,12,7.0,1.0,M,0.0,M,0.0,0000*40
$GPGSA,A,3,01,02,03,04,05,06,07,08,09,10,11,12,7.3,7.0,2.2*32
$GPGSV,3,1,12,01,45,045,50,02,45,045,50,03,45,045,50,04,45,045,50*7c
$GPGSV,3,2,12,05,45,045,50,06,45,045,50,07,45,045,50,08,45,045,50*77
$GPGSV,3,3,12,09,45,045,50,10,45,045,50,11,45,045,50,12,45,045,50*71
$GPRMC,123436.24,A,5200.3672,N,422.2421,E,-1.9,88.2,111223,0.0,E,A*21
$GPVTG,88.2,T,0.0,M,-1.9,N,-3.6,K*71
$GPGGA,123436.24,5200.3672,N,00422.2421,E,12,12,7.0,1.0,M,0.0,M,0.0,0000*44
$GPGSA,A,3,01,02,03,04,05,06,07,08,09,10,11,12,7.3,7.0,2.1*31
$GPGSV,3,1,12,01,45,045,50,02,45,045,50,03,45,045,50,04,45,045,50*7c
$GPGSV,3,2,12,05,45,045,50,06,45,045,50,07,45,045,50,08,45,045,50*77
$GPGSV,3,3,12,09,45,045,50,10,45,045,50,11,45,045,50,12,45,045,50*71
$GPRMC,123436.70,A,5200.3695,N,422.2418,E,-1.9,88.2,111223,0.0,E,A*23
$GPVTG,88.2,T,0.0,M,-1.9,N,-3.6,K*71
$GPGGA,123436.70,5200.3695,N,00422.2418,E,12,12,7.0,1.0,M,0.0,M,0.0,0000*46
$GPGSA,A,3,01,02,03,04,05,06,07,08,09,10,11,12,12.8,12.4,3.5*3b
$GPGSV,3,1,12,01,45,045,50,02,45,045,50,03,45,045,50,04,45,045,50*7c
$GPGSV,3,2,12,05,45,045,50,06,45,045,50,07,45,045,50,08,45,045,50*77
$GPGSV,3,3,12,09,45,045,50,10,45,045,50,11,45,045,50,12,45,045,50*71
$GPRMC,123448.24,A,5200.3698,N,422.2455,E,-1.9,345.1,111223,0.0,E,A*1e
$GPVTG,345.1,T,0.0,M,-1.9,N,-3.6,K*40
$GPGGA,123448.24,5200.3698,N,00422.2455,E,12,12,12.4,1.1,M,0.0,M,0.0,0000*7b
$GPGSA,A,3,01,02,03,04,05,06,07,08,09,10,11,12,7.7,7.0,3.1*34
$GPGSV,3,1,12,01,45,045,50,02,45,045,50,03,45,045,50,04,45,045,50*7c
$GPGSV,3,2,12,05,45,045,50,06,45,045,50,07,45,045,50,08,45,045,50*77
$GPGSV,3,3,12,09,45,045,50,10,45,045,50,11,45,045,50,12,45,045,50*71
$GPRMC,123448.70,A,5200.3698,N,422.2439,E,-1.9,345.1,111223,0.0,E,A*15
$GPVTG,345.1,T,0.0,M,-1.9,N,-3.6,K*40
$GPGGA,123448.70,5200.3698,N,00422.2439,E,12,12,7.0,1.0,M,0.0,M,0.0,0000*41
$GPGSA,A,3,01,02,03,04,05,06,07,08,09,10,11,12,7.6,7.0,2.9*3c
$GPGSV,3,1,12,01,45,045,50,02,45,045,50,03,45,045,50,04,45,045,50*7c
$GPGSV,3,2,12,05,45,045,50,06,45,045,50,07,45,045,50,08,45,045,50*77
$GPGSV,3,3,12,09,45,045,50,10,45,045,50,11,45,045,50,12,45,045,50*71
$GPRMC,123500.24,A,5200.3699,N,422.2451,E,-1.9,344.1,111223,0.0,E,A*17
$GPVTG,344.1,T,0.0,M,-1.9,N,-3.6,K*41
$GPGGA,123500.24,5200.3699,N,00422.2451,E,12,12,7.0,1.1,M,0.0,M,0.0,0000*43
$GPGSA,A,3,01,02,03,04,05,06,07,08,09,10,11,12,7.5,7.0,2.6*30
$GPGSV,3,1,12,01,45,045,50,02,45,045,50,03,45,045,50,04,45,045,50*7c
$GPGSV,3,2,12,05,45,045,50,06,45,045,50,07,45,045,50,08,45,045,50*77
$GPGSV,3,3,12,09,45,045,50,10,45,045,50,11,45,045,50,12,45,045,50*71
$GPRMC,123500.70,A,5200.3687,N,422.2418,E,-1.9,344.1,111223,0.0,E,A*14
$GPVTG,344.1,T,0.0,M,-1.9,N,-3.6,K*41
$GPGGA,123500.70,5200.3687,N,00422.2418,E,12,12,7.0,1.0,M,0.0,M,0.0,0000*41
$GPGSA,A,3,01,02,03,04,05,06,07,08,09,10,11,12,7.4,7.0,2.4*33
$GPGSV,3,1,12,01,45,045,50,02,45,045,50,03,45,045,50,04,45,045,50*7c
$GPGSV,3,2,12,05,45,045,50,06,45,045,50,07,45,045,50,08,45,045,50*77
$GPGSV,3,3,12,09,45,045,50,10,45,045,50,11,45,045,50,12,45,045,50*71
$GPRMC,123512.23,A,5200.3689,N,422.2432,E,-1.9,344.1,111223,0.0,E,A*17
$GPVTG,344.1,T,0.0,M,-1.9,N,-3.6,K*41
$GPGGA,123512.23,5200.3689,N,00422.2432,E,12,12,7.0,1.1,M,0.0,M,0.0,0000*43
$GPGSA,A,3,01,02,03,04,05,06,07,08,09,10,11,12,7.3,7.0,2.2*32
$GPGSV,3,1,12,01,45,045,50,02,45,045,50,03,45,045,50,04,45,045,50*7c
$GPGSV,3,2,12,05,45,045,50,06,45,045,50,07,45,045,50,08,45,045,50*77
$GPGSV,3,3,12,09,45,045,50,10,45,045,50,11,45,045,50,12,45,045,50*71
$GPRMC,123512.69,A,5200.3685,N,422.2403,E,-1.9,344.1,111223,0.0,E,A*17
$GPVTG,344.1,T,0.0,M,-1.9,N,-3.6,K*41
$GPGGA,123512.69,5200.3685,N,00422.2403,E,12,12,7.0,1.0,M,0.0,M,0.0,0000*42
$GPGSA,A,3,01,02,03,04,05,06,07,08,09,10,11,12,7.3,7.0,2.1*31
$GPGSV,3,1,12,01,45,045,50,02,45,045,50,03,45,045,50,04,45,045,50*7c
$GPGSV,3,2,12,05,45,045,50,06,45,045,50,07,45,045,50,08,45,045,50*77
$GPGSV,3,3,12,09,45,045,50,10,45,045,50,11,45,045,50,12,45,045,50*71
$GPRMC,123524.24,A,5200.3687,N,422.2417,E,-1.9,344.1,111223,0.0,E,A*1c
$GPVTG,344.1,T,0.0,M,-1.9,N,-3.6,K*41
$GPGGA,123524.24,5200.3687,N,00422.2417,E,12,12,7.0,1.0,M,0.0,M,0.0,0000*49
$GPGSA,A,3,01,02,03,04,05,06,07,08,09,10,11,12,7.3,7.0,2.0*30
$GPGSV,3,1,12,01,45,045,50,02,45,045,50,03,45,045,50,04,45,045,50*7c
$GPGSV,3,2,12,05,45,045,50,06,45,045,50,07,45,045,50,08,45,045,50*77
$GPGSV,3,3,12,09,45,045,50,10,45,045,50,11,45,045,50,12,45,045,50*71
$GPRMC,123524.69,A,5200.3681,N,422.2416,E,-1.9,344.1,111223,0.0,E,A*12
$GPVTG,344.1,T,0.0,M,-1.9,N,-3.6,K*41
$GPGGA,123524.69,5200.3681,N,00422.2416,E,12,12,7.0,1.0,M,0.0,M,0.0,0000*47
$GPGSA,A,3,01,02,03,04,05,06,07,08,09,10,11,12,7.2,7.0,1.9*3b
$GPGSV,3,1,12,01,45,045,50,02,45,045,50,03,45,045,50,04,45,045,50*7c
$GPGSV,3,2,12,05,45,045,50,06,45,045,50,07,45,045,50,08,45,045,50*77
$GPGSV,3,3,12,09,45,045,50,10,45,045,50,11,45,045,50,12,45,045,50*71
$GPRMC,123536.24,A,5200.3683,N,422.2430,E,-1.9,344.1,111223,0.0,E,A*1e
$GPVTG,344.1,T,0.0,M,-1.9,N,-3.6,K*41
$GPGGA,123536.24,5200.3683,N,00422.2430,E,12,12,7.0,1.0,M,0.0,M,0.0,0000*4b
$GPGSA,A,3,01,02,03,04,05,06,07,08,09,10,11,12,7.2,7.0,1.8*3a
$GPGSV,3,1,12,01,45,045,50,02,45,045,50,03,45,045,50,04,45,045,50*7c
$GPGSV,3,2,12,05,45,045,50,06,45,045,50,07,45,045,50,08,45,045,50*77
$GPGSV,3,3,12,09,45,045,50,10,45,045,50,11,45,045,50,12,45,045,50*71
$GPRMC,123536.70,A,5200.3668,N,422.2401,E,-1.9,344.1,111223,0.0,E,A*18
$GPVTG,344.1,T,0.0,M,-1.9,N,-3.6,K*41
$GPGGA,123536.70,5200.3668,N,00422.2401,E,12,12,7.0,1.0,M,0.0,M,0.0,0000*4d
$GPGSA,A,3,01,02,03,04,05,06,07,08,09,10,11,12,7.2,7.0,1.7*35
$GPGSV,3,1,12,01,45,045,50,02,45,045,50,03,45,045,50,04,45,045,50*7c
$GPGSV,3,2,12,05,45,045,50,06,45,045,50,07,45,045,50,08,45,045,50*77
$GPGSV,3,3,12,09,45,045,50,10,45,045,50,11,45,045,50,12,45,045,50*71
$GPRMC,123548.24,A,5200.3671,N,422.2416,E,-1.9,345.1,111223,0.0,E,A*1f
$GPVTG,345.1,T,0.0,M,-1.9,N,-3.6,K*40
$GPGGA,123548.24,5200.3671,N,00422.2416,E,12,12,7.0,1.0,M,0.0,M,0.0,0000*4b
$GPGSA,A,3,01,02,03,04,05,06,07,08,09,10,11,12,7.2,7.0,1.6*34
$GPGSV,3,1,12,01,45,045,50,02,45,045,50,03,45,045,50,04,45,045,50*7c
$GPGSV,3,2,12,05,45,045,50,06,45,045,50,07,45,045,50,08,45,045,50*77
$GPGSV,3,3,12,09,45,045,50,10,45,045,50,11,45,045,50,12,45,045,50*71
$GPRMC,123548.71,A,5200.3683,N,422.2426,E,-1.9,345.1,111223,0.0,E,A*11
$GPVTG,345.1,T,0.0,M,-1.9,N,-3.6,K*40
$GPGGA,123548.71,5200.3683,N,00422.2426,E,12,12,7.0,1.0,M,0.0,M,0.0,0000*45
$GPGSA,A,3,01,02,03,04,05,06,07,08,09,10,11,12,7.2,7.0,1.6*34
$GPGSV,3,1,12,01,45,045,50,02,45,045,50,03,45,045,50,04,45,045,50*7c
$GPGSV,3,2,12,05,45,045,50,06,45,045,50,07,45,045,50,08,45,045,50*77
$GPGSV,3,3,12,09,45,045,50,10,45,045,50,11,45,045,50,12,45,045,50*71
$GPRMC,123600.47,A,5200.3685,N,422.2439,E,-1.9,345.1,111223,0.0,E,A*13
$GPVTG,345.1,T,0.0,M,-1.9,N,-3.6,K*40
$GPGGA,123600.47,5200.3685,N,00422.2439,E,12,12,7.0,1.0,M,0.0,M,0.0,0000*47
$GPGSA,A,3,01,02,03,04,05,06,07,08,09,10,11,12,7.2,7.0,1.5*37
$GPGSV,3,1,12,01,45,045,50,02,45,045,50,03,45,045,50,04,45,045,50*7c
$GPGSV,3,2,12,05,45,045,50,06,45,045,50,07,45,045,50,08,45,045,50*77
$GPGSV,3,3,12,09,45,045,50,10,45,045,50,11,45,045,50,12,45,045,50*71
$GPRMC,123600.91,A,5200.3673,N,422.2415,E,-1.9,345.1,111223,0.0,E,A*1f
$GPVTG,345.1,T,0.0,M,-1.9,N,-3.6,K*40
$GPGGA,123600.91,5200.3673,N,00422.2415,E,12,12,7.0,1.0,M,0.0,M,0.0,0000*4b
$GPGSA,A,3,01,02,03,04,05,06,07,08,09,10,11,12,7.2,7.0,1.5*37
$GPGSV,3,1,12,01,45,045,50,02,45,045,50,03,45,045,50,04,45,045,50*7c
$GPGSV,3,2,12,05,45,045,50,06,45,045,50,07,45,045,50,08,45,045,50*77
$GPGSV,3,3,12,09,45,045,50,10,45,045,50,11,45,045,50,12,45,045,50*71
$GPRMC,123612.47,A,5200.3676,N,422.2429,E,-1.9,345.1,111223,0.0,E,A*1d
$GPVTG,345.1,T,0.0,M,-1.9,N,-3.6,K*40
$GPGGA,123612.47,5200.3676,N,00422.2429,E,12,12,7.0,1.0,M,0.0,M,0.0,0000*49
$GPGSA,A,3,01,02,03,04,05,06,07,08,09,10,11,12,7.1,7.0,1.4*35
$GPGSV,3,1,12,01,45,045,50,02,45,045,50,03,45,045,50,04,45,045,50*7c
$GPGSV,3,2,12,05,45,045,50,06,45,045,50,07,45,045,50,08,45,045,50*77
$GPGSV,3,3,12,09,45,045,50,10,45,045,50,11,45,045,50,12,45,045,50*71
$GPRMC,123612.93,A,5200.3673,N,422.2407,E,-1.9,345.1,111223,0.0,E,A*1d
$GPVTG,345.1,T,0.0,M,-1.9,N,-3.6,K*40
$GPGGA,123612.93,5200.3673,N,00422.2407,E,12,12,7.0,1.0,M,0.0,M,0.0,0000*49
$GPGSA,A,3,01,02,03,04,05,06,07,08,09,10,11,12,9.0,8.4,3.3*34
$GPGSV,3,1,12,01,45,045,50,02,45,045,50,03,45,045,50,04,45,045,50*7c
$GPGSV,3,2,12,05,45,045,50,06,45,045,50,07,45,045,50,08,45,045,50*77
$GPGSV,3,3,12,09,45,045,50,10,45,045,50,11,45,045,50,12,45,045,50*71
$GPRMC,123623.68,A,5200.3676,N,422.2427,E,-1.9,357.6,111223,0.0,E,A*18
$GPVTG,357.6,T,0.0,M,-1.9,N,-3.6,K*44
$GPGGA,123623.68,5200.3676,N,00422.2427,E,12,12,8.4,0.9,M,0.0,M,0.0,0000*4b
$GPGSA,A,3,01,02,03,04,05,06,07,08,09,10,11,12,7.6,7.0,2.9*3c
$GPGSV,3,1,12,01,45,045,50,02,45,045,50,03,45,045,50,04,45,045,50*7c
$GPGSV,3,2,12,05,45,045,50,06,45,045,50,07,45,045,50,08,45,045,50*77
$GPGSV,3,3,12,09,45,045,50,10,45,045,50,11,45,045,50,12,45,045,50*71
$GPRMC,123624.15,A,5200.3680,N,422.2414,E,-1.9,357.6,111223,0.0,E,A*1c
$GPVTG,357.6,T,0.0,M,-1.9,N,-3.6,K*44
$GPGGA,123624.15,5200.3680,N,00422.2414,E,12,12,7.0,0.9,M,0.0,M,0.0,0000*44
$GPGSA,A,3,01,02,03,04,05,06,07,08,09,10,11,12,7.5,7.0,2.6*30
$GPGSV,3,1,12,01,45,045,50,02,45,045,50,03,45,045,50,04,45,045,50*7c
$GPGSV,3,2,12,05,45,045,50,06,45,045,50,07,45,045,50,08,45,045,50*77
$GPGSV,3,3,12,09,45,045,50,10,45,045,50,11,45,045,50,12,45,045,50*71
$GPRMC,123635.47,A,5200.3682,N,422.2428,E,-1.9,357.5,111223,0.0,E,A*15
$GPVTG,357.5,T,0.0,M,-1.9,N,-3.6,K*47
$GPGGA,123635.47,5200.3682,N,00422.2428,E,12,12,7.0,1.0,M,0.0,M,0.0,0000*46
$GPGSA,A,3,01,02,03,04,05,06,07,08,09,10,11,12,7.4,7.0,2.4*33
$GPGSV,3,1,12,01,45,045,50,02,45,045,50,03,45,045,50,04,45,045,50*7c
$GPGSV,3,2,12,05,45,045,50,06,45,045,50,07,45,045,50,08,45,045,50*77
$GPGSV,3,3,12,09,45,045,50,10,45,045,50,11,45,045,50,12,45,045,50*71
$GPRMC,123635.94,A,5200.3683,N,422.2416,E,-1.9,353.9,111223,0.0,E,A*1f
$GPVTG,353.9,T,0.0,M,-1.9,N,-3.6,K*4f
$GPGGA,123635.94,5200.3683,N,00422.2416,E,12,12,7.0,0.9,M,0.0,M,0.0,0000*4c
$GPGSA,A,3,01,02,03,04,05,06,07,08,09,10,11,12,8.3,7.6,3.3*3b
$GPGSV,3,1,12,01,45,045,50,02,45,045,50,03,45,045,50,04,45,045,50*7c
$GPGSV,3,2,12,05,45,045,50,06,45,045,50,07,45,045,50,08,45,045,50*77
