$GPGSA,A,3,01,02,03,04,05,06,07,08,09,10,11,12,7.2,7.0,1.7*35
$GPGSV,3,1,12,01,45,045,50,02,45,045,50,03,45,045,50,04,45,045,50*7c
$GPGSV,3,2,12,05,45,045,50,06,45,045,50,07,45,045,50,08,45,045,50*77
$GPGSV,3,3,12,09,45,045,50,10,45,045,50,11,45,045,50,12,45,045,50*71
$GPRMC,120000.73,A,5200.3926,N,422.2698,E,-1.9,132.3,121223,0.0,E,A*1d
$GPVTG,132.3,T,0.0,M,-1.9,N,-3.6,K*40
$GPGGA,120000.73,5200.3926,N,00422.2698,E,12,12,7.0,1.7,M,0.0,M,0.0,0000*4d
$GPGSA,A,3,01,02,03,04,05,06,07,08,09,10,11,12,7.2,7.0,1.6*34
$GPGSV,3,1,12,01,45,045,50,02,45,045,50,03,45,045,50,04,45,045,50*7c
$GPGSV,3,2,12,05,45,045,50,06,45,045,50,07,45,045,50,08,45,045,50*77
$GPGSV,3,3,12,09,45,045,50,10,45,045,50,11,45,045,50,12,45,045,50*71
$GPRMC,120001.15,A,5200.3928,N,422.2700,E,-1.9,132.3,121223,0.0,E,A*12
$GPVTG,132.3,T,0.0,M,-1.9,N,-3.6,K*40
$GPGGA,120001.15,5200.3928,N,00422.2700,E,12,12,7.0,1.7,M,0.0,M,0.0,0000*42
$GPGSA,A,3,01,02,03,04,05,06,07,08,09,10,11,12,8.5,8.1,2.8*3f
$GPGSV,3,1,12,01,45,045,50,02,45,045,50,03,45,045,50,04,45,045,50*7c
$GPGSV,3,2,12,05,45,045,50,06,45,045,50,07,45,045,50,08,45,045,50*77
$GPGSV,3,3,12,09,45,045,50,10,45,045,50,11,45,045,50,12,45,045,50*71
$GPRMC,120012.73,A,5200.3928,N,422.2702,E,-1.9,82.0,121223,0.0,E,A*2b
$GPVTG,82.0,T,0.0,M,-1.9,N,-3.6,K*79
$GPGGA,120012.73,5200.3928,N,00422.2702,E,12,12,8.1,1.7,M,0.0,M,0.0,0000*4c
$GPGSA,A,3,01,02,03,04,05,06,07,08,09,10,11,12,7.5,7.0,2.7*31
$GPGSV,3,1,12,01,45,045,50,02,45,045,50,03,45,045,50,04,45,045,50*7c
$GPGSV,3,2,12,05,45,045,50,06,45,045,50,07,45,045,50,08,45,045,50*77
$GPGSV,3,3,12,09,45,045,50,10,45,045,50,11,45,045,50,12,45,045,50*71
$GPRMC,120013.17,A,5200.3935,N,422.2711,E,-1.9,82.0,121223,0.0,E,A*26
$GPVTG,82.0,T,0.0,M,-1.9,N,-3.6,K*79
$GPGGA,120013.17,5200.3935,N,00422.2711,E,12,12,7.0,1.7,M,0.0,M,0.0,0000*4f
$GPGSA,A,3,01,02,03,04,05,06,07,08,09,10,11,12,8.2,7.6,3.2*3b
$GPGSV,3,1,12,01,45,045,50,02,45,045,50,03,45,045,50,04,45,045,50*7c
$GPGSV,3,2,12,05,45,045,50,06,45,045,50,07,45,045,50,08,45,045,50*77
$GPGSV,3,3,12,09,45,045,50,10,45,045,50,11,45,045,50,12,45,045,50*71
$GPRMC,120024.72,A,5200.3933,N,422.2710,E,-1.9,82.0,121223,0.0,E,A*26
$GPVTG,82.0,T,0.0,M,-1.9,N,-3.6,K*79
$GPGGA,120024.72,5200.3933,N,00422.2710,E,12,12,7.6,1.7,M,0.0,M,0.0,0000*49
$GPGSA,A,3,01,02,03,04,05,06,07,08,09,10,11,12,7.5,7.0,2.8*3e
$GPGSV,3,1,12,01,45,045,50,02,45,045,50,03,45,045,50,04,45,045,50*7c
$GPGSV,3,2,12,05,45,045,50,06,45,045,50,07,45,045,50,08,45,045,50*77
$GPGSV,3,3,12,09,45,045,50,10,45,045,50,11,45,045,50,12,45,045,50*71
$GPRMC,120025.17,A,5200.3935,N,422.2710,E,-1.9,82.0,121223,0.0,E,A*22
$GPVTG,82.0,T,0.0,M,-1.9,N,-3.6,K*79
$GPGGA,120025.17,5200.3935,N,00422.2710,E,12,12,7.0,1.7,M,0.0,M,0.0,0000*4b
$GPGSA,A,3,01,02,03,04,05,06,07,08,09,10,11,12,7.4,7.0,2.5*32
$GPGSV,3,1,12,01,45,045,50,02,45,045,50,03,45,045,50,04,45,045,50*7c
$GPGSV,3,2,12,05,45,045,50,06,45,045,50,07,45,045,50,08,45,045,50*77
$GPGSV,3,3,12,09,45,045,50,10,45,045,50,11,45,045,50,12,45,045,50*71
$GPRMC,120036.72,A,5200.3933,N,422.2708,E,-1.9,82.0,121223,0.0,E,A*2c
$GPVTG,82.0,T,0.0,M,-1.9,N,-3.6,K*79
$GPGGA,120036.72,5200.3933,N,00422.2708,E,12,12,7.0,1.7,M,0.0,M,0.0,0000*45
$GPGSA,A,3,01,02,03,04,05,06,07,08,09,10,11,12,7.4,7.0,2.3*34
$GPGSV,3,1,12,01,45,045,50,02,45,045,50,03,45,045,50,04,45,045,50*7c
$GPGSV,3,2,12,05,45,045,50,06,45,045,50,07,45,045,50,08,45,045,50*77
$GPGSV,3,3,12,09,45,045,50,10,45,045,50,11,45,045,50,12,45,045,50*71
$GPRMC,120037.17,A,5200.3933,N,422.2712,E,-1.9,82.0,121223,0.0,E,A*25
$GPVTG,82.0,T,0.0,M,-1.9,N,-3.6,K*79
$GPGGA,120037.17,5200.3933,N,00422.2712,E,12,12,7.0,1.7,M,0.0,M,0.0,0000*4c
$GPGSA,A,3,01,02,03,04,05,06,07,08,09,10,11,12,7.3,7.0,2.2*32
$GPGSV,3,1,12,01,45,045,50,02,45,045,50,03,45,045,50,04,45,045,50*7c
$GPGSV,3,2,12,05,45,045,50,06,45,045,50,07,45,045,50,08,45,045,50*77
$GPGSV,3,3,12,09,45,045,50,10,45,045,50,11,45,045,50,12,45,045,50*71
$GPRMC,120048.72,A,5200.3931,N,422.2710,E,-1.9,82.0,121223,0.0,E,A*2e
$GPVTG,82.0,T,0.0,M,-1.9,N,-3.6,K*79
$GPGGA,120048.72,5200.3931,N,00422.2710,E,12,12,7.0,1.7,M,0.0,M,0.0,0000*47
$GPGSA,A,3,01,02,03,04,05,06,07,08,09,10,11,12,7.3,7.0,2.1*31
$GPGSV,3,1,12,01,45,045,50,02,45,045,50,03,45,045,50,04,45,045,50*7c
$GPGSV,3,2,12,05,45,045,50,06,45,045,50,07,45,045,50,08,45,045,50*77
$GPGSV,3,3,12,09,45,045,50,10,45,045,50,11,45,045,50,12,45,045,50*71
$GPRMC,120049.18,A,5200.3927,N,422.2701,E,-1.9,82.0,121223,0.0,E,A*24
$GPVTG,82.0,T,0.0,M,-1.9,N,-3.6,K*79
$GPGGA,120049.18,5200.3927,N,00422.2701,E,12,12,7.0,1.7,M,0.0,M,0.0,0000*4d
$GPGSA,A,3,01,02,03,04,05,06,07,08,09,10,11,12,10.9,10.3,3.5*3d
$GPGSV,3,1,12,01,45,045,50,02,45,045,50,03,45,045,50,04,45,045,50*7c
$GPGSV,3,2,12,05,45,045,50,06,45,045,50,07,45,045,50,08,45,045,50*77
$GPGSV,3,3,12,09,45,045,50,10,45,045,50,11,45,045,50,12,45,045,50*71
$GPRMC,120100.72,A,5200.3927,N,422.2704,E,-1.9,128.4,121223,0.0,E,A*14
$GPVTG,128.4,T,0.0,M,-1.9,N,-3.6,K*4c
$GPGGA,120100.72,5200.3927,N,00422.2704,E,12,12,10.3,1.7,M,0.0,M,0.0,0000*7d
$GPGSA,A,3,01,02,03,04,05,06,07,08,09,10,11,12,10.7,10.3,3.1*37
$GPGSV,3,1,12,01,45,045,50,02,45,045,50,03,45,045,50,04,45,045,50*7c
$GPGSV,3,2,12,05,45,045,50,06,45,045,50,07,45,045,50,08,45,045,50*77
$GPGSV,3,3,12,09,45,045,50,10,45,045,50,11,45,045,50,12,45,045,50*71
$GPRMC,120100.95,A,5200.3927,N,422.2705,E,-1.9,128.4,121223,0.0,E,A*1c
$GPVTG,128.4,T,0.0,M,-1.9,N,-3.6,K*4c
$GPGGA,120100.95,5200.3927,N,00422.2705,E,12,12,10.3,1.6,M,0.0,M,0.0,0000*74
$GPGSA,A,3,01,02,03,04,05,06,07,08,09,10,11,12,10.6,10.3,2.8*3e
$GPGSV,3,1,12,01,45,045,50,02,45,045,50,03,45,045,50,04,45,045,50*7c
$GPGSV,3,2,12,05,45,045,50,06,45,045,50,07,45,045,50,08,45,045,50*77
$GPGSV,3,3,12,09,45,045,50,10,45,045,50,11,45,045,50,12,45,045,50*71
$GPRMC,120101.18,A,5200.3928,N,422.2705,E,-1.9,128.4,121223,0.0,E,A*17
$GPVTG,128.4,T,0.0,M,-1.9,N,-3.6,K*4c
$GPGGA,120101.18,5200.3928,N,00422.2705,E,12,12,10.3,1.6,M,0.0,M,0.0,0000*7f
$GPGSA,A,3,01,02,03,04,05,06,07,08,09,10,11,12,10.6,10.3,2.5*33
$GPGSV,3,1,12,01,45,045,50,02,45,045,50,03,45,045,50,04,45,045,50*7c
$GPGSV,3,2,12,05,45,045,50,06,45,045,50,07,45,045,50,08,45,045,50*77
$GPGSV,3,3,12,09,45,045,50,10,45,045,50,11,45,045,50,12,45,045,50*71
$GPRMC,120112.72,A,5200.3928,N,422.2705,E,-1.9,128.4,121223,0.0,E,A*19
$GPVTG,128.4,T,0.0,M,-1.9,N,-3.6,K*4c
$GPGGA,120112.72,5200.3928,N,00422.2705,E,12,12,10.3,1.6,M,0.0,M,0.0,0000*71
$GPGSA,A,3,01,02,03,04,05,06,07,08,09,10,11,12,10.5,10.3,2.3*36
$GPGSV,3,1,12,01,45,045,50,02,45,045,50,03,45,045,50,04,45,045,50*7c
$GPGSV,3,2,12,05,45,045,50,06,45,045,50,07,45,045,50,08,45,045,50*77
$GPGSV,3,3,12,09,45,045,50,10,45,045,50,11,45,045,50,12,45,045,50*71
$GPRMC,120113.16,A,5200.3928,N,422.2705,E,-1.9,128.4,121223,0.0,E,A*1a
$GPVTG,128.4,T,0.0,M,-1.9,N,-3.6,K*4c
$GPGGA,120113.16,5200.3928,N,00422.2705,E,12,12,10.3,1.6,M,0.0,M,0.0,0000*72
$GPGSA,A,3,01,02,03,04,05,06,07,08,09,10,11,12,10.5,10.3,2.2*37
$GPGSV,3,1,12,01,45,045,50,02,45,045,50,03,45,045,50,04,45,045,50*7c
$GPGSV,3,2,12,05,45,045,50,06,45,045,50,07,45,045,50,08,45,045,50*77
$GPGSV,3,3,12,09,45,045,50,10,45,045,50,11,45,045,50,12,45,045,50*71
$GPRMC,120124.72,A,5200.3928,N,422.2705,E,-1.9,128.4,121223,0.0,E,A*1c
$GPVTG,128.4,T,0.0,M,-1.9,N,-3.6,K*4c
$GPGGA,120124.72,5200.3928,N,00422.2705,E,12,12,10.3,1.6,M,0.0,M,0.0,0000*74
$GPGSA,A,3,01,02,03,04,05,06,07,08,09,10,11,12,7.3,7.0,2.0*30
$GPGSV,3,1,12,01,45,045,50,02,45,045,50,03,45,045,50,04,45,045,50*7c
$GPGSV,3,2,12,05,45,045,50,06,45,045,50,07,45,045,50,08,45,045,50*77
$GPGSV,3,3,12,09,45,045,50,10,45,045,50,11,45,045,50,12,45,045,50*71
$GPRMC,120125.16,A,5200.3941,N,422.2730,E,-1.9,128.4,121223,0.0,E,A*16
$GPVTG,128.4,T,0.0,M,-1.9,N,-3.6,K*4c
$GPGGA,120125.16,5200.3941,N,00422.2730,E,12,12,7.0,1.6,M,0.0,M,0.0,0000*4b
$GPGSA,A,3,01,02,03,04,05,06,07,08,09,10,11,12,7.3,7.0,1.9*3a
$GPGSV,3,1,12,01,45,045,50,02,45,045,50,03,45,045,50,04,45,045,50*7c
$GPGSV,3,2,12,05,45,045,50,06,45,045,50,07,45,045,50,08,45,045,50*77
$GPGSV,3,3,12,09,45,045,50,10,45,045,50,11,45,045,50,12,45,045,50*71
$GPRMC,120136.73,A,5200.3937,N,422.2722,E,-1.9,128.4,121223,0.0,E,A*15
$GPVTG,128.4,T,0.0,M,-1.9,N,-3.6,K*4c
$GPGGA,120136.73,5200.3937,N,00422.2722,E,12,12,7.0,1.6,M,0.0,M,0.0,0000*48
$GPGSA,A,3,01,02,03,04,05,06,07,08,09,10,11,12,7.2,7.0,1.8*3a
$GPGSV,3,1,12,01,45,045,50,02,45,045,50,03,45,045,50,04,45,045,50*7c
$GPGSV,3,2,12,05,45,045,50,06,45,045,50,07,45,045,50,08,45,045,50*77
$GPGSV,3,3,12,09,45,045,50,10,45,045,50,11,45,045,50,12,45,045,50*71
$GPRMC,120137.14,A,5200.3934,N,422.2717,E,-1.9,128.4,121223,0.0,E,A*10
$GPVTG,128.4,T,0.0,M,-1.9,N,-3.6,K*4c
$GPGGA,120137.14,5200.3934,N,00422.2717,E,12,12,7.0,1.6,M,0.0,M,0.0,0000*4d
$GPGSA,A,3,01,02,03,04,05,06,07,08,09,10,11,12,7.2,7.0,1.8*3a
$GPGSV,3,1,12,01,45,045,50,02,45,045,50,03,45,045,50,04,45,045,50*7c
$GPGSV,3,2,12,05,45,045,50,06,45,045,50,07,45,045,50,08,45,045,50*77
$GPGSV,3,3,12,09,45,045,50,10,45,045,50,11,45,045,50,12,45,045,50*71
$GPRMC,120148.73,A,5200.3932,N,422.2713,E,-1.9,128.4,121223,0.0,E,A*1b
$GPVTG,128.4,T,0.0,M,-1.9,N,-3.6,K*4c
$GPGGA,120148.73,5200.3932,N,00422.2713,E,12,12,7.0,1.6,M,0.0,M,0.0,0000*46
$GPGSA,A,3,01,02,03,04,05,06,07,08,09,10,11,12,7.2,7.0,1.7*35
$GPGSV,3,1,12,01,45,045,50,02,45,045,50,03,45,045,50,04,45,045,50*7c
$GPGSV,3,2,12,05,45,045,50,06,45,045,50,07,45,045,50,08,45,045,50*77
$GPGSV,3,3,12,09,45,045,50,10,45,045,50,11,45,045,50,12,45,045,50*71
$GPRMC,120149.16,A,5200.3950,N,422.2743,E,-1.9,128.4,121223,0.0,E,A*18
$GPVTG,128.4,T,0.0,M,-1.9,N,-3.6,K*4c
$GPGGA,120149.16,5200.3950,N,00422.2743,E,12,12,7.0,1.6,M,0.0,M,0.0,0000*45
$GPGSA,A,3,01,02,03,04,05,06,07,08,09,10,11,12,7.2,7.0,1.6*34
$GPGSV,3,1,12,01,45,045,50,02,45,045,50,03,45,045,50,04,45,045,50*7c
$GPGSV,3,2,12,05,45,045,50,06,45,045,50,07,45,045,50,08,45,045,50*77
$GPGSV,3,3,12,09,45,045,50,10,45,045,50,11,45,045,50,12,45,045,50*71
$GPRMC,120200.72,A,5200.3943,N,422.2731,E,-1.9,128.4,121223,0.0,E,A*13
$GPVTG,128.4,T,0.0,M,-1.9,N,-3.6,K*4c
$GPGGA,120200.72,5200.3943,N,00422.2731,E,12,12,7.0,1.6,M,0.0,M,0.0,0000*4e
$GPGSA,A,3,01,02,03,04,05,06,07,08,09,10,11,12,7.2,7.0,1.6*34
$GPGSV,3,1,12,01,45,045,50,02,45,045,50,03,45,045,50,04,45,045,50*7c
$GPGSV,3,2,12,05,45,045,50,06,45,045,50,07,45,045,50,08,45,045,50*77
$GPGSV,3,3,12,09,45,045,50,10,45,045,50,11,45,045,50,12,45,045,50*71
$GPRMC,120201.14,A,5200.3916,N,422.2685,E,-1.9,128.4,121223,0.0,E,A*1c
$GPVTG,128.4,T,0.0,M,-1.9,N,-3.6,K*4c
$GPGGA,120201.14,5200.3916,N,00422.2685,E,12,12,7.0,1.6,M,0.0,M,0.0,0000*41
$GPGSA,A,3,01,02,03,04,05,06,07,08,09,10,11,12,7.2,7.0,1.5*37
$GPGSV,3,1,12,01,45,045,50,02,45,045,50,03,45,045,50,04,45,045,50*7c
$GPGSV,3,2,12,05,45,045,50,06,45,045,50,07,45,045,50,08,45,045,50*77
$GPGSV,3,3,12,09,45,045,50,10,45,045,50,11,45,045,50,12,45,045,50*71
$GPRMC,120212.73,A,5200.3920,N,422.2691,E,-1.9,128.4,121223,0.0,E,A*1f
$GPVTG,128.4,T,0.0,M,-1.9,N,-3.6,K*4c
$GPGGA,120212.73,5200.3920,N,00422.2691,E,12,12,7.0,1.6,M,0.0,M,0.0,0000*42
$GPGSA,A,3,01,02,03,04,05,06,07,08,09,10,11,12,7.2,7.0,1.5*37
$GPGSV,3,1,12,01,45,045,50,02,45,045,50,03,45,045,50,04,45,045,50*7c
$GPGSV,3,2,12,05,45,045,50,06,45,045,50,07,45,045,50,08,45,045,50*77
$GPGSV,3,3,12,09,45,045,50,10,45,045,50,11,45,045,50,12,45,045,50*71
$GPRMC,120213.17,A,5200.3929,N,422.2704,E,-1.9,128.4,121223,0.0,E,A*18
$GPVTG,128.4,T,0.0,M,-1.9,N,-3.6,K*4c
$GPGGA,120213.17,5200.3929,N,00422.2704,E,12,12,7.0,1.6,M,0.0,M,0.0,0000*45
$GPGSA,A,3,01,02,03,04,05,06,07,08,09,10,11,12,7.1,7.0,1.4*35
$GPGSV,3,1,12,01,45,045,50,02,45,045,50,03,45,045,50,04,45,045,50*7c
$GPGSV,3,2,12,05,45,045,50,06,45,045,50,07,45,045,50,08,45,045,50*77
$GPGSV,3,3,12,09,45,045,50,10,45,045,50,11,45,045,50,12,45,045,50*71
$GPRMC,120224.72,A,5200.3929,N,422.2705,E,-1.9,128.4,121223,0.0,E,A*1e
$GPVTG,128.4,T,0.0,M,-1.9,N,-3.6,K*4c
$GPGGA,120224.72,5200.3929,N,00422.2705,E,12,12,7.0,1.6,M,0.0,M,0.0,0000*43
$GPGSA,A,3,01,02,03,04,05,06,07,08,09,10,11,12,7.1,7.0,1.4*35
$GPGSV,3,1,12,01,45,045,50,02,45,045,50,03,45,045,50,04,45,045,50*7c
$GPGSV,3,2,12,05,45,045,50,06,45,045,50,07,45,045,50,08,45,045,50*77
$GPGSV,3,3,12,09,45,045,50,10,45,045,50,11,45,045,50,12,45,045,50*71
$GPRMC,120225.16,A,5200.3947,N,422.2733,E,-1.9,128.4,121223,0.0,E,A*10
$GPVTG,128.4,T,0.0,M,-1.9,N,-3.6,K*4c
$GPGGA,120225.16,5200.3947,N,00422.2733,E,12,12,7.0,1.6,M,0.0,M,0.0,0000*4d
$GPGSA,A,3,01,02,03,04,05,06,07,08,09,10,11,12,7.1,7.0,1.4*35
$GPGSV,3,1,12,01,45,045,50,02,45,045,50,03,45,045,50,04,45,045,50*7c
$GPGSV,3,2,12,05,45,045,50,06,45,045,50,07,45,045,50,08,45,045,50*77
$GPGSV,3,3,12,09,45,045,50,10,45,045,50,11,45,045,50,12,45,045,50*71
$GPRMC,120236.95,A,5200.3941,N,422.2724,E,-1.9,128.4,121223,0.0,E,A*19
$GPVTG,128.4,T,0.0,M,-1.9,N,-3.6,K*4c
$GPGGA,120236.95,5200.3941,N,00422.2724,E,12,12,7.0,1.6,M,0.0,M,0.0,0000*44
$GPGSA,A,3,01,02,03,04,05,06,07,08,09,10,11,12,7.1,7.0,1.3*32
$GPGSV,3,1,12,01,45,045,50,02,45,045,50,03,45,045,50,04,45,045,50*7c
$GPGSV,3,2,12,05,45,045,50,06,45,045,50,07,45,045,50,08,45,045,50*77
$GPGSV,3,3,12,09,45,045,50,10,45,045,50,11,45,045,50,12,45,045,50*71
$GPRMC,120237.38,A,5200.3935,N,422.2716,E,-1.9,128.4,121223,0.0,E,A*1d
$GPVTG,128.4,T,0.0,M,-1.9,N,-3.6,K*4c
$GPGGA,120237.38,5200.3935,N,00422.2716,E,12,12,7.0,1.6,M,0.0,M,0.0,0000*40
$GPGSA,A,3,01,02,03,04,05,06,07,08,09,10,11,12,7.1,7.0,1.3*32
$GPGSV,3,1,12,01,45,045,50,02,45,045,50,03,45,045,50,04,45,045,50*7c
$GPGSV,3,2,12,05,45,045,50,06,45,045,50,07,45,045,50,08,45,045,50*77
$GPGSV,3,3,12,09,45,045,50,10,45,045,50,11,45,045,50,12,45,045,50*71
$GPRMC,120248.95,A,5200.3933,N,422.2713,E,-1.9,128.4,121223,0.0,E,A*11
$GPVTG,128.4,T,0.0,M,-1.9,N,-3.6,K*4c
$GPGGA,120248.95,5200.3933,N,00422.2713,E,12,12,7.0,1.6,M,0.0,M,0.0,0000*4c
$GPGSA,A,3,01,02,03,04,05,06,07,08,09,10,11,12,7.1,7.0,1.3*32
$GPGSV,3,1,12,01,45,045,50,02,45,045,50,03,45,045,50,04,45,045,50*7c
$GPGSV,3,2,12,05,45,045,50,06,45,045,50,07,45,045,50,08,45,045,50*77
$GPGSV,3,3,12,09,45,045,50,10,45,045,50,11,45,045,50,12,45,045,50*71
$GPRMC,120249.39,A,5200.3934,N,422.2711,E,-1.9,128.4,121223,0.0,E,A*13
$GPVTG,128.4,T,0.0,M,-1.9,N,-3.6,K*4c
$GPGGA,120249.39,5200.3934,N,00422.2711,E,12,12,7.0,1.6,M,0.0,M,0.0,0000*4e
$GPGSA,A,3,01,02,03,04,05,06,07,08,09,10,11,12,7.1,7.0,1.2*33
$GPGSV,3,1,12,01,45,045,50,02,45,045,50,03,45,045,50,04,45,045,50*7c
$GPGSV,3,2,12,05,45,045,50,06,45,045,50,07,45,045,50,08,45,045,50*77
$GPGSV,3,3,12,09,45,045,50,10,45,045,50,11,45,045,50,12,45,045,50*71
$GPRMC,120300.95,A,5200.3932,N,422.2709,E,-1.9,128.4,121223,0.0,E,A*16
$GPVTG,128.4,T,0.0,M,-1.9,N,-3.6,K*4c
$GPGGA,120300.95,5200.3932,N,00422.2709,E,12,12,7.0,1.6,M,0.0,M,0.0,0000*4b
$GPGSA,A,3,01,02,03,04,05,06,07,08,09,10,11,12,7.1,7.0,1.2*33
$GPGSV,3,1,12,01,45,045,50,02,45,045,50,03,45,045,50,04,45,045,50*7c
$GPGSV,3,2,12,05,45,045,50,06,45,045,50,07,45,045,50,08,45,045,50*77
$GPGSV,3,3,12,09,45,045,50,10,45,045,50,11,45,045,50,12,45,045,50*71
$GPRMC,120301.38,A,5200.3940,N,422.2725,E,-1.9,128.4,121223,0.0,E,A*1b
$GPVTG,128.4,T,0.0,M,-1.9,N,-3.6,K*4c
$GPGGA,120301.38,5200.3940,N,00422.2725,E,12,12,7.0,1.6,M,0.0,M,0.0,0000*46
$GPGSA,A,3,01,02,03,04,05,06,07,08,09,10,11,12,7.1,7.0,1.2*33
$GPGSV,3,1,12,01,45,045,50,02,45,045,50,03,45,045,50,04,45,045,50*7c
$GPGSV,3,2,12,05,45,045,50,06,45,045,50,07,45,045,50,08,45,045,50*77
$GPGSV,3,3,12,09,45,045,50,10,45,045,50,11,45,045,50,12,45,045,50*71
$GPRMC,120312.95,A,5200.3936,N,422.2719,E,-1.9,128.4,121223,0.0,E,A*10
$GPVTG,128.4,T,0.0,M,-1.9,N,-3.6,K*4c
$GPGGA,120312.95,5200.3936,N,00422.2719,E,12,12,7.0,1.6,M,0.0,M,0.0,0000*4d
$GPGSA,A,3,01,02,03,04,05,06,07,08,09,10,11,12,7.1,7.0,1.2*33
$GPGSV,3,1,12,01,45,045,50,02,45,045,50,03,45,045,50,04,45,045,50*7c
$GPGSV,3,2,12,05,45,045,50,06,45,045,50,07,45,045,50,08,45,045,50*77
$GPGSV,3,3,12,09,45,045,50,10,45,045,50,11,45,045,50,12,45,045,50*71
$GPRMC,120313.38,A,5200.3942,N,422.2729,E,-1.9,128.4,121223,0.0,E,A*16
$GPVTG,128.4,T,0.0,M,-1.9,N,-3.6,K*4c
$GPGGA,120313.38,5200.3942,N,00422.2729,E,12,12,7.0,1.6,M,0.0,M,0.0,0000*4b
$GPGSA,A,3,01,02,03,04,05,06,07,08,09,10,11,12,7.1,7.0,1.1*30
$GPGSV,3,1,12,01,45,045,50,02,45,045,50,03,45,045,50,04,45,045,50*7c
$GPGSV,3,2,12,05,45,045,50,06,45,045,50,07,45,045,50,08,45,045,50*77
$GPGSV,3,3,12,09,45,045,50,10,45,045,50,11,45,045,50,12,45,045,50*71
$GPRMC,120324.95,A,5200.3938,N,422.2722,E,-1.9,128.4,121223,0.0,E,A*13
$GPVTG,128.4,T,0.0,M,-1.9,N,-3.6,K*4c
$GPGGA,120324.95,5200.3938,N,00422.2722,E,12,12,7.0,1.6,M,0.0,M,0.0,0000*4e
$GPGSA,A,3,01,02,03,04,05,06,07,08,09,10,11,12,7.1,7.0,1.1*30
$GPGSV,3,1,12,01,45,045,50,02,45,045,50,03,45,045,50,04,45,045,50*7c
$GPGSV,3,2,12,05,45,045,50,06,45,045,50,07,45,045,50,08,45,045,50*77
$GPGSV,3,3,12,09,45,045,50,10,45,045,50,11,45,045,50,12,45,045,50*71
$GPRMC,120325.39,A,5200.3935,N,422.2717,E,-1.9,128.4,121223,0.0,E,A*1f
$GPVTG,128.4,T,0.0,M,-1.9,N,-3.6,K*4c
$GPGGA,120325.39,5200.3935,N,00422.2717,E,12,12,7.0,1.6,M,0.0,M,0.0,0000*42
$GPGSA,A,3,01,02,03,04,05,06,07,08,09,10,11,12,7.1,7.0,1.1*30
$GPGSV,3,1,12,01,45,045,50,02,45,045,50,03,45,045,50,04,45,045,50*7c
$GPGSV,3,2,12,05,45,045,50,06,45,045,50,07,45,045,50,08,45,045,50*77
$GPGSV,3,3,12,09,45,045,50,10,45,045,50,11,45,045,50,12,45,045,50*71
$GPRMC,120336.95,A,5200.3932,N,422.2713,E,-1.9,128.4,121223,0.0,E,A*18
$GPVTG,128.4,T,0.0,M,-1.9,N,-3.6,K*4c
$GPGGA,120336.95,5200.3932,N,00422.2713,E,12,12,7.0,1.6,M,0.0,M,0.0,0000*45
$GPGSA,A,3,01,02,03,04,05,06,07,08,09,10,11,12,7.1,7.0,1.1*30
$GPGSV,3,1,12,01,45,045,50,02,45,045,50,03,45,045,50,04,45,045,50*7c
$GPGSV,3,2,12,05,45,045,50,06,45,045,50,07,45,045,50,08,45,045,50*77
$GPGSV,3,3,12,09,45,045,50,10,45,045,50,11,45,045,50,12,45,045,50*71
$GPRMC,120337.38,A,5200.3934,N,422.2712,E,-1.9,128.4,121223,0.0,E,A*19
$GPVTG,128.4,T,0.0,M,-1.9,N,-3.6,K*4c
$GPGGA,120337.38,5200.3934,N,00422.2712,E,12,12,7.0,1.6,M,0.0,M,0.0,0000*44
$GPGSA,A,3,01,02,03,04,05,06,07,08,09,10,11,12,7.1,7.0,1.1*30
$GPGSV,3,1,12,01,45,045,50,02,45,045,50,03,45,045,50,04,45,045,50*7c
$GPGSV,3,2,12,05,45,045,50,06,45,045,50,07,45,045,50,08,45,045,50*77
$GPGSV,3,3,12,09,45,045,50,10,45,045,50,11,45,045,50,12,45,045,50*71
$GPRMC,120348.95,A,5200.3932,N,422.2710,E,-1.9,128.4,121223,0.0,E,A*12
$GPVTG,128.4,T,0.0,M,-1.9,N,-3.6,K*4c
$GPGGA,120348.95,5200.3932,N,00422.2710,E,12,12,7.0,1.6,M,0.0,M,0.0,0000*4f
$GPGSA,A,3,01,02,03,04,05,06,07,08,09,10,11,12,7.1,7.0,1.0*31
$GPGSV,3,1,12,01,45,045,50,02,45,045,50,03,45,045,50,04,45,045,50*7c
$GPGSV,3,2,12,05,45,045,50,06,45,045,50,07,45,045,50,08,45,045,50*77
$GPGSV,3,3,12,09,45,045,50,10,45,045,50,11,45,045,50,12,45,045,50*71
$GPRMC,120349.38,A,5200.3929,N,422.2705,E,-1.9,128.4,121223,0.0,E,A*1a
$GPVTG,128.4,T,0.0,M,-1.9,N,-3.6,K*4c
$GPGGA,120349.38,5200.3929,N,00422.2705,E,12,12,7.0,1.6,M,0.0,M,0.0,0000*47
$GPGSA,A,3,01,02,03,04,05,06,07,08,09,10,11,12,7.1,7.0,1.0*31
$GPGSV,3,1,12,01,45,045,50,02,45,045,50,03,45,045,50,04,45,045,50*7c
$GPGSV,3,2,12,05,45,045,50,06,45,045,50,07,45,045,50,08,45,045,50*77
$GPGSV,3,3,12,09,45,045,50,10,45,045,50,11,45,045,50,12,45,045,50*71
$GPRMC,120400.95,A,5200.3928,N,422.2705,E,-1.9,128.4,121223,0.0,E,A*16
$GPVTG,128.4,T,0.0,M,-1.9,N,-3.6,K*4c
$GPGGA,120400.95,5200.3928,N,00422.2705,E,12,12,7.0,1.6,M,0.0,M,0.0,0000*4b
$GPGSA,A,3,01,02,03,04,05,06,07,08,09,10,11,12,7.1,7.0,1.0*31
$GPGSV,3,1,12,01,45,045,50,02,45,045,50,03,45,045,50,04,45,045,50*7c
$GPGSV,3,2,12,05,45,045,50,06,45,045,50,07,45,045,50,08,45,045,50*77
$GPGSV,3,3,12,09,45,045,50,10,45,045,50,11,45,045,50,12,45,045,50*71
$GPRMC,120406.98,A,5200.3928,N,422.2705,E,-1.9,128.4,121223,0.0,E,A*1d
$GPVTG,128.4,T,0.0,M,-1.9,N,-3.6,K*4c
$GPGGA,120406.98,5200.3928,N,00422.2705,E,12,12,7.0,1.6,M,0.0,M,0.0,0000*40
$GPGSA,A,3,01,02,03,04,05,06,07,08,09,10,11,12,7.1,7.0,1.0*31
$GPGSV,3,1,12,01,45,045,50,02,45,045,50,03,45,045,50,04,45,045,50*7c
$GPGSV,3,2,12,05,45,045,50,06,45,045,50,07,45,045,50,08,45,045,50*77
$GPGSV,3,3,12,09,45,045,50,10,45,045,50,11,45,045,50,12,45,045,50*71
$GPRMC,120407.43,A,5200.3935,N,422.2717,E,-1.9,128.4,121223,0.0,E,A*15
$GPVTG,128.4,T,0.0,M,-1.9,N,-3.6,K*4c
$GPGGA,120407.43,5200.3935,N,00422.2717,E,12,12,7.0,1.6,M,0.0,M,0.0,0000*48
$GPGSA,A,3,01,02,03,04,05,06,07,08,09,10,11,12,7.1,7.0,1.0*31
$GPGSV,3,1,12,01,45,045,50,02,45,045,50,03,45,045,50,04,45,045,50*7c
$GPGSV,3,2,12,05,45,045,50,06,45,045,50,07,45,045,50,08,45,045,50*77
$GPGSV,3,3,12,09,45,045,50,10,45,045,50,11,45,045,50,12,45,045,50*71
$GPRMC,120418.95,A,5200.3932,N,422.2713,E,-1.9,128.4,121223,0.0,E,A*13
$GPVTG,128.4,T,0.0,M,-1.9,N,-3.6,K*4c
$GPGGA,120418.95,5200.3932,N,00422.2713,E,12,12,7.0,1.6,M,0.0,M,0.0,0000*4e
$GPGSA,A,3,01,02,03,04,05,06,07,08,09,10,11,12,7.1,7.0,1.0*31
$GPGSV,3,1,12,01,45,045,50,02,45,045,50,03,45,045,50,04,45,045,50*7c
$GPGSV,3,2,12,05,45,045,50,06,45,045,50,07,45,045,50,08,45,045,50*77
$GPGSV,3,3,12,09,45,045,50,10,45,045,50,11,45,045,50,12,45,045,50*71
$GPRMC,120419.37,A,5200.3921,N,422.2693,E,-1.9,128.4,121223,0.0,E,A*11
$GPVTG,128.4,T,0.0,M,-1.9,N,-3.6,K*4c
$GPGGA,120419.37,5200.3921,N,00422.2693,E,12,12,7.0,1.6,M,0.0,M,0.0,0000*4c
$GPGSA,A,3,01,02,03,04,05,06,07,08,09,10,11,12,7.1,7.0,1.0*31
$GPGSV,3,1,12,01,45,045,50,02,45,045,50,03,45,045,50,04,45,045,50*7c
$GPGSV,3,2,12,05,45,045,50,06,45,045,50,07,45,045,50,08,45,045,50*77
$GPGSV,3,3,12,09,45,045,50,10,45,045,50,11,45,045,50,12,45,045,50*71
$GPRMC,120430.95,A,5200.3923,N,422.2697,E,-1.9,128.4,121223,0.0,E,A*14
$GPVTG,128.4,T,0.0,M,-1.9,N,-3.6,K*4c
$GPGGA,120430.95,5200.3923,N,00422.2697,E,12,12,7.0,1.6,M,0.0,M,0.0,0000*49
$GPGSA,A,3,01,02,03,04,05,06,07,08,09,10,11,12,7.1,7.0,1.0*31
$GPGSV,3,1,12,01,45,045,50,02,45,045,50,03,45,045,50,04,45,045,50*7c
$GPGSV,3,2,12,05,45,045,50,06,45,045,50,07,45,045,50,08,45,045,50*77
$GPGSV,3,3,12,09,45,045,50,10,45,045,50,11,45,045,50,12,45,045,50*71
$GPRMC,120431.38,A,5200.3938,N,422.2723,E,-1.9,128.4,121223,0.0,E,A*16
$GPVTG,128.4,T,0.0,M,-1.9,N,-3.6,K*4c
$GPGGA,120431.38,5200.3938,N,00422.2723,E,12,12,7.0,1.6,M,0.0,M,0.0,0000*4b
$GPGSA,A,3,01,02,03,04,05,06,07,08,09,10,11,12,7.1,7.0,0.9*39
$GPGSV,3,1,12,01,45,045,50,02,45,045,50,03,45,045,50,04,45,045,50*7c
$GPGSV,3,2,12,05,45,045,50,06,45,045,50,07,45,045,50,08,45,045,50*77
$GPGSV,3,3,12,09,45,045,50,10,45,045,50,11,45,045,50,12,45,045,50*71
$GPRMC,120442.95,A,5200.3935,N,422.2717,E,-1.9,128.4,121223,0.0,E,A*1f
$GPVTG,128.4,T,0.0,M,-1.9,N,-3.6,K*4c
$GPGGA,120442.95,5200.3935,N,00422.2717,E,12,12,7.0,1.6,M,0.0,M,0.0,0000*42
$GPGSA,A,3,01,02,03,04,05,06,07,08,09,10,11,12,7.1,7.0,0.9*39
$GPGSV,3,1,12,01,45,045,50,02,45,045,50,03,45,045,50,04,45,045,50*7c
$GPGSV,3,2,12,05,45,045,50,06,45,045,50,07,45,045,50,08,45,045,50*77
$GPGSV,3,3,12,09,45,045,50,10,45,045,50,11,45,045,50,12,45,045,50*71
$GPRMC,120443.39,A,5200.3938,N,422.2720,E,-1.9,128.4,121223,0.0,E,A*11
$GPVTG,128.4,T,0.0,M,-1.9,N,-3.6,K*4c
$GPGGA,120443.39,5200.3938,N,00422.2720,E,12,12,7.0,1.6,M,0.0,M,0.0,0000*4c
$GPGSA,A,3,01,02,03,04,05,06,07,08,09,10,11,12,7.1,7.0,0.9*39
$GPGSV,3,1,12,01,45,045,50,02,45,045,50,03,45,045,50,04,45,045,50*7c
$GPGSV,3,2,12,05,45,045,50,06,45,045,50,07,45,045,50,08,45,045,50*77
$GPGSV,3,3,12,09,45,045,50,10,45,045,50,11,45,045,50,12,45,045,50*71
$GPRMC,120454.95,A,5200.3935,N,422.2715,E,-1.9,128.4,121223,0.0,E,A*1a
$GPVTG,128.4,T,0.0,M,-1.9,N,-3.6,K*4c
$GPGGA,120454.95,5200.3935,N,00422.2715,E,12,12,7.0,1.6,M,0.0,M,0.0,0000*47
$GPGSA,A,3,01,02,03,04,05,06,07,08,09,10,11,12,7.1,7.0,0.9*39
$GPGSV,3,1,12,01,45,045,50,02,45,045,50,03,45,045,50,04,45,045,50*7c
$GPGSV,3,2,12,05,45,045,50,06,45,045,50,07,45,045,50,08,45,045,50*77
$GPGSV,3,3,12,09,45,045,50,10,45,045,50,11,45,045,50,12,45,045,50*71
$GPRMC,120455.39,A,5200.3944,N,422.2731,E,-1.9,128.4,121223,0.0,E,A*1d
$GPVTG,128.4,T,0.0,M,-1.9,N,-3.6,K*4c
$GPGGA,120455.39,5200.3944,N,00422.2731,E,12,12,7.0,1.6,M,0.0,M,0.0,0000*40
$GPGSA,A,3,01,02,03,04,05,06,07,08,09,10,11,12,7.1,7.0,0.9*39
$GPGSV,3,1,12,01,45,045,50,02,45,045,50,03,45,045,50,04,45,045,50*7c
$GPGSV,3,2,12,05,45,045,50,06,45,045,50,07,45,045,50,08,45,045,50*77
$GPGSV,3,3,12,09,45,045,50,10,45,045,50,11,45,045,50,12,45,045,50*71
$GPRMC,120506.95,A,5200.3939,N,422.2723,E,-1.9,128.4,121223,0.0,E,A*15
$GPVTG,128.4,T,0.0,M,-1.9,N,-3.6,K*4c
$GPGGA,120506.95,5200.3939,N,00422.2723,E,12,12,7.0,1.6,M,0.0,M,0.0,0000*48
$GPGSA,A,3,01,02,03,04,05,06,07,08,09,10,11,12,7.1,7.0,0.9*39
$GPGSV,3,1,12,01,45,045,50,02,45,045,50,03,45,045,50,04,45,045,50*7c
$GPGSV,3,2,12,05,45,045,50,06,45,045,50,07,45,045,50,08,45,045,50*77
$GPGSV,3,3,12,09,45,045,50,10,45,045,50,11,45,045,50,12,45,045,50*71
$GPRMC,120507.39,A,5200.3935,N,422.2717,E,-1.9,128.4,121223,0.0,E,A*19
$GPVTG,128.4,T,0.0,M,-1.9,N,-3.6,K*4c
$GPGGA,120507.39,5200.3935,N,00422.2717,E,12,12,7.0,1.6,M,0.0,M,0.0,0000*44
$GPGSA,A,3,01,02,03,04,05,06,07,08,09,10,11,12,7.1,7.0,0.9*39
$GPGSV,3,1,12,01,45,045,50,02,45,045,50,03,45,045,50,04,45,045,50*7c
$GPGSV,3,2,12,05,45,045,50,06,45,045,50,07,45,045,50,08,45,045,50*77
$GPGSV,3,3,12,09,45,045,50,10,45,045,50,11,45,045,50,12,45,045,50*71
$GPRMC,120518.95,A,5200.3933,N,422.2714,E,-1.9,128.4,121223,0.0,E,A*14
$GPVTG,128.4,T,0.0,M,-1.9,N,-3.6,K*4c
$GPGGA,120518.95,5200.3933,N,00422.2714,E,12,12,7.0,1.6,M,0.0,M,0.0,0000*49
$GPGSA,A,3,01,02,03,04,05,06,07,08,09,10,11,12,7.1,7.0,0.9*39
$GPGSV,3,1,12,01,45,045,50,02,45,045,50,03,45,045,50,04,45,045,50*7c
$GPGSV,3,2,12,05,45,045,50,06,45,045,50,07,45,045,50,08,45,045,50*77
$GPGSV,3,3,12,09,45,045,50,10,45,045,50,11,45,045,50,12,45,045,50*71
$GPRMC,120519.38,A,5200.3936,N,422.2717,E,-1.9,128.4,121223,0.0,E,A*14
$GPVTG,128.4,T,0.0,M,-1.9,N,-3.6,K*4c
$GPGGA,120519.38,5200.3936,N,00422.2717,E,12,12,7.0,1.6,M,0.0,M,0.0,0000*49
$GPGSA,A,3,01,02,03,04,05,06,07,08,09,10,11,12,7.1,7.0,0.9*39
$GPGSV,3,1,12,01,45,045,50,02,45,045,50,03,45,045,50,04,45,045,50*7c
$GPGSV,3,2,12,05,45,045,50,06,45,045,50,07,45,045,50,08,45,045,50*77
$GPGSV,3,3,12,09,45,045,50,10,45,045,50,11,45,045,50,12,45,045,50*71
$GPRMC,120530.95,A,5200.3933,N,422.2713,E,-1.9,128.4,121223,0.0,E,A*19
$GPVTG,128.4,T,0.0,M,-1.9,N,-3.6,K*4c
$GPGGA,120530.95,5200.3933,N,00422.2713,E,12,12,7.0,1.6,M,0.0,M,0.0,0000*44
$GPGSA,A,3,01,02,03,04,05,06,07,08,09,10,11,12,7.1,7.0,0.9*39
$GPGSV,3,1,12,01,45,045,50,02,45,045,50,03,45,045,50,04,45,045,50*7c
$GPGSV,3,2,12,05,45,045,50,06,45,045,50,07,45,045,50,08,45,045,50*77
$GPGSV,3,3,12,09,45,045,50,10,45,045,50,11,45,045,50,12,45,045,50*71
$GPRMC,120536.98,A,5200.3931,N,422.2711,E,-1.9,128.4,121223,0.0,E,A*12
$GPVTG,128.4,T,0.0,M,-1.9,N,-3.6,K*4c
$GPGGA,120536.98,5200.3931,N,00422.2711,E,12,12,7.0,1.6,M,0.0,M,0.0,0000*4f
$GPGSA,A,3,01,02,03,04,05,06,07,08,09,10,11,12,7.1,7.0,0.8*38
$GPGSV,3,1,12,01,45,045,50,02,45,045,50,03,45,045,50,04,45,045,50*7c
$GPGSV,3,2,12,05,45,045,50,06,45,045,50,07,45,045,50,08,45,045,50*77
$GPGSV,3,3,12,09,45,045,50,10,45,045,50,11,45,045,50,12,45,045,50*71
$GPRMC,120537.42,A,5200.3937,N,422.2722,E,-1.9,128.4,121223,0.0,E,A*12
$GPVTG,128.4,T,0.0,M,-1.9,N,-3.6,K*4c
$GPGGA,120537.42,5200.3937,N,00422.2722,E,12,12,7.0,1.6,M,0.0,M,0.0,0000*4f
$GPGSA,A,3,01,02,03,04,05,06,07,08,09,10,11,12,7.0,7.0,0.8*39
$GPGSV,3,1,12,01,45,045,50,02,45,045,50,03,45,045,50,04,45,045,50*7c
$GPGSV,3,2,12,05,45,045,50,06,45,045,50,07,45,045,50,08,45,045,50*77
$GPGSV,3,3,12,09,45,045,50,10,45,045,50,11,45,045,50,12,45,045,50*71
$GPRMC,120538.64,A,5200.3938,N,422.2726,E,-1.9,128.4,121223,0.0,E,A*12
$GPVTG,128.4,T,0.0,M,-1.9,N,-3.6,K*4c
$GPGGA,120538.64,5200.3938,N,00422.2726,E,12,12,7.0,1.6,M,0.0,M,0.0,0000*4f
$GPGSA,A,3,01,02,03,04,05,06,07,08,09,10,11,12,7.0,7.0,0.8*39
$GPGSV,3,1,12,01,45,045,50,02,45,045,50,03,45,045,50,04,45,045,50*7c
$GPGSV,3,2,12,05,45,045,50,06,45,045,50,07,45,045,50,08,45,045,50*77
$GPGSV,3,3,12,09,45,045,50,10,45,045,50,11,45,045,50,12,45,045,50*71
$GPRMC,120549.17,A,5200.3935,N,422.2720,E,-1.9,128.4,121223,0.0,E,A*1b
$GPVTG,128.4,T,0.0,M,-1.9,N,-3.6,K*4c
$GPGGA,120549.17,5200.3935,N,00422.2720,E,12,12,7.0,1.6,M,0.0,M,0.0,0000*46
$GPGSA,A,3,01,02,03,04,05,06,07,08,09,10,11,12,7.0,7.0,0.8*39
$GPGSV,3,1,12,01,45,045,50,02,45,045,50,03,45,045,50,04,45,045,50*7c
$GPGSV,3,2,12,05,45,045,50,06,45,045,50,07,45,045,50,08,45,045,50*77
$GPGSV,3,3,12,09,45,045,50,10,45,045,50,11,45,045,50,12,45,045,50*71
$GPRMC,120549.60,A,5200.3941,N,422.2728,E,-1.9,128.4,121223,0.0,E,A*10
$GPVTG,128.4,T,0.0,M,-1.9,N,-3.6,K*4c
$GPGGA,120549.60,5200.3941,N,00422.2728,E,12,12,7.0,1.6,M,0.0,M,0.0,0000*4d
$GPGSA,A,3,01,02,03,04,05,06,07,08,09,10,11,12,7.0,7.0,0.8*39
$GPGSV,3,1,12,01,45,045,50,02,45,045,50,03,45,045,50,04,45,045,50*7c
$GPGSV,3,2,12,05,45,045,50,06,45,045,50,07,45,045,50,08,45,045,50*77
$GPGSV,3,3,12,09,45,045,50,10,45,045,50,11,45,045,50,12,45,045,50*71
$GPRMC,120604.61,A,5200.3943,N,422.2731,E,-1.9,128.4,121223,0.0,E,A*11
$GPVTG,128.4,T,0.0,M,-1.9,N,-3.6,K*4c
$GPGGA,120604.61,5200.3943,N,00422.2731,E,12,12,7.0,1.6,M,0.0,M,0.0,0000*4c
$GPGSA,A,3,01,02,03,04,05,06,07,08,09,10,11,12,7.0,7.0,0.8*39
$GPGSV,3,1,12,01,45,045,50,02,45,045,50,03,45,045,50,04,45,045,50*7c
$GPGSV,3,2,12,05,45,045,50,06,45,045,50,07,45,045,50,08,45,045,50*77
$GPGSV,3,3,12,09,45,045,50,10,45,045,50,11,45,045,50,12,45,045,50*71
$GPRMC,120619.62,A,5200.3943,N,422.2731,E,-1.9,128.4,121223,0.0,E,A*1e
$GPVTG,128.4,T,0.0,M,-1.9,N,-3.6,K*4c
$GPGGA,120619.62,5200.3943,N,00422.2731,E,12,12,7.0,1.6,M,0.0,M,0.0,0000*43
$GPGSA,A,3,01,02,03,04,05,06,07,08,09,10,11,12,7.0,7.0,0.8*39
$GPGSV,3,1,12,01,45,045,50,02,45,045,50,03,45,045,50,04,45,045,50*7c
$GPGSV,3,2,12,05,45,045,50,06,45,045,50,07,45,045,50,08,45,045,50*77
$GPGSV,3,3,12,09,45,045,50,10,45,045,50,11,45,045,50,12,45,045,50*71
$GPRMC,120634.63,A,5200.3943,N,422.2731,E,-1.9,128.4,121223,0.0,E,A*10
$GPVTG,128.4,T,0.0,M,-1.9,N,-3.6,K*4c
$GPGGA,120634.63,5200.3943,N,00422.2731,E,12,12,7.0,1.6,M,0.0,M,0.0,0000*4d
$GPGSA,A,3,01,02,03,04,05,06,07,08,09,10,11,12,7.0,7.0,0.8*39
$GPGSV,3,1,12,01,45,045,50,02,45,045,50,03,45,045,50,04,45,045,50*7c
$GPGSV,3,2,12,05,45,045,50,06,45,045,50,07,45,045,50,08,45,045,50*77
$GPGSV,3,3,12,09,45,045,50,10,45,045,50,11,45,045,50,12,45,045,50*71
$GPRMC,120649.63,A,5200.3943,N,422.2732,E,-1.9,128.4,121223,0.0,E,A*19
$GPVTG,128.4,T,0.0,M,-1.9,N,-3.6,K*4c
$GPGGA,120649.63,5200.3943,N,00422.2732,E,12,12,7.0,1.6,M,0.0,M,0.0,0000*44
$GPGSA,A,3,01,02,03,04,05,06,07,08,09,10,11,12,7.0,7.0,0.8*39
$GPGSV,3,1,12,01,45,045,50,02,45,045,50,03,45,045,50,04,45,045,50*7c
$GPGSV,3,2,12,05,45,045,50,06,45,045,50,07,45,045,50,08,45,045,50*77
$GPGSV,3,3,12,09,45,045,50,10,45,045,50,11,45,045,50,12,45,045,50*71
$GPRMC,120704.64,A,5200.3943,N,422.2732,E,-1.9,128.4,121223,0.0,E,A*16
$GPVTG,128.4,T,0.0,M,-1.9,N,-3.6,K*4c
$GPGGA,120704.64,5200.3943,N,00422.2732,E,12,12,7.0,1.6,M,0.0,M,0.0,0000*4b
$GPGSA,A,3,01,02,03,04,05,06,07,08,09,10,11,12,7.0,7.0,0.8*39
$GPGSV,3,1,12,01,45,045,50,02,45,045,50,03,45,045,50,04,45,045,50*7c
$GPGSV,3,2,12,05,45,045,50,06,45,045,50,07,45,045,50,08,45,045,50*77
$GPGSV,3,3,12,09,45,045,50,10,45,045,50,11,45,045,50,12,45,045,50*71
$GPRMC,120719.64,A,5200.3943,N,422.2732,E,-1.9,128.4,121223,0.0,E,A*1a
$GPVTG,128.4,T,0.0,M,-1.9,N,-3.6,K*4c
$GPGGA,120719.64,5200.3943,N,00422.2732,E,12,12,7.0,1.6,M,0.0,M,0.0,0000*47
$GPGSA,A,3,01,02,03,04,05,06,07,08,09,10,11,12,7.0,7.0,0.8*39
$GPGSV,3,1,12,01,45,045,50,02,45,045,50,03,45,045,50,04,45,045,50*7c
$GPGSV,3,2,12,05,45,045,50,06,45,045,50,07,45,045,50,08,45,045,50*77
$GPGSV,3,3,12,09,45,045,50,10,45,045,50,11,45,045,50,12,45,045,50*71
$GPRMC,120734.65,A,5200.3943,N,422.2732,E,-1.9,128.4,121223,0.0,E,A*14
$GPVTG,128.4,T,0.0,M,-1.9,N,-3.6,K*4c
$GPGGA,120734.65,5200.3943,N,00422.2732,E,12,12,7.0,1.6,M,0.0,M,0.0,0000*49
$GPGSA,A,3,01,02,03,04,05,06,07,08,09,10,11,12,7.0,7.0,0.8*39
$GPGSV,3,1,12,01,45,045,50,02,45,045,50,03,45,045,50,04,45,045,50*7c
$GPGSV,3,2,12,05,45,045,50,06,45,045,50,07,45,045,50,08,45,045,50*77
$GPGSV,3,3,12,09,45,045,50,10,45,045,50,11,45,045,50,12,45,045,50*71
$GPRMC,120749.66,A,5200.3943,N,422.2732,E,-1.9,128.4,121223,0.0,E,A*1d
$GPVTG,128.4,T,0.0,M,-1.9,N,-3.6,K*4c
$GPGGA,120749.66,5200.3943,N,00422.2732,E,12,12,7.0,1.6,M,0.0,M,0.0,0000*40
$GPGSA,A,3,01,02,03,04,05,06,07,08,09,10,11,12,7.0,7.0,0.8*39
$GPGSV,3,1,12,01,45,045,50,02,45,045,50,03,45,045,50,04,45,045,50*7c
$GPGSV,3,2,12,05,45,045,50,06,45,045,50,07,45,045,50,08,45,045,50*77
$GPGSV,3,3,12,09,45,045,50,10,45,045,50,11,45,045,50,12,45,045,50*71
$GPRMC,120804.66,A,5200.3943,N,422.2732,E,-1.9,128.4,121223,0.0,E,A*1b
$GPVTG,128.4,T,0.0,M,-1.9,N,-3.6,K*4c
$GPGGA,120804.66,5200.3943,N,00422.2732,E,12,12,7.0,1.6,M,0.0,M,0.0,0000*46
$GPGSA,A,3,01,02,03,04,05,06,07,08,09,10,11,12,7.0,7.0,0.8*39
$GPGSV,3,1,12,01,45,045,50,02,45,045,50,03,45,045,50,04,45,045,50*7c
$GPGSV,3,2,12,05,45,045,50,06,45,045,50,07,45,045,50,08,45,045,50*77
$GPGSV,3,3,12,09,45,045,50,10,45,045,50,11,45,045,50,12,45,045,50*71
$GPRMC,120819.67,A,5200.3943,N,422.2732,E,-1.9,128.4,121223,0.0,E,A*16
$GPVTG,128.4,T,0.0,M,-1.9,N,-3.6,K*4c
$GPGGA,120819.67,5200.3943,N,00422.2732,E,12,12,7.0,1.6,M,0.0,M,0.0,0000*4b
$GPGSA,A,3,01,02,03,04,05,06,07,08,09,10,11,12,7.0,7.0,0.7*36
$GPGSV,3,1,12,01,45,045,50,02,45,045,50,03,45,045,50,04,45,045,50*7c
$GPGSV,3,2,12,05,45,045,50,06,45,045,50,07,45,045,50,08,45,045,50*77
$GPGSV,3,3,12,09,45,045,50,10,45,045,50,11,45,045,50,12,45,045,50*71
$GPRMC,120834.67,A,5200.3943,N,422.2732,E,-1.9,128.4,121223,0.0,E,A*19
$GPVTG,128.4,T,0.0,M,-1.9,N,-3.6,K*4c
$GPGGA,120834.67,5200.3943,N,00422.2732,E,12,12,7.0,1.6,M,0.0,M,0.0,0000*44
$GPGSA,A,3,01,02,03,04,05,06,07,08,09,10,11,12,7.0,7.0,0.7*36
$GPGSV,3,1,12,01,45,045,50,02,45,045,50,03,45,045,50,04,45,045,50*7c
$GPGSV,3,2,12,05,45,045,50,06,45,045,50,07,45,045,50,08,45,045,50*77
$GPGSV,3,3,12,09,45,045,50,10,45,045,50,11,45,045,50,12,45,045,50*71
$GPRMC,120849.68,A,5200.3943,N,422.2732,E,-1.9,128.4,121223,0.0,E,A*1c
$GPVTG,128.4,T,0.0,M,-1.9,N,-3.6,K*4c
$GPGGA,120849.68,5200.3943,N,00422.2732,E,12,12,7.0,1.6,M,0.0,M,0.0,0000*41
$GPGSA,A,3,01,02,03,04,05,06,07,08,09,10,11,12,7.0,7.0,0.7*36
$GPGSV,3,1,12,01,45,045,50,02,45,045,50,03,45,045,50,04,45,045,50*7c
$GPGSV,3,2,12,05,45,045,50,06,45,045,50,07,45,045,50,08,45,045,50*77
$GPGSV,3,3,12,09,45,045,50,10,45,045,50,11,45,045,50,12,45,045,50*71
$GPRMC,120904.68,A,5200.3943,N,422.2732,E,-1.9,128.4,121223,0.0,E,A*14
$GPVTG,128.4,T,0.0,M,-1.9,N,-3.6,K*4c
$GPGGA,120904.68,5200.3943,N,00422.2732,E,12,12,7.0,1.6,M,0.0,M,0.0,0000*49
$GPGSA,A,3,01,02,03,04,05,06,07,08,09,10,11,12,7.0,7.0,0.7*36
$GPGSV,3,1,12,01,45,045,50,02,45,045,50,03,45,045,50,04,45,045,50*7c
$GPGSV,3,2,12,05,45,045,50,06,45,045,50,07,45,045,50,08,45,045,50*77
$GPGSV,3,3,12,09,45,045,50,10,45,045,50,11,45,045,50,12,45,045,50*71
$GPRMC,120919.69,A,5200.3943,N,422.2732,E,-1.9,128.4,121223,0.0,E,A*19
$GPVTG,128.4,T,0.0,M,-1.9,N,-3.6,K*4c
$GPGGA,120919.69,5200.3943,N,00422.2732,E,12,12,7.0,1.6,M,0.0,M,0.0,0000*44
$GPGSA,A,3,01,02,03,04,05,06,07,08,09,10,11,12,7.0,7.0,0.7*36
$GPGSV,3,1,12,01,45,045,50,02,45,045,50,03,45,045,50,04,45,045,50*7c
$GPGSV,3,2,12,05,45,045,50,06,45,045,50,07,45,045,50,08,45,045,50*77
$GPGSV,3,3,12,09,45,045,50,10,45,045,50,11,45,045,50,12,45,045,50*71
$GPRMC,120934.69,A,5200.3943,N,422.2732,E,-1.9,128.4,121223,0.0,E,A*16
$GPVTG,128.4,T,0.0,M,-1.9,N,-3.6,K*4c
$GPGGA,120934.69,5200.3943,N,00422.2732,E,12,12,7.0,1.6,M,0.0,M,0.0,0000*4b
$GPGSA,A,3,01,02,03,04,05,06,07,08,09,10,11,12,7.0,7.0,0.7*36
$GPGSV,3,1,12,01,45,045,50,02,45,045,50,03,45,045,50,04,45,045,50*7c
$GPGSV,3,2,12,05,45,045,50,06,45,045,50,07,45,045,50,08,45,045,50*77
$GPGSV,3,3,12,09,45,045,50,10,45,045,50,11,45,045,50,12,45,045,50*71
$GPRMC,120949.70,A,5200.3943,N,422.2732,E,-1.9,128.4,121223,0.0,E,A*14
$GPVTG,128.4,T,0.0,M,-1.9,N,-3.6,K*4c
$GPGGA,120949.70,5200.3943,N,00422.2732,E,12,12,7.0,1.6,M,0.0,M,0.0,0000*49
$GPGSA,A,3,01,02,03,04,05,06,07,08,09,10,11,12,7.0,7.0,0.7*36
$GPGSV,3,1,12,01,45,045,50,02,45,045,50,03,45,045,50,04,45,045,50*7c
$GPGSV,3,2,12,05,45,045,50,06,45,045,50,07,45,045,50,08,45,045,50*77
$GPGSV,3,3,12,09,45,045,50,10,45,045,50,11,45,045,50,12,45,045,50*71
$GPRMC,121004.70,A,5200.3943,N,422.2732,E,-1.9,128.4,121223,0.0,E,A*15
$GPVTG,128.4,T,0.0,M,-1.9,N,-3.6,K*4c
$GPGGA,121004.70,5200.3943,N,00422.2732,E,12,12,7.0,1.6,M,0.0,M,0.0,0000*48
$GPGSA,A,3,01,02,03,04,05,06,07,08,09,10,11,12,7.0,7.0,0.7*36
$GPGSV,3,1,12,01,45,045,50,02,45,045,50,03,45,045,50,04,45,045,50*7c
$GPGSV,3,2,12,05,45,045,50,06,45,045,50,07,45,045,50,08,45,045,50*77
$GPGSV,3,3,12,09,45,045,50,10,45,045,50,11,45,045,50,12,45,045,50*71
$GPRMC,121019.71,A,5200.3943,N,422.2732,E,-1.9,128.4,121223,0.0,E,A*18
$GPVTG,128.4,T,0.0,M,-1.9,N,-3.6,K*4c
$GPGGA,121019.71,5200.3943,N,00422.2732,E,12,12,7.0,1.6,M,0.0,M,0.0,0000*45
$GPGSA,A,3,01,02,03,04,05,06,07,08,09,10,11,12,7.0,7.0,0.7*36
$GPGSV,3,1,12,01,45,045,50,02,45,045,50,03,45,045,50,04,45,045,50*7c
$GPGSV,3,2,12,05,45,045,50,06,45,045,50,07,45,045,50,08,45,045,50*77
$GPGSV,3,3,12,09,45,045,50,10,45,045,50,11,45,045,50,12,45,045,50*71
$GPRMC,121034.72,A,5200.3943,N,422.2732,E,-1.9,128.4,121223,0.0,E,A*14
$GPVTG,128.4,T,0.0,M,-1.9,N,-3.6,K*4c
$GPGGA,121034.72,5200.3943,N,00422.2732,E,12,12,7.0,1.6,M,0.0,M,0.0,0000*49
$GPGSA,A,3,01,02,03,04,05,06,07,08,09,10,11,12,7.0,7.0,0.7*36
$GPGSV,3,1,12,01,45,045,50,02,45,045,50,03,45,045,50,04,45,045,50*7c
$GPGSV,3,2,12,05,45,045,50,06,45,045,50,07,45,045,50,08,45,045,50*77
$GPGSV,3,3,12,09,45,045,50,10,45,045,50,11,45,045,50,12,45,045,50*71
$GPRMC,121049.72,A,5200.3938,N,422.2723,E,-1.9,128.4,121223,0.0,E,A*12
$GPVTG,128.4,T,0.0,M,-1.9,N,-3.6,K*4c
$GPGGA,121049.72,5200.3938,N,00422.2723,E,12,12,7.0,1.6,M,0.0,M,0.0,0000*4f
$GPGSA,A,3,01,02,03,04,05,06,07,08,09,10,11,12,7.0,7.0,0.7*36
$GPGSV,3,1,12,01,45,045,50,02,45,045,50,03,45,045,50,04,45,045,50*7c
$GPGSV,3,2,12,05,45,045,50,06,45,045,50,07,45,045,50,08,45,045,50*77
$GPGSV,3,3,12,09,45,045,50,10,45,045,50,11,45,045,50,12,45,045,50*71
$GPRMC,121050.16,A,5200.3939,N,422.2724,E,-1.9,128.4,121223,0.0,E,A*1e
$GPVTG,128.4,T,0.0,M,-1.9,N,-3.6,K*4c
$GPGGA,121050.16,5200.3939,N,00422.2724,E,12,12,7.0,1.6,M,0.0,M,0.0,0000*43
$GPGSA,A,3,01,02,03,04,05,06,07,08,09,10,11,12,7.0,7.0,0.7*36
$GPGSV,3,1,12,01,45,045,50,02,45,045,50,03,45,045,50,04,45,045,50*7c
$GPGSV,3,2,12,05,45,045,50,06,45,045,50,07,45,045,50,08,45,045,50*77
$GPGSV,3,3,12,09,45,045,50,10,45,045,50,11,45,045,50,12,45,045,50*71
$GPRMC,121101.41,A,5200.3936,N,422.2718,E,-1.9,128.4,121223,0.0,E,A*19
$GPVTG,128.4,T,0.0,M,-1.9,N,-3.6,K*4c
$GPGGA,121101.41,5200.3936,N,00422.2718,E,12,12,7.0,1.6,M,0.0,M,0.0,0000*44
$GPGSA,A,3,01,02,03,04,05,06,07,08,09,10,11,12,7.0,7.0,0.7*36
$GPGSV,3,1,12,01,45,045,50,02,45,045,50,03,45,045,50,04,45,045,50*7c
$GPGSV,3,2,12,05,45,045,50,06,45,045,50,07,45,045,50,08,45,045,50*77
$GPGSV,3,3,12,09,45,045,50,10,45,045,50,11,45,045,50,12,45,045,50*71
$GPRMC,121101.84,A,5200.3944,N,422.2732,E,-1.9,128.4,121223,0.0,E,A*1d
$GPVTG,128.4,T,0.0,M,-1.9,N,-3.6,K*4c
$GPGGA,121101.84,5200.3944,N,00422.2732,E,12,12,7.0,1.6,M,0.0,M,0.0,0000*40
$GPGSA,A,3,01,02,03,04,05,06,07,08,09,10,11,12,7.0,7.0,0.7*36
$GPGSV,3,1,12,01,45,045,50,02,45,045,50,03,45,045,50,04,45,045,50*7c
$GPGSV,3,2,12,05,45,045,50,06,45,045,50,07,45,045,50,08,45,045,50*77
$GPGSV,3,3,12,09,45,045,50,10,45,045,50,11,45,045,50,12,45,045,50*71
$GPRMC,121113.40,A,5200.3939,N,422.2724,E,-1.9,128.4,121223,0.0,E,A*1b
$GPVTG,128.4,T,0.0,M,-1.9,N,-3.6,K*4c
$GPGGA,121113.40,5200.3939,N,00422.2724,E,12,12,7.0,1.6,M,0.0,M,0.0,0000*46
$GPGSA,A,3,01,02,03,04,05,06,07,08,09,10,11,12,7.0,7.0,0.7*36
$GPGSV,3,1,12,01,45,045,50,02,45,045,50,03,45,045,50,04,45,045,50*7c
$GPGSV,3,2,12,05,45,045,50,06,45,045,50,07,45,045,50,08,45,045,50*77
$GPGSV,3,3,12,09,45,045,50,10,45,045,50,11,45,045,50,12,45,045,50*71
$GPRMC,121113.85,A,5200.3930,N,422.2710,E,-1.9,128.4,121223,0.0,E,A*1c
$GPVTG,128.4,T,0.0,M,-1.9,N,-3.6,K*4c
$GPGGA,121113.85,5200.3930,N,00422.2710,E,12,12,7.0,1.6,M,0.0,M,0.0,0000*41
$GPGSA,A,3,01,02,03,04,05,06,07,08,09,10,11,12,7.0,7.0,0.7*36
$GPGSV,3,1,12,01,45,045,50,02,45,045,50,03,45,045,50,04,45,045,50*7c
$GPGSV,3,2,12,05,45,045,50,06,45,045,50,07,45,045,50,08,45,045,50*77
$GPGSV,3,3,12,09,45,045,50,10,45,045,50,11,45,045,50,12,45,045,50*71
$GPRMC,121125.41,A,5200.3930,N,422.2709,E,-1.9,128.4,121223,0.0,E,A*19
$GPVTG,128.4,T,0.0,M,-1.9,N,-3.6,K*4c
$GPGGA,121125.41,5200.3930,N,00422.2709,E,12,12,7.0,1.6,M,0.0,M,0.0,0000*44
$GPGSA,A,3,01,02,03,04,05,06,07,08,09,10,11,12,7.0,7.0,0.7*36
$GPGSV,3,1,12,01,45,045,50,02,45,045,50,03,45,045,50,04,45,045,50*7c
$GPGSV,3,2,12,05,45,045,50,06,45,045,50,07,45,045,50,08,45,045,50*77
$GPGSV,3,3,12,09,45,045,50,10,45,045,50,11,45,045,50,12,45,045,50*71
$GPRMC,121125.85,A,5200.3938,N,422.2721,E,-1.9,128.4,121223,0.0,E,A*13
$GPVTG,128.4,T,0.0,M,-1.9,N,-3.6,K*4c
$GPGGA,121125.85,5200.3938,N,00422.2721,E,12,12,7.0,1.6,M,0.0,M,0.0,0000*4e
$GPGSA,A,3,01,02,03,04,05,06,07,08,09,10,11,12,7.0,7.0,0.7*36
$GPGSV,3,1,12,01,45,045,50,02,45,045,50,03,45,045,50,04,45,045,50*7c
$GPGSV,3,2,12,05,45,045,50,06,45,045,50,07,45,045,50,08,45,045,50*77
$GPGSV,3,3,12,09,45,045,50,10,45,045,50,11,45,045,50,12,45,045,50*71
$GPRMC,121137.61,A,5200.3934,N,422.2716,E,-1.9,128.4,121223,0.0,E,A*12
$GPVTG,128.4,T,0.0,M,-1.9,N,-3.6,K*4c
$GPGGA,121137.61,5200.3934,N,00422.2716,E,12,12,7.0,1.6,M,0.0,M,0.0,0000*4f
$GPGSA,A,3,01,02,03,04,05,06,07,08,09,10,11,12,7.0,7.0,0.7*36
$GPGSV,3,1,12,01,45,045,50,02,45,045,50,03,45,045,50,04,45,045,50*7c
$GPGSV,3,2,12,05,45,045,50,06,45,045,50,07,45,045,50,08,45,045,50*77
$GPGSV,3,3,12,09,45,045,50,10,45,045,50,11,45,045,50,12,45,045,50*71
$GPRMC,121138.06,A,5200.3941,N,422.2726,E,-1.9,128.4,121223,0.0,E,A*1d
$GPVTG,128.4,T,0.0,M,-1.9,N,-3.6,K*4c
$GPGGA,121138.06,5200.3941,N,00422.2726,E,12,12,7.0,1.6,M,0.0,M,0.0,0000*40
$GPGSA,A,3,01,02,03,04,05,06,07,08,09,10,11,12,7.0,7.0,0.7*36
$GPGSV,3,1,12,01,45,045,50,02,45,045,50,03,45,045,50,04,45,045,50*7c
$GPGSV,3,2,12,05,45,045,50,06,45,045,50,07,45,045,50,08,45,045,50*77
$GPGSV,3,3,12,09,45,045,50,10,45,045,50,11,45,045,50,12,45,045,50*71
$GPRMC,121149.62,A,5200.3937,N,422.2719,E,-1.9,128.4,121223,0.0,E,A*14
$GPVTG,128.4,T,0.0,M,-1.9,N,-3.6,K*4c
$GPGGA,121149.62,5200.3937,N,00422.2719,E,12,12,7.0,1.6,M,0.0,M,0.0,0000*49
$GPGSA,A,3,01,02,03,04,05,06,07,08,09,10,11,12,7.0,7.0,0.7*36
$GPGSV,3,1,12,01,45,045,50,02,45,045,50,03,45,045,50,04,45,045,50*7c
$GPGSV,3,2,12,05,45,045,50,06,45,045,50,07,45,045,50,08,45,045,50*77
$GPGSV,3,3,12,09,45,045,50,10,45,045,50,11,45,045,50,12,45,045,50*71
$GPRMC,121150.05,A,5200.3930,N,422.2708,E,-1.9,128.4,121223,0.0,E,A*1a
$GPVTG,128.4,T,0.0,M,-1.9,N,-3.6,K*4c
$GPGGA,121150.05,5200.3930,N,00422.2708,E,12,12,7.0,1.6,M,0.0,M,0.0,0000*47
$GPGSA,A,3,01,02,03,04,05,06,07,08,09,10,11,12,7.0,7.0,0.7*36
$GPGSV,3,1,12,01,45,045,50,02,45,045,50,03,45,045,50,04,45,045,50*7c
$GPGSV,3,2,12,05,45,045,50,06,45,045,50,07,45,045,50,08,45,045,50*77
$GPGSV,3,3,12,09,45,045,50,10,45,045,50,11,45,045,50,12,45,045,50*71
$GPRMC,121201.62,A,5200.3929,N,422.2707,E,-1.9,128.4,121223,0.0,E,A*1b
$GPVTG,128.4,T,0.0,M,-1.9,N,-3.6,K*4c
$GPGGA,121201.62,5200.3929,N,00422.2707,E,12,12,7.0,1.6,M,0.0,M,0.0,0000*46
$GPGSA,A,3,01,02,03,04,05,06,07,08,09,10,11,12,7.0,7.0,0.6*37
$GPGSV,3,1,12,01,45,045,50,02,45,045,50,03,45,045,50,04,45,045,50*7c
$GPGSV,3,2,12,05,45,045,50,06,45,045,50,07,45,045,50,08,45,045,50*77
$GPGSV,3,3,12,09,45,045,50,10,45,045,50,11,45,045,50,12,45,045,50*71
$GPRMC,121202.04,A,5200.3929,N,422.2707,E,-1.9,128.4,121223,0.0,E,A*18
$GPVTG,128.4,T,0.0,M,-1.9,N,-3.6,K*4c
$GPGGA,121202.04,5200.3929,N,00422.2707,E,12,12,7.0,1.6,M,0.0,M,0.0,0000*45
$GPGSA,A,3,01,02,03,04,05,06,07,08,09,10,11,12,7.0,7.0,0.6*37
$GPGSV,3,1,12,01,45,045,50,02,45,045,50,03,45,045,50,04,45,045,50*7c
$GPGSV,3,2,12,05,45,045,50,06,45,045,50,07,45,045,50,08,45,045,50*77
$GPGSV,3,3,12,09,45,045,50,10,45,045,50,11,45,045,50,12,45,045,50*71
$GPRMC,121213.62,A,5200.3928,N,422.2706,E,-1.9,128.4,121223,0.0,E,A*18
$GPVTG,128.4,T,0.0,M,-1.9,N,-3.6,K*4c
$GPGGA,121213.62,5200.3928,N,00422.2706,E,12,12,7.0,1.6,M,0.0,M,0.0,0000*45
$GPGSA,A,3,01,02,03,04,05,06,07,08,09,10,11,12,7.0,7.0,0.6*37
$GPGSV,3,1,12,01,45,045,50,02,45,045,50,03,45,045,50,04,45,045,50*7c
$GPGSV,3,2,12,05,45,045,50,06,45,045,50,07,45,045,50,08,45,045,50*77
$GPGSV,3,3,12,09,45,045,50,10,45,045,50,11,45,045,50,12,45,045,50*71
$GPRMC,121214.04,A,5200.3928,N,422.2705,E,-1.9,128.4,121223,0.0,E,A*1c
$GPVTG,128.4,T,0.0,M,-1.9,N,-3.6,K*4c
$GPGGA,121214.04,5200.3928,N,00422.2705,E,12,12,7.0,1.6,M,0.0,M,0.0,0000*41
$GPGSA,A,3,01,02,03,04,05,06,07,08,09,10,11,12,7.0,7.0,0.6*37
$GPGSV,3,1,12,01,45,045,50,02,45,045,50,03,45,045,50,04,45,045,50*7c
$GPGSV,3,2,12,05,45,045,50,06,45,045,50,07,45,045,50,08,45,045,50*77
$GPGSV,3,3,12,09,45,045,50,10,45,045,50,11,45,045,50,12,45,045,50*71
$GPRMC,121229.05,A,5200.3928,N,422.2705,E,-1.9,128.4,121223,0.0,E,A*13
$GPVTG,128.4,T,0.0,M,-1.9,N,-3.6,K*4c
$GPGGA,121229.05,5200.3928,N,00422.2705,E,12,12,7.0,1.6,M,0.0,M,0.0,0000*4e
$GPGSA,A,3,01,02,03,04,05,06,07,08,09,10,11,12,7.0,7.0,0.6*37
$GPGSV,3,1,12,01,45,045,50,02,45,045,50,03,45,045,50,04,45,045,50*7c
$GPGSV,3,2,12,05,45,045,50,06,45,045,50,07,45,045,50,08,45,045,50*77
$GPGSV,3,3,12,09,45,045,50,10,45,045,50,11,45,045,50,12,45,045,50*71
$GPRMC,121244.06,A,5200.3928,N,422.2705,E,-1.9,128.4,121223,0.0,E,A*1b
$GPVTG,128.4,T,0.0,M,-1.9,N,-3.6,K*4c
$GPGGA,121244.06,5200.3928,N,00422.2705,E,12,12,7.0,1.6,M,0.0,M,0.0,0000*46
$GPGSA,A,3,01,02,03,04,05,06,07,08,09,10,11,12,7.0,7.0,0.6*37
$GPGSV,3,1,12,01,45,045,50,02,45,045,50,03,45,045,50,04,45,045,50*7c
$GPGSV,3,2,12,05,45,045,50,06,45,045,50,07,45,045,50,08,45,045,50*77
$GPGSV,3,3,12,09,45,045,50,10,45,045,50,11,45,045,50,12,45,045,50*71
$GPRMC,121259.06,A,5200.3928,N,422.2705,E,-1.9,128.4,121223,0.0,E,A*17
$GPVTG,128.4,T,0.0,M,-1.9,N,-3.6,K*4c
$GPGGA,121259.06,5200.3928,N,00422.2705,E,12,12,7.0,1.6,M,0.0,M,0.0,0000*4a
$GPGSA,A,3,01,02,03,04,05,06,07,08,09,10,11,12,7.0,7.0,0.6*37
$GPGSV,3,1,12,01,45,045,50,02,45,045,50,03,45,045,50,04,45,045,50*7c
$GPGSV,3,2,12,05,45,045,50,06,45,045,50,07,45,045,50,08,45,045,50*77
$GPGSV,3,3,12,09,45,045,50,10,45,045,50,11,45,045,50,12,45,045,50*71
$GPRMC,121314.07,A,5200.3928,N,422.2705,E,-1.9,128.4,121223,0.0,E,A*1e
$GPVTG,128.4,T,0.0,M,-1.9,N,-3.6,K*4c
$GPGGA,121314.07,5200.3928,N,00422.2705,E,12,12,7.0,1.6,M,0.0,M,0.0,0000*43
$GPGSA,A,3,01,02,03,04,05,06,07,08,09,10,11,12,7.0,7.0,0.6*37
$GPGSV,3,1,12,01,45,045,50,02,45,045,50,03,45,045,50,04,45,045,50*7c
$GPGSV,3,2,12,05,45,045,50,06,45,045,50,07,45,045,50,08,45,045,50*77
$GPGSV,3,3,12,09,45,045,50,10,45,045,50,11,45,045,50,12,45,045,50*71
$GPRMC,121329.07,A,5200.3928,N,422.2705,E,-1.9,128.4,121223,0.0,E,A*10
$GPVTG,128.4,T,0.0,M,-1.9,N,-3.6,K*4c
$GPGGA,121329.07,5200.3928,N,00422.2705,E,12,12,7.0,1.6,M,0.0,M,0.0,0000*4d
$GPGSA,A,3,01,02,03,04,05,06,07,08,09,10,11,12,7.0,7.0,0.6*37
$GPGSV,3,1,12,01,45,045,50,02,45,045,50,03,45,045,50,04,45,045,50*7c
$GPGSV,3,2,12,05,45,045,50,06,45,045,50,07,45,045,50,08,45,045,50*77
$GPGSV,3,3,12,09,45,045,50,10,45,045,50,11,45,045,50,12,45,045,50*71
$GPRMC,121344.08,A,5200.3928,N,422.2705,E,-1.9,128.4,121223,0.0,E,A*14
$GPVTG,128.4,T,0.0,M,-1.9,N,-3.6,K*4c
$GPGGA,121344.08,5200.3928,N,00422.2705,E,12,12,7.0,1.6,M,0.0,M,0.0,0000*49
$GPGSA,A,3,01,02,03,04,05,06,07,08,09,10,11,12,7.0,7.0,0.6*37
$GPGSV,3,1,12,01,45,045,50,02,45,045,50,03,45,045,50,04,45,045,50*7c
$GPGSV,3,2,12,05,45,045,50,06,45,045,50,07,45,045,50,08,45,045,50*77
$GPGSV,3,3,12,09,45,045,50,10,45,045,50,11,45,045,50,12,45,045,50*71
$GPRMC,121359.08,A,5200.3928,N,422.2705,E,-1.9,128.4,121223,0.0,E,A*18
$GPVTG,128.4,T,0.0,M,-1.9,N,-3.6,K*4c
$GPGGA,121359.08,5200.3928,N,00422.2705,E,12,12,7.0,1.6,M,0.0,M,0.0,0000*45
$GPGSA,A,3,01,02,03,04,05,06,07,08,09,10,11,12,7.0,7.0,0.6*37
$GPGSV,3,1,12,01,45,045,50,02,45,045,50,03,45,045,50,04,45,045,50*7c
$GPGSV,3,2,12,05,45,045,50,06,45,045,50,07,45,045,50,08,45,045,50*77
$GPGSV,3,3,12,09,45,045,50,10,45,045,50,11,45,045,50,12,45,045,50*71
$GPRMC,121414.09,A,5200.3928,N,422.2705,E,-1.9,128.4,121223,0.0,E,A*17
$GPVTG,128.4,T,0.0,M,-1.9,N,-3.6,K*4c
$GPGGA,121414.09,5200.3928,N,00422.2705,E,12,12,7.0,1.6,M,0.0,M,0.0,0000*4a
$GPGSA,A,3,01,02,03,04,05,06,07,08,09,10,11,12,7.0,7.0,0.6*37
$GPGSV,3,1,12,01,45,045,50,02,45,045,50,03,45,045,50,04,45,045,50*7c
$GPGSV,3,2,12,05,45,045,50,06,45,045,50,07,45,045,50,08,45,045,50*77
$GPGSV,3,3,12,09,45,045,50,10,45,045,50,11,45,045,50,12,45,045,50*71
$GPRMC,121429.09,A,5200.3928,N,422.2705,E,-1.9,128.4,121223,0.0,E,A*19
$GPVTG,128.4,T,0.0,M,-1.9,N,-3.6,K*4c
$GPGGA,121429.09,5200.3928,N,00422.2705,E,12,12,7.0,1.6,M,0.0,M,0.0,0000*44
$GPGSA,A,3,01,02,03,04,05,06,07,08,09,10,11,12,7.0,7.0,0.6*37
$GPGSV,3,1,12,01,45,045,50,02,45,045,50,03,45,045,50,04,45,045,50*7c
$GPGSV,3,2,12,05,45,045,50,06,45,045,50,07,45,045,50,08,45,045,50*77
$GPGSV,3,3,12,09,45,045,50,10,45,045,50,11,45,045,50,12,45,045,50*71
$GPRMC,121444.10,A,5200.3928,N,422.2705,E,-1.9,128.4,121223,0.0,E,A*1a
$GPVTG,128.4,T,0.0,M,-1.9,N,-3.6,K*4c
$GPGGA,121444.10,5200.3928,N,00422.2705,E,12,12,7.0,1.6,M,0.0,M,0.0,0000*47
$GPGSA,A,3,01,02,03,04,05,06,07,08,09,10,11,12,7.0,7.0,0.6*37
$GPGSV,3,1,12,01,45,045,50,02,45,045,50,03,45,045,50,04,45,045,50*7c
$GPGSV,3,2,12,05,45,045,50,06,45,045,50,07,45,045,50,08,45,045,50*77
$GPGSV,3,3,12,09,45,045,50,10,45,045,50,11,45,045,50,12,45,045,50*71
$GPRMC,121459.11,A,5200.3928,N,422.2705,E,-1.9,128.4,121223,0.0,E,A*17
$GPVTG,128.4,T,0.0,M,-1.9,N,-3.6,K*4c
$GPGGA,121459.11,5200.3928,N,00422.2705,E,12,12,7.0,1.6,M,0.0,M,0.0,0000*4a
$GPGSA,A,3,01,02,03,04,05,06,07,08,09,10,11,12,7.0,7.0,0.6*37
$GPGSV,3,1,12,01,45,045,50,02,45,045,50,03,45,045,50,04,45,045,50*7c
$GPGSV,3,2,12,05,45,045,50,06,45,045,50,07,45,045,50,08,45,045,50*77
$GPGSV,3,3,12,09,45,045,50,10,45,045,50,11,45,045,50,12,45,045,50*71
$GPRMC,121514.11,A,5200.3928,N,422.2705,E,-1.9,128.4,121223,0.0,E,A*1f
$GPVTG,128.4,T,0.0,M,-1.9,N,-3.6,K*4c
$GPGGA,121514.11,5200.3928,N,00422.2705,E,12,12,7.0,1.6,M,0.0,M,0.0,0000*42
$GPGSA,A,3,01,02,03,04,05,06,07,08,09,10,11,12,7.0,7.0,0.6*37
$GPGSV,3,1,12,01,45,045,50,02,45,045,50,03,45,045,50,04,45,045,50*7c
$GPGSV,3,2,12,05,45,045,50,06,45,045,50,07,45,045,50,08,45,045,50*77
$GPGSV,3,3,12,09,45,045,50,10,45,045,50,11,45,045,50,12,45,045,50*71
$GPRMC,121529.12,A,5200.3928,N,422.2705,E,-1.9,128.4,121223,0.0,E,A*12
$GPVTG,128.4,T,0.0,M,-1.9,N,-3.6,K*4c
$GPGGA,121529.12,5200.3928,N,00422.2705,E,12,12,7.0,1.6,M,0.0,M,0.0,0000*4f
$GPGSA,A,3,01,02,03,04,05,06,07,08,09,10,11,12,7.0,7.0,0.6*37
$GPGSV,3,1,12,01,45,045,50,02,45,045,50,03,45,045,50,04,45,045,50*7c
$GPGSV,3,2,12,05,45,045,50,06,45,045,50,07,45,045,50,08,45,045,50*77
$GPGSV,3,3,12,09,45,045,50,10,45,045,50,11,45,045,50,12,45,045,50*71
$GPRMC,121544.12,A,5200.3928,N,422.2705,E,-1.9,128.4,121223,0.0,E,A*19
$GPVTG,128.4,T,0.0,M,-1.9,N,-3.6,K*4c
$GPGGA,121544.12,5200.3928,N,00422.2705,E,12,12,7.0,1.6,M,0.0,M,0.0,0000*44
$GPGSA,A,3,01,02,03,04,05,06,07,08,09,10,11,12,7.0,7.0,0.6*37
$GPGSV,3,1,12,01,45,045,50,02,45,045,50,03,45,045,50,04,45,045,50*7c
$GPGSV,3,2,12,05,45,045,50,06,45,045,50,07,45,045,50,08,45,045,50*77
$GPGSV,3,3,12,09,45,045,50,10,45,045,50,11,45,045,50,12,45,045,50*71
$GPRMC,121559.13,A,5200.3928,N,422.2705,E,-1.9,128.4,121223,0.0,E,A*14
$GPVTG,128.4,T,0.0,M,-1.9,N,-3.6,K*4c
$GPGGA,121559.13,5200.3928,N,00422.2705,E,12,12,7.0,1.6,M,0.0,M,0.0,0000*49
$GPGSA,A,3,01,02,03,04,05,06,07,08,09,10,11,12,7.0,7.0,0.6*37
$GPGSV,3,1,12,01,45,045,50,02,45,045,50,03,45,045,50,04,45,045,50*7c
$GPGSV,3,2,12,05,45,045,50,06,45,045,50,07,45,045,50,08,45,045,50*77
$GPGSV,3,3,12,09,45,045,50,10,45,045,50,11,45,045,50,12,45,045,50*71
$GPRMC,121614.12,A,5200.3928,N,422.2705,E,-1.9,128.4,121223,0.0,E,A*1f
$GPVTG,128.4,T,0.0,M,-1.9,N,-3.6,K*4c
$GPGGA,121614.12,5200.3928,N,00422.2705,E,12,12,7.0,1.6,M,0.0,M,0.0,0000*42
$GPGSA,A,3,01,02,03,04,05,06,07,08,09,10,11,12,7.8,7.8,0.6*37
$GPGSV,3,1,12,01,45,045,50,02,45,045,50,03,45,045,50,04,45,045,50*7c
$GPGSV,3,2,12,05,45,045,50,06,45,045,50,07,45,045,50,08,45,045,50*77
$GPGSV,3,3,12,09,45,045,50,10,45,045,50,11,45,045,50,12,45,045,50*71
$GPRMC,121621.92,A,5200.3928,N,422.2705,E,-1.9,205.0,121223,0.0,E,A*19
$GPVTG,205.0,T,0.0,M,-1.9,N,-3.6,K*44
$GPGGA,121621.92,5200.3928,N,00422.2705,E,12,12,7.8,1.6,M,0.0,M,0.0,0000*44
$GPGSA,A,3,01,02,03,04,05,06,07,08,09,10,11,12,7.1,7.0,1.2*33
$GPGSV,3,1,12,01,45,045,50,02,45,045,50,03,45,045,50,04,45,045,50*7c
$GPGSV,3,2,12,05,45,045,50,06,45,045,50,07,45,045,50,08,45,045,50*77
$GPGSV,3,3,12,09,45,045,50,10,45,045,50,11,45,045,50,12,45,045,50*71
$GPRMC,121622.35,A,5200.3923,N,422.2694,E,-1.9,205.0,121223,0.0,E,A*15
$GPVTG,205.0,T,0.0,M,-1.9,N,-3.6,K*44
$GPGGA,121622.35,5200.3923,N,00422.2694,E,12,12,7.0,1.6,M,0.0,M,0.0,0000*40
